2017-11-04T05:12:19.381847Z $GPZDA,000000,07,08,2014,7
2017-11-04T05:12:19.634179Z $GPGLL,3934.816,S,03727.667,W
2017-11-04T05:12:19.885572Z $GPVTG,230.6,T,,M,011.4,N,021.1,K
2017-11-04T05:12:20.137876Z $GPZDA,000001,07,08,2014,7
2017-11-04T05:12:20.391173Z $GPGLL,3934.818,S,03727.671,W
2017-11-04T05:12:20.646439Z $GPVTG,230.4,T,,M,011.6,N,021.5,K
2017-11-04T05:12:20.900623Z $GPZDA,000002,07,08,2014,7
2017-11-04T05:12:21.151670Z $GPGLL,3934.820,S,03727.675,W
2017-11-04T05:12:21.406910Z $GPVTG,229.9,T,,M,012.1,N,022.4,K
2017-11-04T05:12:21.662148Z $GPZDA,000003,07,08,2014,7
2017-11-04T05:12:21.917365Z $GPGLL,3934.820,S,03727.675,W
2017-11-04T05:12:22.168517Z $GPVTG,229.9,T,,M,012.1,N,022.4,K
2017-11-04T05:12:22.422504Z $GPZDA,000004,07,08,2014,7
2017-11-04T05:12:22.675236Z $GPGLL,3934.822,S,03727.678,W
2017-11-04T05:12:22.927688Z $GPVTG,229.5,T,,M,012.3,N,022.8,K
2017-11-04T05:12:23.180968Z $GPZDA,000005,07,08,2014,7
2017-11-04T05:12:23.432572Z $GPGLL,3934.822,S,03727.678,W
2017-11-04T05:12:23.686738Z $GPVTG,229.5,T,,M,012.3,N,022.8,K
2017-11-04T05:12:23.939352Z $GPZDA,000006,07,08,2014,7
2017-11-04T05:12:24.192983Z $GPGLL,3934.827,S,03727.686,W
2017-11-04T05:12:24.448264Z $GPVTG,229.8,T,,M,011.9,N,022.1,K
2017-11-04T05:12:24.702250Z $GPZDA,000007,07,08,2014,7
2017-11-04T05:12:24.953273Z $GPGLL,3934.829,S,03727.690,W
2017-11-04T05:12:25.208551Z $GPVTG,230.2,T,,M,011.7,N,021.7,K
2017-11-04T05:12:25.458579Z $GPZDA,000008,07,08,2014,7
2017-11-04T05:12:25.713710Z $GPGLL,3934.831,S,03727.694,W
2017-11-04T05:12:25.968944Z $GPVTG,230.0,T,,M,011.8,N,021.9,K
2017-11-04T05:12:26.224217Z $GPZDA,000009,07,08,2014,7
2017-11-04T05:12:26.479468Z $GPGLL,3934.831,S,03727.694,W
2017-11-04T05:12:26.730147Z $GPVTG,230.0,T,,M,011.8,N,021.9,K
2017-11-04T05:12:26.984179Z $GPZDA,000010,07,08,2014,7
2017-11-04T05:12:27.234490Z $GPGLL,3934.834,S,03727.697,W
2017-11-04T05:12:27.489727Z $GPVTG,229.4,T,,M,012.1,N,022.4,K
2017-11-04T05:12:27.744967Z $GPZDA,000011,07,08,2014,7
2017-11-04T05:12:28.000233Z $GPGLL,3934.836,S,03727.701,W
2017-11-04T05:12:28.255497Z $GPVTG,228.8,T,,M,012.4,N,022.9,K
2017-11-04T05:12:28.510825Z $GPZDA,000012,07,08,2014,7
2017-11-04T05:12:28.761012Z $GPGLL,3934.838,S,03727.705,W
2017-11-04T05:12:29.011392Z $GPVTG,229.3,T,,M,011.7,N,021.8,K
2017-11-04T05:12:29.266050Z $GPZDA,000013,07,08,2014,7
2017-11-04T05:12:29.521279Z $GPGLL,3934.840,S,03727.708,W
2017-11-04T05:12:29.776591Z $GPVTG,229.9,T,,M,011.1,N,020.6,K
2017-11-04T05:12:30.031875Z $GPZDA,000014,07,08,2014,7
2017-11-04T05:12:30.284995Z $GPGLL,3934.842,S,03727.712,W
2017-11-04T05:12:30.536998Z $GPVTG,230.4,T,,M,010.9,N,020.3,K
2017-11-04T05:12:30.792296Z $GPZDA,000015,07,08,2014,7
2017-11-04T05:12:31.047544Z $GPGLL,3934.842,S,03727.712,W
2017-11-04T05:12:31.302474Z $GPVTG,230.4,T,,M,010.9,N,020.3,K
2017-11-04T05:12:31.557734Z $GPZDA,000016,07,08,2014,7
2017-11-04T05:12:31.808193Z $GPGLL,3934.844,S,03727.715,W
2017-11-04T05:12:32.063456Z $GPVTG,230.5,T,,M,011.3,N,020.9,K
2017-11-04T05:12:32.318848Z $GPZDA,000017,07,08,2014,7
2017-11-04T05:12:32.574120Z $GPGLL,3934.844,S,03727.715,W
2017-11-04T05:12:32.824222Z $GPVTG,230.5,T,,M,011.3,N,020.9,K
2017-11-04T05:12:33.079334Z $GPZDA,000018,07,08,2014,7
2017-11-04T05:12:33.329560Z $GPGLL,3934.850,S,03727.723,W
2017-11-04T05:12:33.583642Z $GPVTG,229.8,T,,M,011.2,N,020.8,K
2017-11-04T05:12:33.833962Z $GPZDA,000019,07,08,2014,7
2017-11-04T05:12:34.089205Z $GPGLL,3934.853,S,03727.726,W
2017-11-04T05:12:34.342440Z $GPVTG,229.8,T,,M,010.5,N,019.5,K
2017-11-04T05:12:34.594265Z $GPZDA,000020,07,08,2014,7
2017-11-04T05:12:34.849527Z $GPGLL,3934.855,S,03727.729,W
2017-11-04T05:12:35.102328Z $GPVTG,230.7,T,,M,010.0,N,018.4,K
2017-11-04T05:12:35.354491Z $GPZDA,000021,07,08,2014,7
2017-11-04T05:12:35.609786Z $GPGLL,3934.855,S,03727.729,W
2017-11-04T05:12:35.864371Z $GPVTG,230.7,T,,M,010.0,N,018.4,K
2017-11-04T05:12:36.115028Z $GPZDA,000022,07,08,2014,7
2017-11-04T05:12:36.370262Z $GPGLL,3934.857,S,03727.733,W
2017-11-04T05:12:36.625536Z $GPVTG,231.7,T,,M,009.9,N,018.4,K
2017-11-04T05:12:36.878580Z $GPZDA,000023,07,08,2014,7
2017-11-04T05:12:37.129060Z $GPGLL,3934.859,S,03727.737,W
2017-11-04T05:12:37.380160Z $GPVTG,232.6,T,,M,009.9,N,018.3,K
2017-11-04T05:12:37.635455Z $GPZDA,000024,07,08,2014,7
2017-11-04T05:12:37.890695Z $GPGLL,3934.862,S,03727.740,W
2017-11-04T05:12:38.146071Z $GPVTG,231.1,T,,M,010.4,N,019.2,K
2017-11-04T05:12:38.401298Z $GPZDA,000025,07,08,2014,7
2017-11-04T05:12:38.651537Z $GPGLL,3934.865,S,03727.744,W
2017-11-04T05:12:38.906792Z $GPVTG,230.2,T,,M,010.4,N,019.2,K
2017-11-04T05:12:39.156985Z $GPZDA,000026,07,08,2014,7
2017-11-04T05:12:39.411755Z $GPGLL,3934.867,S,03727.747,W
2017-11-04T05:12:39.667015Z $GPVTG,230.0,T,,M,010.0,N,018.6,K
2017-11-04T05:12:39.922250Z $GPZDA,000027,07,08,2014,7
2017-11-04T05:12:40.177580Z $GPGLL,3934.867,S,03727.747,W
2017-11-04T05:12:40.432796Z $GPVTG,230.0,T,,M,010.0,N,018.6,K
2017-11-04T05:12:40.682993Z $GPZDA,000028,07,08,2014,7
2017-11-04T05:12:40.938267Z $GPGLL,3934.870,S,03727.751,W
2017-11-04T05:12:41.188953Z $GPVTG,230.5,T,,M,009.7,N,017.9,K
2017-11-04T05:12:41.443281Z $GPZDA,000029,07,08,2014,7
2017-11-04T05:12:41.698566Z $GPGLL,3934.872,S,03727.754,W
2017-11-04T05:12:41.952314Z $GPVTG,230.9,T,,M,009.4,N,017.4,K
2017-11-04T05:12:42.205317Z $GPZDA,000030,07,08,2014,7
2017-11-04T05:12:42.458662Z $GPGLL,3934.874,S,03727.758,W
2017-11-04T05:12:42.708790Z $GPVTG,231.2,T,,M,009.7,N,017.9,K
2017-11-04T05:12:42.963873Z $GPZDA,000031,07,08,2014,7
2017-11-04T05:12:43.219241Z $GPGLL,3934.876,S,03727.761,W
2017-11-04T05:12:43.469617Z $GPVTG,231.0,T,,M,010.0,N,018.6,K
2017-11-04T05:12:43.724330Z $GPZDA,000032,07,08,2014,7
2017-11-04T05:12:43.979682Z $GPGLL,3934.879,S,03727.765,W
2017-11-04T05:12:44.234912Z $GPVTG,230.6,T,,M,010.4,N,019.3,K
2017-11-04T05:12:44.485014Z $GPZDA,000033,07,08,2014,7
2017-11-04T05:12:44.740093Z $GPGLL,3934.879,S,03727.765,W
2017-11-04T05:12:44.995340Z $GPVTG,230.6,T,,M,010.4,N,019.3,K
2017-11-04T05:12:45.250576Z $GPZDA,000034,07,08,2014,7
2017-11-04T05:12:45.505792Z $GPGLL,3934.881,S,03727.768,W
2017-11-04T05:12:45.761099Z $GPVTG,230.0,T,,M,010.7,N,019.9,K
2017-11-04T05:12:46.011275Z $GPZDA,000035,07,08,2014,7
2017-11-04T05:12:46.266578Z $GPGLL,3934.883,S,03727.772,W
2017-11-04T05:12:46.517098Z $GPVTG,229.5,T,,M,011.0,N,020.3,K
2017-11-04T05:12:46.769137Z $GPZDA,000036,07,08,2014,7
2017-11-04T05:12:47.020828Z $GPGLL,3934.886,S,03727.776,W
2017-11-04T05:12:47.272496Z $GPVTG,229.0,T,,M,010.5,N,019.4,K
2017-11-04T05:12:47.526034Z $GPZDA,000037,07,08,2014,7
2017-11-04T05:12:47.781414Z $GPGLL,3934.888,S,03727.779,W
2017-11-04T05:12:48.032201Z $GPVTG,229.0,T,,M,010.1,N,018.7,K
2017-11-04T05:12:48.284670Z $GPZDA,000038,07,08,2014,7
2017-11-04T05:12:48.536002Z $GPGLL,3934.890,S,03727.782,W
2017-11-04T05:12:48.791284Z $GPVTG,229.6,T,,M,010.2,N,018.8,K
2017-11-04T05:12:49.046552Z $GPZDA,000039,07,08,2014,7
2017-11-04T05:12:49.301922Z $GPGLL,3934.890,S,03727.782,W
2017-11-04T05:12:49.553079Z $GPVTG,229.6,T,,M,010.2,N,018.8,K
2017-11-04T05:12:49.807281Z $GPZDA,000040,07,08,2014,7
2017-11-04T05:12:50.062564Z $GPGLL,3934.892,S,03727.785,W
2017-11-04T05:12:50.317865Z $GPVTG,230.2,T,,M,010.6,N,019.6,K
2017-11-04T05:12:50.573128Z $GPZDA,000041,07,08,2014,7
2017-11-04T05:12:50.826311Z $GPGLL,3934.894,S,03727.789,W
2017-11-04T05:12:51.078316Z $GPVTG,230.7,T,,M,011.0,N,020.3,K
2017-11-04T05:12:51.330752Z $GPZDA,000042,07,08,2014,7
2017-11-04T05:12:51.583318Z $GPGLL,3934.896,S,03727.792,W
2017-11-04T05:12:51.838615Z $GPVTG,229.9,T,,M,010.8,N,020.0,K
2017-11-04T05:12:52.093890Z $GPZDA,000043,07,08,2014,7
2017-11-04T05:12:52.345263Z $GPGLL,3934.899,S,03727.796,W
2017-11-04T05:12:52.599133Z $GPVTG,229.3,T,,M,010.4,N,019.3,K
2017-11-04T05:12:52.849590Z $GPZDA,000044,07,08,2014,7
2017-11-04T05:12:53.103436Z $GPGLL,3934.901,S,03727.799,W
2017-11-04T05:12:53.353669Z $GPVTG,228.9,T,,M,010.2,N,018.8,K
2017-11-04T05:12:53.608999Z $GPZDA,000045,07,08,2014,7
2017-11-04T05:12:53.860587Z $GPGLL,3934.901,S,03727.799,W
2017-11-04T05:12:54.113907Z $GPVTG,228.9,T,,M,010.2,N,018.8,K
2017-11-04T05:12:54.369126Z $GPZDA,000046,07,08,2014,7
2017-11-04T05:12:54.622991Z $GPGLL,3934.903,S,03727.802,W
2017-11-04T05:12:54.873638Z $GPVTG,229.0,T,,M,010.1,N,018.8,K
2017-11-04T05:12:55.123868Z $GPZDA,000047,07,08,2014,7
2017-11-04T05:12:55.378501Z $GPGLL,3934.903,S,03727.802,W
2017-11-04T05:12:55.629117Z $GPVTG,229.0,T,,M,010.1,N,018.8,K
2017-11-04T05:12:55.883545Z $GPZDA,000048,07,08,2014,7
2017-11-04T05:12:56.137432Z $GPGLL,3934.907,S,03727.809,W
2017-11-04T05:12:56.388262Z $GPVTG,229.7,T,,M,010.3,N,019.0,K
2017-11-04T05:12:56.642592Z $GPZDA,000049,07,08,2014,7
2017-11-04T05:12:56.894304Z $GPGLL,3934.910,S,03727.813,W
2017-11-04T05:12:57.145476Z $GPVTG,229.7,T,,M,010.4,N,019.3,K
2017-11-04T05:12:57.398557Z $GPZDA,000050,07,08,2014,7
2017-11-04T05:12:57.652969Z $GPGLL,3934.912,S,03727.817,W
2017-11-04T05:12:57.904096Z $GPVTG,229.0,T,,M,010.6,N,019.7,K
2017-11-04T05:12:58.159201Z $GPZDA,000051,07,08,2014,7
2017-11-04T05:12:58.412938Z $GPGLL,3934.912,S,03727.817,W
2017-11-04T05:12:58.666279Z $GPVTG,229.0,T,,M,010.6,N,019.7,K
2017-11-04T05:12:58.919154Z $GPZDA,000052,07,08,2014,7
2017-11-04T05:12:59.169448Z $GPGLL,3934.915,S,03727.820,W
2017-11-04T05:12:59.419604Z $GPVTG,228.0,T,,M,010.8,N,019.9,K
2017-11-04T05:12:59.674542Z $GPZDA,000053,07,08,2014,7
2017-11-04T05:12:59.929891Z $GPGLL,3934.917,S,03727.824,W
2017-11-04T05:13:00.185207Z $GPVTG,227.2,T,,M,010.9,N,020.2,K
2017-11-04T05:13:00.448036Z $GPZDA,000054,07,08,2014,7
2017-11-04T05:13:00.701960Z $GPGLL,3934.920,S,03727.827,W
2017-11-04T05:13:00.954057Z $GPVTG,227.7,T,,M,010.6,N,019.6,K
2017-11-04T05:13:01.206949Z $GPZDA,000055,07,08,2014,7
2017-11-04T05:13:01.458509Z $GPGLL,3934.922,S,03727.831,W
2017-11-04T05:13:01.710568Z $GPVTG,228.2,T,,M,010.7,N,019.8,K
2017-11-04T05:13:01.961338Z $GPZDA,000056,07,08,2014,7
2017-11-04T05:13:02.216701Z $GPGLL,3934.924,S,03727.834,W
2017-11-04T05:13:02.470585Z $GPVTG,228.1,T,,M,011.1,N,020.5,K
2017-11-04T05:13:02.721344Z $GPZDA,000057,07,08,2014,7
2017-11-04T05:13:02.976708Z $GPGLL,3934.924,S,03727.834,W
2017-11-04T05:13:03.229280Z $GPVTG,228.1,T,,M,011.1,N,020.5,K
2017-11-04T05:13:03.481665Z $GPZDA,000058,07,08,2014,7
2017-11-04T05:13:03.732490Z $GPGLL,3934.926,S,03727.837,W
2017-11-04T05:13:03.986646Z $GPVTG,227.6,T,,M,011.3,N,021.0,K
2017-11-04T05:13:04.241638Z $GPZDA,000059,07,08,2014,7
2017-11-04T05:13:04.492064Z $GPGLL,3934.929,S,03727.841,W
2017-11-04T05:13:04.747368Z $GPVTG,227.1,T,,M,011.5,N,021.4,K
2017-11-04T05:13:05.001941Z $GPZDA,000100,07,08,2014,7
2017-11-04T05:13:05.252278Z $GPGLL,3934.932,S,03727.845,W
2017-11-04T05:13:05.502881Z $GPVTG,227.5,T,,M,011.3,N,020.9,K
2017-11-04T05:13:05.757349Z $GPZDA,000101,07,08,2014,7
2017-11-04T05:13:06.012641Z $GPGLL,3934.935,S,03727.848,W
2017-11-04T05:13:06.267877Z $GPVTG,227.6,T,,M,011.4,N,021.1,K
2017-11-04T05:13:06.523106Z $GPZDA,000102,07,08,2014,7
2017-11-04T05:13:06.773288Z $GPGLL,3934.937,S,03727.852,W
2017-11-04T05:13:07.026687Z $GPVTG,227.4,T,,M,011.6,N,021.4,K
2017-11-04T05:13:07.281904Z $GPZDA,000103,07,08,2014,7
2017-11-04T05:13:07.535079Z $GPGLL,3934.937,S,03727.852,W
2017-11-04T05:13:07.788392Z $GPVTG,227.4,T,,M,011.6,N,021.4,K
2017-11-04T05:13:08.038530Z $GPZDA,000104,07,08,2014,7
2017-11-04T05:13:08.292654Z $GPGLL,3934.940,S,03727.855,W
2017-11-04T05:13:08.545513Z $GPVTG,227.6,T,,M,011.4,N,021.2,K
2017-11-04T05:13:08.798778Z $GPZDA,000105,07,08,2014,7
2017-11-04T05:13:09.052487Z $GPGLL,3934.942,S,03727.859,W
2017-11-04T05:13:09.303752Z $GPVTG,227.8,T,,M,011.3,N,020.9,K
2017-11-04T05:13:09.559036Z $GPZDA,000106,07,08,2014,7
2017-11-04T05:13:09.813477Z $GPGLL,3934.944,S,03727.863,W
2017-11-04T05:13:10.067793Z $GPVTG,228.9,T,,M,011.3,N,020.9,K
2017-11-04T05:13:10.319371Z $GPZDA,000107,07,08,2014,7
2017-11-04T05:13:10.574725Z $GPGLL,3934.946,S,03727.866,W
2017-11-04T05:13:10.827236Z $GPVTG,229.0,T,,M,011.6,N,021.5,K
2017-11-04T05:13:11.081756Z $GPZDA,000108,07,08,2014,7
2017-11-04T05:13:11.335288Z $GPGLL,3934.948,S,03727.869,W
2017-11-04T05:13:11.586832Z $GPVTG,228.3,T,,M,011.8,N,021.8,K
2017-11-04T05:13:11.840248Z $GPZDA,000109,07,08,2014,7
2017-11-04T05:13:12.095527Z $GPGLL,3934.948,S,03727.869,W
2017-11-04T05:13:12.347072Z $GPVTG,228.3,T,,M,011.8,N,021.8,K
2017-11-04T05:13:12.600722Z $GPZDA,000110,07,08,2014,7
2017-11-04T05:13:12.856004Z $GPGLL,3934.951,S,03727.873,W
2017-11-04T05:13:13.107756Z $GPVTG,227.3,T,,M,011.6,N,021.5,K
2017-11-04T05:13:13.360878Z $GPZDA,000111,07,08,2014,7
2017-11-04T05:13:13.616156Z $GPGLL,3934.953,S,03727.876,W
2017-11-04T05:13:13.870446Z $GPVTG,226.4,T,,M,011.5,N,021.2,K
2017-11-04T05:13:14.121225Z $GPZDA,000112,07,08,2014,7
2017-11-04T05:13:14.375849Z $GPGLL,3934.956,S,03727.880,W
2017-11-04T05:13:14.629064Z $GPVTG,227.7,T,,M,011.3,N,020.9,K
2017-11-04T05:13:14.880246Z $GPZDA,000113,07,08,2014,7
2017-11-04T05:13:15.130827Z $GPGLL,3934.958,S,03727.883,W
2017-11-04T05:13:15.385850Z $GPVTG,228.3,T,,M,011.3,N,020.9,K
2017-11-04T05:13:15.636144Z $GPZDA,000114,07,08,2014,7
2017-11-04T05:13:15.889137Z $GPGLL,3934.960,S,03727.886,W
2017-11-04T05:13:16.141059Z $GPVTG,228.2,T,,M,011.4,N,021.1,K
2017-11-04T05:13:16.396439Z $GPZDA,000115,07,08,2014,7
2017-11-04T05:13:16.649851Z $GPGLL,3934.960,S,03727.886,W
2017-11-04T05:13:16.901380Z $GPVTG,228.2,T,,M,011.4,N,021.1,K
2017-11-04T05:13:17.151704Z $GPZDA,000116,07,08,2014,7
2017-11-04T05:13:17.402609Z $GPGLL,3934.963,S,03727.890,W
2017-11-04T05:13:17.655993Z $GPVTG,228.0,T,,M,011.5,N,021.3,K
2017-11-04T05:13:17.911270Z $GPZDA,000117,07,08,2014,7
2017-11-04T05:13:18.166534Z $GPGLL,3934.963,S,03727.890,W
2017-11-04T05:13:18.420237Z $GPVTG,228.0,T,,M,011.5,N,021.3,K
2017-11-04T05:13:18.670907Z $GPZDA,000118,07,08,2014,7
2017-11-04T05:13:18.921571Z $GPGLL,3934.967,S,03727.897,W
2017-11-04T05:13:19.174590Z $GPVTG,228.5,T,,M,011.3,N,020.9,K
2017-11-04T05:13:19.426304Z $GPZDA,000119,07,08,2014,7
2017-11-04T05:13:19.681539Z $GPGLL,3934.969,S,03727.901,W
2017-11-04T05:13:19.931623Z $GPVTG,229.1,T,,M,011.0,N,020.3,K
2017-11-04T05:13:20.185879Z $GPZDA,000120,07,08,2014,7
2017-11-04T05:13:20.436216Z $GPGLL,3934.971,S,03727.904,W
2017-11-04T05:13:20.691471Z $GPVTG,229.5,T,,M,010.9,N,020.1,K
2017-11-04T05:13:20.946748Z $GPZDA,000121,07,08,2014,7
2017-11-04T05:13:21.202033Z $GPGLL,3934.971,S,03727.904,W
2017-11-04T05:13:21.457256Z $GPVTG,229.5,T,,M,010.9,N,020.1,K
2017-11-04T05:13:21.707392Z $GPZDA,000122,07,08,2014,7
2017-11-04T05:13:21.962682Z $GPGLL,3934.974,S,03727.908,W
2017-11-04T05:13:22.218035Z $GPVTG,229.5,T,,M,011.2,N,020.7,K
2017-11-04T05:13:22.473290Z $GPZDA,000123,07,08,2014,7
2017-11-04T05:13:22.724714Z $GPGLL,3934.976,S,03727.912,W
2017-11-04T05:13:22.978664Z $GPVTG,229.4,T,,M,011.4,N,021.1,K
2017-11-04T05:13:23.232654Z $GPZDA,000124,07,08,2014,7
2017-11-04T05:13:23.483658Z $GPGLL,3934.978,S,03727.915,W
2017-11-04T05:13:23.738907Z $GPVTG,229.8,T,,M,010.9,N,020.3,K
2017-11-04T05:13:23.992316Z $GPZDA,000125,07,08,2014,7
2017-11-04T05:13:24.244025Z $GPGLL,3934.981,S,03727.919,W
2017-11-04T05:13:24.499335Z $GPVTG,230.3,T,,M,010.6,N,019.6,K
2017-11-04T05:13:24.753374Z $GPZDA,000126,07,08,2014,7
2017-11-04T05:13:25.004220Z $GPGLL,3934.983,S,03727.922,W
2017-11-04T05:13:25.259505Z $GPVTG,230.7,T,,M,010.7,N,019.9,K
2017-11-04T05:13:25.514741Z $GPZDA,000127,07,08,2014,7
2017-11-04T05:13:25.768688Z $GPGLL,3934.983,S,03727.922,W
2017-11-04T05:13:26.019291Z $GPVTG,230.7,T,,M,010.7,N,019.9,K
2017-11-04T05:13:26.269449Z $GPZDA,000128,07,08,2014,7
2017-11-04T05:13:26.519683Z $GPGLL,3934.985,S,03727.926,W
2017-11-04T05:13:26.774690Z $GPVTG,230.3,T,,M,011.2,N,020.7,K
2017-11-04T05:13:27.026897Z $GPZDA,000129,07,08,2014,7
2017-11-04T05:13:27.279795Z $GPGLL,3934.988,S,03727.930,W
2017-11-04T05:13:27.534910Z $GPVTG,230.0,T,,M,011.5,N,021.3,K
2017-11-04T05:13:27.786051Z $GPZDA,000130,07,08,2014,7
2017-11-04T05:13:28.036275Z $GPGLL,3934.990,S,03727.933,W
2017-11-04T05:13:28.287457Z $GPVTG,230.3,T,,M,011.1,N,020.5,K
2017-11-04T05:13:28.539073Z $GPZDA,000131,07,08,2014,7
2017-11-04T05:13:28.794349Z $GPGLL,3934.992,S,03727.936,W
2017-11-04T05:13:29.049621Z $GPVTG,231.4,T,,M,010.8,N,019.9,K
2017-11-04T05:13:29.304948Z $GPZDA,000132,07,08,2014,7
2017-11-04T05:13:29.555299Z $GPGLL,3934.994,S,03727.940,W
2017-11-04T05:13:29.808959Z $GPVTG,232.4,T,,M,010.7,N,019.9,K
2017-11-04T05:13:30.062304Z $GPZDA,000133,07,08,2014,7
2017-11-04T05:13:30.315271Z $GPGLL,3934.994,S,03727.940,W
2017-11-04T05:13:30.566266Z $GPVTG,232.4,T,,M,010.7,N,019.9,K
2017-11-04T05:13:30.820064Z $GPZDA,000134,07,08,2014,7
2017-11-04T05:13:31.075335Z $GPGLL,3934.996,S,03727.943,W
2017-11-04T05:13:31.325517Z $GPVTG,232.5,T,,M,010.9,N,020.2,K
2017-11-04T05:13:31.580639Z $GPZDA,000135,07,08,2014,7
2017-11-04T05:13:31.835933Z $GPGLL,3934.998,S,03727.947,W
2017-11-04T05:13:32.091178Z $GPVTG,232.7,T,,M,011.1,N,020.5,K
2017-11-04T05:13:32.346413Z $GPZDA,000136,07,08,2014,7
2017-11-04T05:13:32.601688Z $GPGLL,3935.001,S,03727.951,W
2017-11-04T05:13:32.856934Z $GPVTG,231.2,T,,M,011.2,N,020.7,K
2017-11-04T05:13:33.107086Z $GPZDA,000137,07,08,2014,7
2017-11-04T05:13:33.362368Z $GPGLL,3935.004,S,03727.955,W
2017-11-04T05:13:33.615836Z $GPVTG,230.6,T,,M,011.1,N,020.5,K
2017-11-04T05:13:33.867543Z $GPZDA,000138,07,08,2014,7
2017-11-04T05:13:34.122829Z $GPGLL,3935.006,S,03727.958,W
2017-11-04T05:13:34.378120Z $GPVTG,231.0,T,,M,010.7,N,019.8,K
2017-11-04T05:13:34.633415Z $GPZDA,000139,07,08,2014,7
2017-11-04T05:13:34.885743Z $GPGLL,3935.006,S,03727.958,W
2017-11-04T05:13:35.138555Z $GPVTG,231.0,T,,M,010.7,N,019.8,K
2017-11-04T05:13:35.393909Z $GPZDA,000140,07,08,2014,7
2017-11-04T05:13:35.649206Z $GPGLL,3935.008,S,03727.962,W
2017-11-04T05:13:35.902671Z $GPVTG,231.9,T,,M,010.3,N,019.2,K
2017-11-04T05:13:36.153605Z $GPZDA,000141,07,08,2014,7
2017-11-04T05:13:36.403728Z $GPGLL,3935.011,S,03727.965,W
2017-11-04T05:13:36.658996Z $GPVTG,232.6,T,,M,010.0,N,018.6,K
2017-11-04T05:13:36.911113Z $GPZDA,000142,07,08,2014,7
2017-11-04T05:13:37.164361Z $GPGLL,3935.013,S,03727.969,W
2017-11-04T05:13:37.419734Z $GPVTG,231.4,T,,M,010.7,N,019.8,K
2017-11-04T05:13:37.674981Z $GPZDA,000143,07,08,2014,7
2017-11-04T05:13:37.930217Z $GPGLL,3935.016,S,03727.973,W
2017-11-04T05:13:38.184058Z $GPVTG,230.2,T,,M,011.1,N,020.6,K
2017-11-04T05:13:38.435513Z $GPZDA,000144,07,08,2014,7
2017-11-04T05:13:38.690676Z $GPGLL,3935.018,S,03727.976,W
2017-11-04T05:13:38.946007Z $GPVTG,229.9,T,,M,010.9,N,020.1,K
2017-11-04T05:13:39.201365Z $GPZDA,000145,07,08,2014,7
2017-11-04T05:13:39.454583Z $GPGLL,3935.018,S,03727.976,W
2017-11-04T05:13:39.706634Z $GPVTG,229.9,T,,M,010.9,N,020.1,K
2017-11-04T05:13:39.961952Z $GPZDA,000146,07,08,2014,7
2017-11-04T05:13:40.217327Z $GPGLL,3935.020,S,03727.980,W
2017-11-04T05:13:40.472633Z $GPVTG,230.6,T,,M,010.2,N,018.8,K
2017-11-04T05:13:40.727976Z $GPZDA,000147,07,08,2014,7
2017-11-04T05:13:40.983227Z $GPGLL,3935.020,S,03727.980,W
2017-11-04T05:13:41.238589Z $GPVTG,230.6,T,,M,010.2,N,018.8,K
2017-11-04T05:13:41.493830Z $GPZDA,000148,07,08,2014,7
2017-11-04T05:13:41.749222Z $GPGLL,3935.024,S,03727.987,W
2017-11-04T05:13:41.999372Z $GPVTG,231.2,T,,M,010.4,N,019.2,K
2017-11-04T05:13:42.252687Z $GPZDA,000149,07,08,2014,7
2017-11-04T05:13:42.504106Z $GPGLL,3935.027,S,03727.991,W
2017-11-04T05:13:42.759403Z $GPVTG,229.6,T,,M,011.0,N,020.4,K
2017-11-04T05:13:43.013383Z $GPZDA,000150,07,08,2014,7
2017-11-04T05:13:43.264608Z $GPGLL,3935.030,S,03727.995,W
2017-11-04T05:13:43.519517Z $GPVTG,228.3,T,,M,011.0,N,020.4,K
2017-11-04T05:13:43.774783Z $GPZDA,000151,07,08,2014,7
2017-11-04T05:13:44.024990Z $GPGLL,3935.030,S,03727.995,W
2017-11-04T05:13:44.280265Z $GPVTG,228.3,T,,M,011.0,N,020.4,K
2017-11-04T05:13:44.530521Z $GPZDA,000152,07,08,2014,7
2017-11-04T05:13:44.785318Z $GPGLL,3935.032,S,03727.998,W
2017-11-04T05:13:45.040645Z $GPVTG,228.3,T,,M,010.5,N,019.4,K
2017-11-04T05:13:45.295890Z $GPZDA,000153,07,08,2014,7
2017-11-04T05:13:45.551176Z $GPGLL,3935.034,S,03728.002,W
2017-11-04T05:13:45.801963Z $GPVTG,228.3,T,,M,010.0,N,018.5,K
2017-11-04T05:13:46.056459Z $GPZDA,000154,07,08,2014,7
2017-11-04T05:13:46.311839Z $GPGLL,3935.036,S,03728.005,W
2017-11-04T05:13:46.567130Z $GPVTG,229.7,T,,M,010.3,N,019.0,K
2017-11-04T05:13:46.817797Z $GPZDA,000155,07,08,2014,7
2017-11-04T05:13:47.072232Z $GPGLL,3935.038,S,03728.009,W
2017-11-04T05:13:47.327481Z $GPVTG,229.6,T,,M,010.6,N,019.7,K
2017-11-04T05:13:47.580425Z $GPZDA,000156,07,08,2014,7
2017-11-04T05:13:47.832569Z $GPGLL,3935.040,S,03728.013,W
2017-11-04T05:13:48.083705Z $GPVTG,228.8,T,,M,010.8,N,020.0,K
2017-11-04T05:13:48.337491Z $GPZDA,000157,07,08,2014,7
2017-11-04T05:13:48.590298Z $GPGLL,3935.040,S,03728.013,W
2017-11-04T05:13:48.842705Z $GPVTG,228.8,T,,M,010.8,N,020.0,K
2017-11-04T05:13:49.092903Z $GPZDA,000158,07,08,2014,7
2017-11-04T05:13:49.347487Z $GPGLL,3935.042,S,03728.016,W
2017-11-04T05:13:49.602809Z $GPVTG,228.1,T,,M,010.9,N,020.1,K
2017-11-04T05:13:49.858072Z $GPZDA,000159,07,08,2014,7
2017-11-04T05:13:50.113316Z $GPGLL,3935.045,S,03728.020,W
2017-11-04T05:13:50.368552Z $GPVTG,227.5,T,,M,010.9,N,020.2,K
2017-11-04T05:13:50.618803Z $GPZDA,000200,07,08,2014,7
2017-11-04T05:13:50.874022Z $GPGLL,3935.046,S,03728.023,W
2017-11-04T05:13:51.129325Z $GPVTG,228.4,T,,M,010.5,N,019.4,K
2017-11-04T05:13:51.381652Z $GPZDA,000201,07,08,2014,7
2017-11-04T05:13:51.634396Z $GPGLL,3935.048,S,03728.027,W
2017-11-04T05:13:51.889685Z $GPVTG,229.2,T,,M,010.2,N,018.8,K
2017-11-04T05:13:52.144950Z $GPZDA,000202,07,08,2014,7
2017-11-04T05:13:52.400355Z $GPGLL,3935.050,S,03728.030,W
2017-11-04T05:13:52.652504Z $GPVTG,229.7,T,,M,010.2,N,019.0,K
2017-11-04T05:13:52.905507Z $GPZDA,000203,07,08,2014,7
2017-11-04T05:13:53.156192Z $GPGLL,3935.050,S,03728.030,W
2017-11-04T05:13:53.410517Z $GPVTG,229.7,T,,M,010.2,N,019.0,K
2017-11-04T05:13:53.665800Z $GPZDA,000204,07,08,2014,7
2017-11-04T05:13:53.919409Z $GPGLL,3935.052,S,03728.033,W
2017-11-04T05:13:54.169847Z $GPVTG,229.7,T,,M,010.7,N,019.8,K
2017-11-04T05:13:54.425208Z $GPZDA,000205,07,08,2014,7
2017-11-04T05:13:54.675984Z $GPGLL,3935.052,S,03728.033,W
2017-11-04T05:13:54.931242Z $GPVTG,229.7,T,,M,010.7,N,019.8,K
2017-11-04T05:13:55.186266Z $GPZDA,000206,07,08,2014,7
2017-11-04T05:13:55.441533Z $GPGLL,3935.058,S,03728.040,W
2017-11-04T05:13:55.691618Z $GPVTG,229.3,T,,M,010.8,N,020.1,K
2017-11-04T05:13:55.946921Z $GPZDA,000207,07,08,2014,7
2017-11-04T05:13:56.201735Z $GPGLL,3935.061,S,03728.044,W
2017-11-04T05:13:56.452052Z $GPVTG,229.4,T,,M,010.4,N,019.2,K
2017-11-04T05:13:56.707296Z $GPZDA,000208,07,08,2014,7
2017-11-04T05:13:56.960518Z $GPGLL,3935.063,S,03728.047,W
2017-11-04T05:13:57.212265Z $GPVTG,230.2,T,,M,010.0,N,018.5,K
2017-11-04T05:13:57.465459Z $GPZDA,000209,07,08,2014,7
2017-11-04T05:13:57.717245Z $GPGLL,3935.063,S,03728.047,W
2017-11-04T05:13:57.972525Z $GPVTG,230.2,T,,M,010.0,N,018.5,K
2017-11-04T05:13:58.224001Z $GPZDA,000210,07,08,2014,7
2017-11-04T05:13:58.477535Z $GPGLL,3935.065,S,03728.050,W
2017-11-04T05:13:58.732930Z $GPVTG,231.5,T,,M,009.9,N,018.3,K
2017-11-04T05:13:58.984961Z $GPZDA,000211,07,08,2014,7
2017-11-04T05:13:59.237537Z $GPGLL,3935.067,S,03728.054,W
2017-11-04T05:13:59.487647Z $GPVTG,232.6,T,,M,009.8,N,018.1,K
2017-11-04T05:13:59.742947Z $GPZDA,000212,07,08,2014,7
2017-11-04T05:13:59.998256Z $GPGLL,3935.069,S,03728.058,W
2017-11-04T05:14:00.252602Z $GPVTG,231.2,T,,M,010.3,N,019.1,K
2017-11-04T05:14:00.502943Z $GPZDA,000213,07,08,2014,7
2017-11-04T05:14:00.758199Z $GPGLL,3935.071,S,03728.061,W
2017-11-04T05:14:01.013303Z $GPVTG,230.4,T,,M,010.2,N,018.9,K
2017-11-04T05:14:01.263729Z $GPZDA,000214,07,08,2014,7
2017-11-04T05:14:01.519025Z $GPGLL,3935.073,S,03728.064,W
2017-11-04T05:14:01.774268Z $GPVTG,230.3,T,,M,009.8,N,018.1,K
2017-11-04T05:14:02.029695Z $GPZDA,000215,07,08,2014,7
2017-11-04T05:14:02.284943Z $GPGLL,3935.073,S,03728.064,W
2017-11-04T05:14:02.535122Z $GPVTG,230.3,T,,M,009.8,N,018.1,K
2017-11-04T05:14:02.790177Z $GPZDA,000216,07,08,2014,7
2017-11-04T05:14:03.045467Z $GPGLL,3935.075,S,03728.067,W
2017-11-04T05:14:03.300420Z $GPVTG,230.3,T,,M,009.5,N,017.7,K
2017-11-04T05:14:03.555704Z $GPZDA,000217,07,08,2014,7
2017-11-04T05:14:03.806107Z $GPGLL,3935.075,S,03728.067,W
2017-11-04T05:14:04.061328Z $GPVTG,230.3,T,,M,009.5,N,017.7,K
2017-11-04T05:14:04.316620Z $GPZDA,000218,07,08,2014,7
2017-11-04T05:14:04.571079Z $GPGLL,3935.081,S,03728.075,W
2017-11-04T05:14:04.821541Z $GPVTG,229.3,T,,M,009.8,N,018.1,K
2017-11-04T05:14:05.076925Z $GPZDA,000219,07,08,2014,7
2017-11-04T05:14:05.332179Z $GPGLL,3935.084,S,03728.078,W
2017-11-04T05:14:05.586154Z $GPVTG,229.0,T,,M,009.9,N,018.3,K
2017-11-04T05:14:05.837333Z $GPZDA,000220,07,08,2014,7
2017-11-04T05:14:06.092606Z $GPGLL,3935.086,S,03728.082,W
2017-11-04T05:14:06.347834Z $GPVTG,229.3,T,,M,009.8,N,018.1,K
2017-11-04T05:14:06.602938Z $GPZDA,000221,07,08,2014,7
2017-11-04T05:14:06.853060Z $GPGLL,3935.086,S,03728.082,W
2017-11-04T05:14:07.108339Z $GPVTG,229.3,T,,M,009.8,N,018.1,K
2017-11-04T05:14:07.363583Z $GPZDA,000222,07,08,2014,7
2017-11-04T05:14:07.618907Z $GPGLL,3935.089,S,03728.085,W
2017-11-04T05:14:07.869114Z $GPVTG,229.6,T,,M,009.7,N,017.9,K
2017-11-04T05:14:08.124334Z $GPZDA,000223,07,08,2014,7
2017-11-04T05:14:08.379617Z $GPGLL,3935.089,S,03728.085,W
2017-11-04T05:14:08.634868Z $GPVTG,229.6,T,,M,009.7,N,017.9,K
2017-11-04T05:14:08.890092Z $GPZDA,000224,07,08,2014,7
2017-11-04T05:14:09.145337Z $GPGLL,3935.093,S,03728.092,W
2017-11-04T05:14:09.395491Z $GPVTG,228.8,T,,M,010.0,N,018.6,K
2017-11-04T05:14:09.650887Z $GPZDA,000225,07,08,2014,7
2017-11-04T05:14:09.906106Z $GPGLL,3935.095,S,03728.095,W
2017-11-04T05:14:10.161385Z $GPVTG,227.9,T,,M,010.2,N,018.9,K
2017-11-04T05:14:10.416623Z $GPZDA,000226,07,08,2014,7
2017-11-04T05:14:10.671840Z $GPGLL,3935.098,S,03728.098,W
2017-11-04T05:14:10.927060Z $GPVTG,227.8,T,,M,010.0,N,018.6,K
2017-11-04T05:14:11.177440Z $GPZDA,000227,07,08,2014,7
2017-11-04T05:14:11.432810Z $GPGLL,3935.098,S,03728.098,W
2017-11-04T05:14:11.686267Z $GPVTG,227.8,T,,M,010.0,N,018.6,K
2017-11-04T05:14:11.937721Z $GPZDA,000228,07,08,2014,7
2017-11-04T05:14:12.192973Z $GPGLL,3935.100,S,03728.101,W
2017-11-04T05:14:12.448219Z $GPVTG,228.9,T,,M,009.8,N,018.1,K
2017-11-04T05:14:12.702830Z $GPZDA,000229,07,08,2014,7
2017-11-04T05:14:12.958065Z $GPGLL,3935.100,S,03728.101,W
2017-11-04T05:14:13.213256Z $GPVTG,228.9,T,,M,009.8,N,018.1,K
2017-11-04T05:14:13.464431Z $GPZDA,000230,07,08,2014,7
2017-11-04T05:14:13.719684Z $GPGLL,3935.104,S,03728.109,W
2017-11-04T05:14:13.974957Z $GPVTG,229.1,T,,M,010.1,N,018.7,K
2017-11-04T05:14:14.230203Z $GPZDA,000231,07,08,2014,7
2017-11-04T05:14:14.485415Z $GPGLL,3935.106,S,03728.113,W
2017-11-04T05:14:14.735610Z $GPVTG,228.0,T,,M,010.4,N,019.3,K
2017-11-04T05:14:14.985784Z $GPZDA,000232,07,08,2014,7
2017-11-04T05:14:15.236034Z $GPGLL,3935.108,S,03728.116,W
2017-11-04T05:14:15.490060Z $GPVTG,227.6,T,,M,010.4,N,019.2,K
2017-11-04T05:14:15.745303Z $GPZDA,000233,07,08,2014,7
2017-11-04T05:14:15.995836Z $GPGLL,3935.108,S,03728.116,W
2017-11-04T05:14:16.250396Z $GPVTG,227.6,T,,M,010.4,N,019.2,K
2017-11-04T05:14:16.505737Z $GPZDA,000234,07,08,2014,7
2017-11-04T05:14:16.757922Z $GPGLL,3935.110,S,03728.120,W
2017-11-04T05:14:17.010610Z $GPVTG,228.2,T,,M,010.1,N,018.7,K
2017-11-04T05:14:17.262307Z $GPZDA,000235,07,08,2014,7
2017-11-04T05:14:17.515649Z $GPGLL,3935.110,S,03728.120,W
2017-11-04T05:14:17.766623Z $GPVTG,228.2,T,,M,010.1,N,018.7,K
2017-11-04T05:14:18.019882Z $GPZDA,000236,07,08,2014,7
2017-11-04T05:14:18.274868Z $GPGLL,3935.114,S,03728.127,W
2017-11-04T05:14:18.525685Z $GPVTG,229.7,T,,M,010.1,N,018.7,K
2017-11-04T05:14:18.775826Z $GPZDA,000237,07,08,2014,7
2017-11-04T05:14:19.026051Z $GPGLL,3935.116,S,03728.130,W
2017-11-04T05:14:19.280274Z $GPVTG,229.1,T,,M,010.6,N,019.7,K
2017-11-04T05:14:19.535229Z $GPZDA,000238,07,08,2014,7
2017-11-04T05:14:19.785376Z $GPGLL,3935.119,S,03728.134,W
2017-11-04T05:14:20.037580Z $GPVTG,227.7,T,,M,011.1,N,020.6,K
2017-11-04T05:14:20.290040Z $GPZDA,000239,07,08,2014,7
2017-11-04T05:14:20.545312Z $GPGLL,3935.119,S,03728.134,W
2017-11-04T05:14:20.800608Z $GPVTG,227.7,T,,M,011.1,N,020.6,K
2017-11-04T05:14:21.055888Z $GPZDA,000240,07,08,2014,7
2017-11-04T05:14:21.305977Z $GPGLL,3935.121,S,03728.138,W
2017-11-04T05:14:21.561202Z $GPVTG,226.5,T,,M,011.2,N,020.7,K
2017-11-04T05:14:21.816517Z $GPZDA,000241,07,08,2014,7
2017-11-04T05:14:22.071799Z $GPGLL,3935.123,S,03728.141,W
2017-11-04T05:14:22.327080Z $GPVTG,225.5,T,,M,011.2,N,020.8,K
2017-11-04T05:14:22.579738Z $GPZDA,000242,07,08,2014,7
2017-11-04T05:14:22.832262Z $GPGLL,3935.125,S,03728.145,W
2017-11-04T05:14:23.086448Z $GPVTG,227.9,T,,M,010.8,N,020.0,K
2017-11-04T05:14:23.336594Z $GPZDA,000243,07,08,2014,7
2017-11-04T05:14:23.586996Z $GPGLL,3935.127,S,03728.148,W
2017-11-04T05:14:23.842273Z $GPVTG,230.1,T,,M,010.9,N,020.2,K
2017-11-04T05:14:24.097536Z $GPZDA,000244,07,08,2014,7
2017-11-04T05:14:24.350844Z $GPGLL,3935.129,S,03728.151,W
2017-11-04T05:14:24.601967Z $GPVTG,230.6,T,,M,011.4,N,021.1,K
2017-11-04T05:14:24.852527Z $GPZDA,000245,07,08,2014,7
2017-11-04T05:14:25.103779Z $GPGLL,3935.129,S,03728.151,W
2017-11-04T05:14:25.357088Z $GPVTG,230.6,T,,M,011.4,N,021.1,K
2017-11-04T05:14:25.612435Z $GPZDA,000246,07,08,2014,7
2017-11-04T05:14:25.867776Z $GPGLL,3935.132,S,03728.155,W
2017-11-04T05:14:26.123092Z $GPVTG,229.9,T,,M,011.5,N,021.4,K
2017-11-04T05:14:26.378149Z $GPZDA,000247,07,08,2014,7
2017-11-04T05:14:26.632456Z $GPGLL,3935.132,S,03728.155,W
2017-11-04T05:14:26.887515Z $GPVTG,229.9,T,,M,011.5,N,021.4,K
2017-11-04T05:14:27.140246Z $GPZDA,000248,07,08,2014,7
2017-11-04T05:14:27.394488Z $GPGLL,3935.137,S,03728.162,W
2017-11-04T05:14:27.649791Z $GPVTG,229.9,T,,M,011.3,N,021.0,K
2017-11-04T05:14:27.905067Z $GPZDA,000249,07,08,2014,7
2017-11-04T05:14:28.160285Z $GPGLL,3935.139,S,03728.166,W
2017-11-04T05:14:28.413811Z $GPVTG,230.3,T,,M,011.5,N,021.3,K
2017-11-04T05:14:28.665653Z $GPZDA,000250,07,08,2014,7
2017-11-04T05:14:28.920059Z $GPGLL,3935.141,S,03728.169,W
2017-11-04T05:14:29.172673Z $GPVTG,230.0,T,,M,011.8,N,021.9,K
2017-11-04T05:14:29.426144Z $GPZDA,000251,07,08,2014,7
2017-11-04T05:14:29.681372Z $GPGLL,3935.141,S,03728.169,W
2017-11-04T05:14:29.936471Z $GPVTG,230.0,T,,M,011.8,N,021.9,K
2017-11-04T05:14:30.191732Z $GPZDA,000252,07,08,2014,7
2017-11-04T05:14:30.445783Z $GPGLL,3935.144,S,03728.173,W
2017-11-04T05:14:30.697128Z $GPVTG,229.2,T,,M,011.8,N,021.8,K
2017-11-04T05:14:30.951306Z $GPZDA,000253,07,08,2014,7
2017-11-04T05:14:31.202142Z $GPGLL,3935.144,S,03728.173,W
2017-11-04T05:14:31.457416Z $GPVTG,229.2,T,,M,011.8,N,021.8,K
2017-11-04T05:14:31.712661Z $GPZDA,000254,07,08,2014,7
2017-11-04T05:14:31.967967Z $GPGLL,3935.149,S,03728.179,W
2017-11-04T05:14:32.223248Z $GPVTG,229.5,T,,M,011.3,N,020.9,K
2017-11-04T05:14:32.478574Z $GPZDA,000255,07,08,2014,7
2017-11-04T05:14:32.728739Z $GPGLL,3935.151,S,03728.182,W
2017-11-04T05:14:32.979748Z $GPVTG,230.4,T,,M,011.3,N,021.0,K
2017-11-04T05:14:33.233629Z $GPZDA,000256,07,08,2014,7
2017-11-04T05:14:33.488282Z $GPGLL,3935.153,S,03728.186,W
2017-11-04T05:14:33.743543Z $GPVTG,230.6,T,,M,011.6,N,021.6,K
2017-11-04T05:14:33.993824Z $GPZDA,000257,07,08,2014,7
2017-11-04T05:14:34.249198Z $GPGLL,3935.153,S,03728.186,W
2017-11-04T05:14:34.502976Z $GPVTG,230.6,T,,M,011.6,N,021.6,K
2017-11-04T05:14:34.754219Z $GPZDA,000258,07,08,2014,7
2017-11-04T05:14:35.009513Z $GPGLL,3935.155,S,03728.189,W
2017-11-04T05:14:35.264754Z $GPVTG,230.2,T,,M,011.8,N,021.9,K
2017-11-04T05:14:35.517058Z $GPZDA,000259,07,08,2014,7
2017-11-04T05:14:35.769864Z $GPGLL,3935.155,S,03728.189,W
2017-11-04T05:14:36.025131Z $GPVTG,230.2,T,,M,011.8,N,021.9,K
2017-11-04T05:14:36.280455Z $GPZDA,000300,07,08,2014,7
2017-11-04T05:14:36.530571Z $GPGLL,3935.160,S,03728.196,W
2017-11-04T05:14:36.785839Z $GPVTG,230.2,T,,M,011.5,N,021.2,K
2017-11-04T05:14:37.036707Z $GPZDA,000301,07,08,2014,7
2017-11-04T05:14:37.290780Z $GPGLL,3935.162,S,03728.199,W
2017-11-04T05:14:37.546064Z $GPVTG,230.5,T,,M,011.1,N,020.6,K
2017-11-04T05:14:37.801380Z $GPZDA,000302,07,08,2014,7
2017-11-04T05:14:38.053667Z $GPGLL,3935.164,S,03728.203,W
2017-11-04T05:14:38.306590Z $GPVTG,230.8,T,,M,011.0,N,020.4,K
2017-11-04T05:14:38.561855Z $GPZDA,000303,07,08,2014,7
2017-11-04T05:14:38.812076Z $GPGLL,3935.164,S,03728.203,W
2017-11-04T05:14:39.066928Z $GPVTG,230.8,T,,M,011.0,N,020.4,K
2017-11-04T05:14:39.322237Z $GPZDA,000304,07,08,2014,7
2017-11-04T05:14:39.577495Z $GPGLL,3935.166,S,03728.206,W
2017-11-04T05:14:39.827775Z $GPVTG,231.0,T,,M,011.1,N,020.6,K
2017-11-04T05:14:40.082693Z $GPZDA,000305,07,08,2014,7
2017-11-04T05:14:40.332934Z $GPGLL,3935.166,S,03728.206,W
2017-11-04T05:14:40.587524Z $GPVTG,231.0,T,,M,011.1,N,020.6,K
2017-11-04T05:14:40.842811Z $GPZDA,000306,07,08,2014,7
2017-11-04T05:14:41.098076Z $GPGLL,3935.170,S,03728.214,W
2017-11-04T05:14:41.350993Z $GPVTG,230.9,T,,M,011.0,N,020.4,K
2017-11-04T05:14:41.603262Z $GPZDA,000307,07,08,2014,7
2017-11-04T05:14:41.858547Z $GPGLL,3935.172,S,03728.217,W
2017-11-04T05:14:42.109166Z $GPVTG,231.1,T,,M,010.7,N,019.9,K
2017-11-04T05:14:42.359673Z $GPZDA,000308,07,08,2014,7
2017-11-04T05:14:42.613303Z $GPGLL,3935.174,S,03728.221,W
2017-11-04T05:14:42.868668Z $GPVTG,231.2,T,,M,010.7,N,019.8,K
2017-11-04T05:14:43.123835Z $GPZDA,000309,07,08,2014,7
2017-11-04T05:14:43.375867Z $GPGLL,3935.174,S,03728.221,W
2017-11-04T05:14:43.629053Z $GPVTG,231.2,T,,M,010.7,N,019.8,K
2017-11-04T05:14:43.884391Z $GPZDA,000310,07,08,2014,7
2017-11-04T05:14:44.134765Z $GPGLL,3935.176,S,03728.224,W
2017-11-04T05:14:44.386741Z $GPVTG,230.7,T,,M,010.8,N,020.1,K
2017-11-04T05:14:44.639070Z $GPZDA,000311,07,08,2014,7
2017-11-04T05:14:44.894378Z $GPGLL,3935.179,S,03728.228,W
2017-11-04T05:14:45.147793Z $GPVTG,230.3,T,,M,011.0,N,020.3,K
2017-11-04T05:14:45.402123Z $GPZDA,000312,07,08,2014,7
2017-11-04T05:14:45.656752Z $GPGLL,3935.182,S,03728.231,W
2017-11-04T05:14:45.910217Z $GPVTG,230.6,T,,M,010.8,N,020.0,K
2017-11-04T05:14:46.165502Z $GPZDA,000313,07,08,2014,7
2017-11-04T05:14:46.419863Z $GPGLL,3935.184,S,03728.235,W
2017-11-04T05:14:46.675076Z $GPVTG,231.5,T,,M,010.6,N,019.6,K
2017-11-04T05:14:46.925308Z $GPZDA,000314,07,08,2014,7
2017-11-04T05:14:47.175565Z $GPGLL,3935.187,S,03728.238,W
2017-11-04T05:14:47.430707Z $GPVTG,232.2,T,,M,010.6,N,019.6,K
2017-11-04T05:14:47.686128Z $GPZDA,000315,07,08,2014,7
2017-11-04T05:14:47.936499Z $GPGLL,3935.187,S,03728.238,W
2017-11-04T05:14:48.191209Z $GPVTG,232.2,T,,M,010.6,N,019.6,K
2017-11-04T05:14:48.446492Z $GPZDA,000316,07,08,2014,7
2017-11-04T05:14:48.701812Z $GPGLL,3935.189,S,03728.242,W
2017-11-04T05:14:48.957091Z $GPVTG,232.1,T,,M,010.8,N,020.0,K
2017-11-04T05:14:49.212338Z $GPZDA,000317,07,08,2014,7
2017-11-04T05:14:49.467663Z $GPGLL,3935.189,S,03728.242,W
2017-11-04T05:14:49.722881Z $GPVTG,232.1,T,,M,010.8,N,020.0,K
2017-11-04T05:14:49.973168Z $GPZDA,000318,07,08,2014,7
2017-11-04T05:14:50.228296Z $GPGLL,3935.194,S,03728.249,W
2017-11-04T05:14:50.483599Z $GPVTG,231.1,T,,M,010.9,N,020.2,K
2017-11-04T05:14:50.734179Z $GPZDA,000319,07,08,2014,7
2017-11-04T05:14:50.988887Z $GPGLL,3935.196,S,03728.253,W
2017-11-04T05:14:51.244178Z $GPVTG,230.8,T,,M,010.8,N,020.1,K
2017-11-04T05:14:51.499532Z $GPZDA,000320,07,08,2014,7
2017-11-04T05:14:51.753883Z $GPGLL,3935.198,S,03728.256,W
2017-11-04T05:14:52.004118Z $GPVTG,230.9,T,,M,010.9,N,020.1,K
2017-11-04T05:14:52.259042Z $GPZDA,000321,07,08,2014,7
2017-11-04T05:14:52.509736Z $GPGLL,3935.198,S,03728.256,W
2017-11-04T05:14:52.764020Z $GPVTG,230.9,T,,M,010.9,N,020.1,K
2017-11-04T05:14:53.014544Z $GPZDA,000322,07,08,2014,7
2017-11-04T05:14:53.269910Z $GPGLL,3935.200,S,03728.260,W
2017-11-04T05:14:53.525185Z $GPVTG,231.1,T,,M,010.8,N,020.1,K
2017-11-04T05:14:53.779400Z $GPZDA,000323,07,08,2014,7
2017-11-04T05:14:54.030410Z $GPGLL,3935.200,S,03728.260,W
2017-11-04T05:14:54.285736Z $GPVTG,231.1,T,,M,010.8,N,020.1,K
2017-11-04T05:14:54.540037Z $GPZDA,000324,07,08,2014,7
2017-11-04T05:14:54.790637Z $GPGLL,3935.205,S,03728.267,W
2017-11-04T05:14:55.045882Z $GPVTG,231.3,T,,M,010.9,N,020.2,K
2017-11-04T05:14:55.301066Z $GPZDA,000325,07,08,2014,7
2017-11-04T05:14:55.551827Z $GPGLL,3935.207,S,03728.270,W
2017-11-04T05:14:55.801904Z $GPVTG,230.8,T,,M,011.2,N,020.8,K
2017-11-04T05:14:56.052962Z $GPZDA,000326,07,08,2014,7
2017-11-04T05:14:56.305637Z $GPGLL,3935.209,S,03728.274,W
2017-11-04T05:14:56.560912Z $GPVTG,230.0,T,,M,011.5,N,021.3,K
2017-11-04T05:14:56.814543Z $GPZDA,000327,07,08,2014,7
2017-11-04T05:14:57.065894Z $GPGLL,3935.209,S,03728.274,W
2017-11-04T05:14:57.319921Z $GPVTG,230.0,T,,M,011.5,N,021.3,K
2017-11-04T05:14:57.570799Z $GPZDA,000328,07,08,2014,7
2017-11-04T05:14:57.825038Z $GPGLL,3935.212,S,03728.277,W
2017-11-04T05:14:58.075934Z $GPVTG,229.5,T,,M,011.5,N,021.3,K
2017-11-04T05:14:58.329465Z $GPZDA,000329,07,08,2014,7
2017-11-04T05:14:58.583856Z $GPGLL,3935.212,S,03728.277,W
2017-11-04T05:14:58.837422Z $GPVTG,229.5,T,,M,011.5,N,021.3,K
2017-11-04T05:14:59.091758Z $GPZDA,000330,07,08,2014,7
2017-11-04T05:14:59.343334Z $GPGLL,3935.217,S,03728.285,W
2017-11-04T05:14:59.596682Z $GPVTG,230.0,T,,M,011.2,N,020.7,K
2017-11-04T05:14:59.852023Z $GPZDA,000331,07,08,2014,7
2017-11-04T05:15:00.107278Z $GPGLL,3935.219,S,03728.288,W
2017-11-04T05:15:00.359225Z $GPVTG,230.5,T,,M,011.1,N,020.6,K
2017-11-04T05:15:00.611693Z $GPZDA,000332,07,08,2014,7
2017-11-04T05:15:00.866903Z $GPGLL,3935.220,S,03728.292,W
2017-11-04T05:15:01.118427Z $GPVTG,230.4,T,,M,011.3,N,020.9,K
2017-11-04T05:15:01.372849Z $GPZDA,000333,07,08,2014,7
2017-11-04T05:15:01.628086Z $GPGLL,3935.220,S,03728.292,W
2017-11-04T05:15:01.880723Z $GPVTG,230.4,T,,M,011.3,N,020.9,K
2017-11-04T05:15:02.132796Z $GPZDA,000334,07,08,2014,7
2017-11-04T05:15:02.385003Z $GPGLL,3935.223,S,03728.296,W
2017-11-04T05:15:02.638010Z $GPVTG,229.6,T,,M,011.7,N,021.6,K
2017-11-04T05:15:02.891275Z $GPZDA,000335,07,08,2014,7
2017-11-04T05:15:03.143221Z $GPGLL,3935.223,S,03728.296,W
2017-11-04T05:15:03.398193Z $GPVTG,229.6,T,,M,011.7,N,021.6,K
2017-11-04T05:15:03.653378Z $GPZDA,000336,07,08,2014,7
2017-11-04T05:15:03.903556Z $GPGLL,3935.228,S,03728.304,W
2017-11-04T05:15:04.158760Z $GPVTG,229.1,T,,M,011.5,N,021.3,K
2017-11-04T05:15:04.414185Z $GPZDA,000337,07,08,2014,7
2017-11-04T05:15:04.669420Z $GPGLL,3935.230,S,03728.307,W
2017-11-04T05:15:04.924828Z $GPVTG,229.5,T,,M,011.0,N,020.4,K
2017-11-04T05:15:05.180148Z $GPZDA,000338,07,08,2014,7
2017-11-04T05:15:05.434014Z $GPGLL,3935.232,S,03728.310,W
2017-11-04T05:15:05.685350Z $GPVTG,229.7,T,,M,010.8,N,020.1,K
2017-11-04T05:15:05.935500Z $GPZDA,000339,07,08,2014,7
2017-11-04T05:15:06.190195Z $GPGLL,3935.232,S,03728.310,W
2017-11-04T05:15:06.445507Z $GPVTG,229.7,T,,M,010.8,N,020.1,K
2017-11-04T05:15:06.700787Z $GPZDA,000340,07,08,2014,7
2017-11-04T05:15:06.956127Z $GPGLL,3935.234,S,03728.314,W
2017-11-04T05:15:07.209573Z $GPVTG,229.8,T,,M,011.0,N,020.4,K
2017-11-04T05:15:07.461422Z $GPZDA,000341,07,08,2014,7
2017-11-04T05:15:07.716740Z $GPGLL,3935.237,S,03728.318,W
2017-11-04T05:15:07.969981Z $GPVTG,229.9,T,,M,011.2,N,020.8,K
2017-11-04T05:15:08.221663Z $GPZDA,000342,07,08,2014,7
2017-11-04T05:15:08.476963Z $GPGLL,3935.239,S,03728.321,W
2017-11-04T05:15:08.732316Z $GPVTG,229.9,T,,M,011.2,N,020.8,K
2017-11-04T05:15:08.986701Z $GPZDA,000343,07,08,2014,7
2017-11-04T05:15:09.236867Z $GPGLL,3935.242,S,03728.325,W
2017-11-04T05:15:09.487160Z $GPVTG,229.5,T,,M,011.2,N,020.8,K
2017-11-04T05:15:09.742536Z $GPZDA,000344,07,08,2014,7
2017-11-04T05:15:09.997810Z $GPGLL,3935.244,S,03728.329,W
2017-11-04T05:15:10.253112Z $GPVTG,228.7,T,,M,011.1,N,020.5,K
2017-11-04T05:15:10.508385Z $GPZDA,000345,07,08,2014,7
2017-11-04T05:15:10.763765Z $GPGLL,3935.244,S,03728.329,W
2017-11-04T05:15:11.019029Z $GPVTG,228.7,T,,M,011.1,N,020.5,K
2017-11-04T05:15:11.274267Z $GPZDA,000346,07,08,2014,7
2017-11-04T05:15:11.528096Z $GPGLL,3935.247,S,03728.332,W
2017-11-04T05:15:11.782246Z $GPVTG,228.0,T,,M,010.9,N,020.1,K
2017-11-04T05:15:12.035177Z $GPZDA,000347,07,08,2014,7
2017-11-04T05:15:12.290449Z $GPGLL,3935.249,S,03728.335,W
2017-11-04T05:15:12.545825Z $GPVTG,227.3,T,,M,010.7,N,019.8,K
2017-11-04T05:15:12.801100Z $GPZDA,000348,07,08,2014,7
2017-11-04T05:15:13.056354Z $GPGLL,3935.252,S,03728.339,W
2017-11-04T05:15:13.311639Z $GPVTG,228.9,T,,M,011.0,N,020.3,K
2017-11-04T05:15:13.561799Z $GPZDA,000349,07,08,2014,7
2017-11-04T05:15:13.817095Z $GPGLL,3935.254,S,03728.343,W
2017-11-04T05:15:14.072388Z $GPVTG,229.5,T,,M,011.1,N,020.5,K
2017-11-04T05:15:14.327630Z $GPZDA,000350,07,08,2014,7
2017-11-04T05:15:14.582990Z $GPGLL,3935.257,S,03728.347,W
2017-11-04T05:15:14.836805Z $GPVTG,229.2,T,,M,010.9,N,020.2,K
2017-11-04T05:15:15.088127Z $GPZDA,000351,07,08,2014,7
2017-11-04T05:15:15.338256Z $GPGLL,3935.257,S,03728.347,W
2017-11-04T05:15:15.593332Z $GPVTG,229.2,T,,M,010.9,N,020.2,K
2017-11-04T05:15:15.848605Z $GPZDA,000352,07,08,2014,7
2017-11-04T05:15:16.103383Z $GPGLL,3935.259,S,03728.350,W
2017-11-04T05:15:16.353613Z $GPVTG,228.7,T,,M,010.7,N,019.9,K
2017-11-04T05:15:16.608918Z $GPZDA,000353,07,08,2014,7
2017-11-04T05:15:16.861500Z $GPGLL,3935.261,S,03728.354,W
2017-11-04T05:15:17.113986Z $GPVTG,228.3,T,,M,010.6,N,019.6,K
2017-11-04T05:15:17.369309Z $GPZDA,000354,07,08,2014,7
2017-11-04T05:15:17.622733Z $GPGLL,3935.264,S,03728.358,W
2017-11-04T05:15:17.874379Z $GPVTG,227.7,T,,M,010.9,N,020.2,K
2017-11-04T05:15:18.129778Z $GPZDA,000355,07,08,2014,7
2017-11-04T05:15:18.385071Z $GPGLL,3935.267,S,03728.361,W
2017-11-04T05:15:18.640415Z $GPVTG,227.9,T,,M,010.9,N,020.1,K
2017-11-04T05:15:18.895605Z $GPZDA,000356,07,08,2014,7
2017-11-04T05:15:19.150950Z $GPGLL,3935.270,S,03728.365,W
2017-11-04T05:15:19.401361Z $GPVTG,228.7,T,,M,010.6,N,019.6,K
2017-11-04T05:15:19.651785Z $GPZDA,000357,07,08,2014,7
2017-11-04T05:15:19.905676Z $GPGLL,3935.270,S,03728.365,W
2017-11-04T05:15:20.161083Z $GPVTG,228.7,T,,M,010.6,N,019.6,K
2017-11-04T05:15:20.413753Z $GPZDA,000358,07,08,2014,7
2017-11-04T05:15:20.666224Z $GPGLL,3935.272,S,03728.368,W
2017-11-04T05:15:20.920041Z $GPVTG,229.7,T,,M,010.4,N,019.3,K
2017-11-04T05:15:21.171040Z $GPZDA,000359,07,08,2014,7
2017-11-04T05:15:21.426357Z $GPGLL,3935.274,S,03728.372,W
2017-11-04T05:15:21.681591Z $GPVTG,230.6,T,,M,010.3,N,019.1,K
2017-11-04T05:15:21.937010Z $GPZDA,000400,07,08,2014,7
2017-11-04T05:15:22.192355Z $GPGLL,3935.277,S,03728.376,W
2017-11-04T05:15:22.447551Z $GPVTG,229.4,T,,M,010.8,N,019.9,K
2017-11-04T05:15:22.697738Z $GPZDA,000401,07,08,2014,7
2017-11-04T05:15:22.953031Z $GPGLL,3935.279,S,03728.380,W
2017-11-04T05:15:23.208326Z $GPVTG,228.4,T,,M,010.9,N,020.3,K
2017-11-04T05:15:23.463564Z $GPZDA,000402,07,08,2014,7
2017-11-04T05:15:23.718795Z $GPGLL,3935.282,S,03728.383,W
2017-11-04T05:15:23.974114Z $GPVTG,228.3,T,,M,010.8,N,020.0,K
2017-11-04T05:15:24.226487Z $GPZDA,000403,07,08,2014,7
2017-11-04T05:15:24.479589Z $GPGLL,3935.282,S,03728.383,W
2017-11-04T05:15:24.734871Z $GPVTG,228.3,T,,M,010.8,N,020.0,K
2017-11-04T05:15:24.990189Z $GPZDA,000404,07,08,2014,7
2017-11-04T05:15:25.245572Z $GPGLL,3935.284,S,03728.387,W
2017-11-04T05:15:25.500897Z $GPVTG,229.0,T,,M,010.6,N,019.5,K
2017-11-04T05:15:25.753992Z $GPZDA,000405,07,08,2014,7
2017-11-04T05:15:26.008064Z $GPGLL,3935.287,S,03728.391,W
2017-11-04T05:15:26.259612Z $GPVTG,229.5,T,,M,010.3,N,019.1,K
2017-11-04T05:15:26.511091Z $GPZDA,000406,07,08,2014,7
2017-11-04T05:15:26.766358Z $GPGLL,3935.290,S,03728.395,W
2017-11-04T05:15:27.020845Z $GPVTG,229.4,T,,M,010.8,N,020.1,K
2017-11-04T05:15:27.271299Z $GPZDA,000407,07,08,2014,7
2017-11-04T05:15:27.526611Z $GPGLL,3935.292,S,03728.398,W
2017-11-04T05:15:27.781950Z $GPVTG,228.9,T,,M,011.2,N,020.7,K
2017-11-04T05:15:28.036858Z $GPZDA,000408,07,08,2014,7
2017-11-04T05:15:28.292097Z $GPGLL,3935.295,S,03728.402,W
2017-11-04T05:15:28.542543Z $GPVTG,228.6,T,,M,011.1,N,020.6,K
2017-11-04T05:15:28.797846Z $GPZDA,000409,07,08,2014,7
2017-11-04T05:15:29.053112Z $GPGLL,3935.295,S,03728.402,W
2017-11-04T05:15:29.308413Z $GPVTG,228.6,T,,M,011.1,N,020.6,K
2017-11-04T05:15:29.563723Z $GPZDA,000410,07,08,2014,7
2017-11-04T05:15:29.819115Z $GPGLL,3935.298,S,03728.406,W
2017-11-04T05:15:30.074369Z $GPVTG,229.0,T,,M,010.7,N,019.8,K
2017-11-04T05:15:30.324527Z $GPZDA,000411,07,08,2014,7
2017-11-04T05:15:30.574835Z $GPGLL,3935.300,S,03728.409,W
2017-11-04T05:15:30.829411Z $GPVTG,229.3,T,,M,010.3,N,019.1,K
2017-11-04T05:15:31.084551Z $GPZDA,000412,07,08,2014,7
2017-11-04T05:15:31.369322Z $GPGLL,3935.303,S,03728.413,W
2017-11-04T05:15:31.624597Z $GPVTG,229.1,T,,M,010.8,N,019.9,K
2017-11-04T05:15:31.879844Z $GPZDA,000413,07,08,2014,7
2017-11-04T05:15:32.135179Z $GPGLL,3935.305,S,03728.417,W
2017-11-04T05:15:32.386446Z $GPVTG,229.0,T,,M,011.2,N,020.8,K
2017-11-04T05:15:32.639830Z $GPZDA,000414,07,08,2014,7
2017-11-04T05:15:32.895106Z $GPGLL,3935.308,S,03728.420,W
2017-11-04T05:15:33.145308Z $GPVTG,228.8,T,,M,011.4,N,021.1,K
2017-11-04T05:15:33.395469Z $GPZDA,000415,07,08,2014,7
2017-11-04T05:15:33.650333Z $GPGLL,3935.308,S,03728.420,W
2017-11-04T05:15:33.903486Z $GPVTG,228.8,T,,M,011.4,N,021.1,K
2017-11-04T05:15:34.155295Z $GPZDA,000416,07,08,2014,7
2017-11-04T05:15:34.410529Z $GPGLL,3935.310,S,03728.424,W
2017-11-04T05:15:34.665795Z $GPVTG,228.6,T,,M,011.2,N,020.7,K
2017-11-04T05:15:34.920106Z $GPZDA,000417,07,08,2014,7
2017-11-04T05:15:35.170821Z $GPGLL,3935.312,S,03728.427,W
2017-11-04T05:15:35.426200Z $GPVTG,228.5,T,,M,011.0,N,020.4,K
2017-11-04T05:15:35.681400Z $GPZDA,000418,07,08,2014,7
2017-11-04T05:15:35.931505Z $GPGLL,3935.314,S,03728.431,W
2017-11-04T05:15:36.186790Z $GPVTG,229.1,T,,M,010.9,N,020.2,K
2017-11-04T05:15:36.442053Z $GPZDA,000419,07,08,2014,7
2017-11-04T05:15:36.697294Z $GPGLL,3935.316,S,03728.434,W
2017-11-04T05:15:36.949734Z $GPVTG,229.6,T,,M,011.1,N,020.6,K
2017-11-04T05:15:37.201300Z $GPZDA,000420,07,08,2014,7
2017-11-04T05:15:37.452259Z $GPGLL,3935.318,S,03728.438,W
2017-11-04T05:15:37.702771Z $GPVTG,229.6,T,,M,011.5,N,021.3,K
2017-11-04T05:15:37.953733Z $GPZDA,000421,07,08,2014,7
2017-11-04T05:15:38.206653Z $GPGLL,3935.318,S,03728.438,W
2017-11-04T05:15:38.461987Z $GPVTG,229.6,T,,M,011.5,N,021.3,K
2017-11-04T05:15:38.712302Z $GPZDA,000422,07,08,2014,7
2017-11-04T05:15:38.966970Z $GPGLL,3935.321,S,03728.441,W
2017-11-04T05:15:39.220253Z $GPVTG,228.9,T,,M,011.7,N,021.8,K
2017-11-04T05:15:39.471550Z $GPZDA,000423,07,08,2014,7
2017-11-04T05:15:39.726843Z $GPGLL,3935.323,S,03728.445,W
2017-11-04T05:15:39.977025Z $GPVTG,228.4,T,,M,011.9,N,022.1,K
2017-11-04T05:15:40.232279Z $GPZDA,000424,07,08,2014,7
2017-11-04T05:15:40.486819Z $GPGLL,3935.326,S,03728.449,W
2017-11-04T05:15:40.737448Z $GPVTG,228.8,T,,M,011.6,N,021.5,K
2017-11-04T05:15:40.992369Z $GPZDA,000425,07,08,2014,7
2017-11-04T05:15:41.247741Z $GPGLL,3935.328,S,03728.453,W
2017-11-04T05:15:41.502976Z $GPVTG,229.7,T,,M,011.4,N,021.1,K
2017-11-04T05:15:41.753162Z $GPZDA,000426,07,08,2014,7
2017-11-04T05:15:42.008407Z $GPGLL,3935.329,S,03728.456,W
2017-11-04T05:15:42.258465Z $GPVTG,230.4,T,,M,011.4,N,021.2,K
2017-11-04T05:15:42.513392Z $GPZDA,000427,07,08,2014,7
2017-11-04T05:15:42.768746Z $GPGLL,3935.329,S,03728.456,W
2017-11-04T05:15:43.018943Z $GPVTG,230.4,T,,M,011.4,N,021.2,K
2017-11-04T05:15:43.273783Z $GPZDA,000428,07,08,2014,7
2017-11-04T05:15:43.529050Z $GPGLL,3935.332,S,03728.460,W
2017-11-04T05:15:43.784339Z $GPVTG,230.5,T,,M,011.6,N,021.4,K
2017-11-04T05:15:44.039582Z $GPZDA,000429,07,08,2014,7
2017-11-04T05:15:44.294880Z $GPGLL,3935.334,S,03728.464,W
2017-11-04T05:15:44.550168Z $GPVTG,230.5,T,,M,011.7,N,021.6,K
2017-11-04T05:15:44.805535Z $GPZDA,000430,07,08,2014,7
2017-11-04T05:15:45.055977Z $GPGLL,3935.337,S,03728.468,W
2017-11-04T05:15:45.311169Z $GPVTG,230.7,T,,M,011.5,N,021.3,K
2017-11-04T05:15:45.566464Z $GPZDA,000431,07,08,2014,7
2017-11-04T05:15:45.820276Z $GPGLL,3935.340,S,03728.472,W
2017-11-04T05:15:46.070472Z $GPVTG,230.9,T,,M,011.5,N,021.3,K
2017-11-04T05:15:46.320846Z $GPZDA,000432,07,08,2014,7
2017-11-04T05:15:46.576121Z $GPGLL,3935.343,S,03728.476,W
2017-11-04T05:15:46.831491Z $GPVTG,230.7,T,,M,011.7,N,021.7,K
2017-11-04T05:15:47.086803Z $GPZDA,000433,07,08,2014,7
2017-11-04T05:15:47.336898Z $GPGLL,3935.343,S,03728.476,W
2017-11-04T05:15:47.592128Z $GPVTG,230.7,T,,M,011.7,N,021.7,K
2017-11-04T05:15:47.847391Z $GPZDA,000434,07,08,2014,7
2017-11-04T05:15:48.102750Z $GPGLL,3935.345,S,03728.479,W
2017-11-04T05:15:48.357997Z $GPVTG,230.2,T,,M,011.8,N,021.8,K
2017-11-04T05:15:48.613250Z $GPZDA,000435,07,08,2014,7
2017-11-04T05:15:48.868566Z $GPGLL,3935.348,S,03728.483,W
2017-11-04T05:15:49.118707Z $GPVTG,229.8,T,,M,011.9,N,022.0,K
2017-11-04T05:15:49.373980Z $GPZDA,000436,07,08,2014,7
2017-11-04T05:15:49.629218Z $GPGLL,3935.350,S,03728.486,W
2017-11-04T05:15:49.884611Z $GPVTG,230.5,T,,M,011.6,N,021.4,K
2017-11-04T05:15:50.134989Z $GPZDA,000437,07,08,2014,7
2017-11-04T05:15:50.389655Z $GPGLL,3935.353,S,03728.489,W
2017-11-04T05:15:50.645036Z $GPVTG,231.1,T,,M,011.5,N,021.4,K
2017-11-04T05:15:50.900316Z $GPZDA,000438,07,08,2014,7
2017-11-04T05:15:51.150518Z $GPGLL,3935.355,S,03728.493,W
2017-11-04T05:15:51.405425Z $GPVTG,231.1,T,,M,011.7,N,021.7,K
2017-11-04T05:15:51.660748Z $GPZDA,000439,07,08,2014,7
2017-11-04T05:15:51.915953Z $GPGLL,3935.355,S,03728.493,W
2017-11-04T05:15:52.170255Z $GPVTG,231.1,T,,M,011.7,N,021.7,K
2017-11-04T05:15:52.420684Z $GPZDA,000440,07,08,2014,7
2017-11-04T05:15:52.670909Z $GPGLL,3935.357,S,03728.496,W
2017-11-04T05:15:52.923386Z $GPVTG,230.8,T,,M,011.9,N,022.0,K
2017-11-04T05:15:53.175838Z $GPZDA,000441,07,08,2014,7
2017-11-04T05:15:53.431088Z $GPGLL,3935.360,S,03728.500,W
2017-11-04T05:15:53.686356Z $GPVTG,230.5,T,,M,012.0,N,022.3,K
2017-11-04T05:15:53.936791Z $GPZDA,000442,07,08,2014,7
2017-11-04T05:15:54.191553Z $GPGLL,3935.362,S,03728.504,W
2017-11-04T05:15:54.446926Z $GPVTG,230.4,T,,M,011.7,N,021.6,K
2017-11-04T05:15:54.702165Z $GPZDA,000443,07,08,2014,7
2017-11-04T05:15:54.955604Z $GPGLL,3935.364,S,03728.508,W
2017-11-04T05:15:55.207415Z $GPVTG,230.7,T,,M,011.6,N,021.4,K
2017-11-04T05:15:55.461818Z $GPZDA,000444,07,08,2014,7
2017-11-04T05:15:55.712751Z $GPGLL,3935.367,S,03728.511,W
2017-11-04T05:15:55.964799Z $GPVTG,231.0,T,,M,011.7,N,021.6,K
2017-11-04T05:15:56.217380Z $GPZDA,000445,07,08,2014,7
2017-11-04T05:15:56.472661Z $GPGLL,3935.367,S,03728.511,W
2017-11-04T05:15:56.727920Z $GPVTG,231.0,T,,M,011.7,N,021.6,K
2017-11-04T05:15:56.983179Z $GPZDA,000446,07,08,2014,7
2017-11-04T05:15:57.235825Z $GPGLL,3935.369,S,03728.515,W
2017-11-04T05:15:57.486044Z $GPVTG,231.1,T,,M,011.8,N,021.8,K
2017-11-04T05:15:57.737976Z $GPZDA,000447,07,08,2014,7
2017-11-04T05:15:57.990627Z $GPGLL,3935.371,S,03728.519,W
2017-11-04T05:15:58.242933Z $GPVTG,231.2,T,,M,011.8,N,021.9,K
2017-11-04T05:15:58.494421Z $GPZDA,000448,07,08,2014,7
2017-11-04T05:15:58.744577Z $GPGLL,3935.373,S,03728.523,W
2017-11-04T05:15:58.994720Z $GPVTG,232.0,T,,M,011.5,N,021.4,K
2017-11-04T05:15:59.247179Z $GPZDA,000449,07,08,2014,7
2017-11-04T05:15:59.498824Z $GPGLL,3935.375,S,03728.527,W
2017-11-04T05:15:59.751358Z $GPVTG,232.7,T,,M,011.6,N,021.4,K
2017-11-04T05:16:00.004172Z $GPZDA,000450,07,08,2014,7
2017-11-04T05:16:00.255142Z $GPGLL,3935.377,S,03728.530,W
2017-11-04T05:16:00.509703Z $GPVTG,232.7,T,,M,011.7,N,021.8,K
2017-11-04T05:16:00.761950Z $GPZDA,000451,07,08,2014,7
2017-11-04T05:16:01.015926Z $GPGLL,3935.377,S,03728.530,W
2017-11-04T05:16:01.266330Z $GPVTG,232.7,T,,M,011.7,N,021.8,K
2017-11-04T05:16:01.516983Z $GPZDA,000452,07,08,2014,7
2017-11-04T05:16:01.770372Z $GPGLL,3935.379,S,03728.534,W
2017-11-04T05:16:02.021150Z $GPVTG,232.1,T,,M,011.9,N,022.1,K
2017-11-04T05:16:02.276158Z $GPZDA,000453,07,08,2014,7
2017-11-04T05:16:02.526650Z $GPGLL,3935.382,S,03728.538,W
2017-11-04T05:16:02.781964Z $GPVTG,231.6,T,,M,012.1,N,022.3,K
2017-11-04T05:16:03.034280Z $GPZDA,000454,07,08,2014,7
2017-11-04T05:16:03.286359Z $GPGLL,3935.384,S,03728.542,W
2017-11-04T05:16:03.538348Z $GPVTG,231.4,T,,M,011.7,N,021.7,K
2017-11-04T05:16:03.791957Z $GPZDA,000455,07,08,2014,7
2017-11-04T05:16:04.047269Z $GPGLL,3935.386,S,03728.546,W
2017-11-04T05:16:04.300980Z $GPVTG,232.2,T,,M,011.5,N,021.3,K
2017-11-04T05:16:04.552200Z $GPZDA,000456,07,08,2014,7
2017-11-04T05:16:04.805887Z $GPGLL,3935.388,S,03728.549,W
2017-11-04T05:16:05.056278Z $GPVTG,233.1,T,,M,011.4,N,021.1,K
2017-11-04T05:16:05.307457Z $GPZDA,000457,07,08,2014,7
2017-11-04T05:16:05.559549Z $GPGLL,3935.388,S,03728.549,W
2017-11-04T05:16:05.810422Z $GPVTG,233.1,T,,M,011.4,N,021.1,K
2017-11-04T05:16:06.061490Z $GPZDA,000458,07,08,2014,7
2017-11-04T05:16:06.312521Z $GPGLL,3935.390,S,03728.553,W
2017-11-04T05:16:06.566182Z $GPVTG,233.7,T,,M,011.3,N,021.0,K
2017-11-04T05:16:06.817431Z $GPZDA,000459,07,08,2014,7
2017-11-04T05:16:07.071361Z $GPGLL,3935.392,S,03728.557,W
2017-11-04T05:16:07.324994Z $GPVTG,234.2,T,,M,011.3,N,021.0,K
2017-11-04T05:16:07.580355Z $GPZDA,000500,07,08,2014,7
2017-11-04T05:16:07.831505Z $GPGLL,3935.394,S,03728.561,W
2017-11-04T05:16:08.084357Z $GPVTG,233.2,T,,M,011.5,N,021.3,K
2017-11-04T05:16:08.336601Z $GPZDA,000501,07,08,2014,7
2017-11-04T05:16:08.587599Z $GPGLL,3935.396,S,03728.565,W
2017-11-04T05:16:08.839551Z $GPVTG,231.8,T,,M,011.8,N,021.9,K
2017-11-04T05:16:09.091116Z $GPZDA,000502,07,08,2014,7
2017-11-04T05:16:09.342110Z $GPGLL,3935.399,S,03728.569,W
2017-11-04T05:16:09.596228Z $GPVTG,230.8,T,,M,011.9,N,022.0,K
2017-11-04T05:16:09.850734Z $GPZDA,000503,07,08,2014,7
2017-11-04T05:16:10.103884Z $GPGLL,3935.399,S,03728.569,W
2017-11-04T05:16:10.357194Z $GPVTG,230.8,T,,M,011.9,N,022.0,K
2017-11-04T05:16:10.607468Z $GPZDA,000504,07,08,2014,7
2017-11-04T05:16:10.861639Z $GPGLL,3935.402,S,03728.572,W
2017-11-04T05:16:11.116845Z $GPVTG,230.6,T,,M,011.5,N,021.4,K
2017-11-04T05:16:11.367731Z $GPZDA,000505,07,08,2014,7
2017-11-04T05:16:11.621802Z $GPGLL,3935.404,S,03728.576,W
2017-11-04T05:16:11.872583Z $GPVTG,230.4,T,,M,011.3,N,020.8,K
2017-11-04T05:16:12.126907Z $GPZDA,000506,07,08,2014,7
2017-11-04T05:16:12.378132Z $GPGLL,3935.406,S,03728.580,W
2017-11-04T05:16:12.628373Z $GPVTG,231.8,T,,M,011.2,N,020.8,K
2017-11-04T05:16:12.881328Z $GPZDA,000507,07,08,2014,7
2017-11-04T05:16:13.134325Z $GPGLL,3935.409,S,03728.583,W
2017-11-04T05:16:13.386510Z $GPVTG,232.0,T,,M,011.5,N,021.3,K
2017-11-04T05:16:13.641684Z $GPZDA,000508,07,08,2014,7
2017-11-04T05:16:13.895296Z $GPGLL,3935.411,S,03728.587,W
2017-11-04T05:16:14.146658Z $GPVTG,231.2,T,,M,011.9,N,022.0,K
2017-11-04T05:16:14.400790Z $GPZDA,000509,07,08,2014,7
2017-11-04T05:16:14.651595Z $GPGLL,3935.411,S,03728.587,W
2017-11-04T05:16:14.906462Z $GPVTG,231.2,T,,M,011.9,N,022.0,K
2017-11-04T05:16:15.161717Z $GPZDA,000510,07,08,2014,7
2017-11-04T05:16:15.415872Z $GPGLL,3935.413,S,03728.591,W
2017-11-04T05:16:15.667529Z $GPVTG,230.2,T,,M,012.1,N,022.3,K
2017-11-04T05:16:15.918101Z $GPZDA,000511,07,08,2014,7
2017-11-04T05:16:16.168240Z $GPGLL,3935.416,S,03728.595,W
2017-11-04T05:16:16.421991Z $GPVTG,229.3,T,,M,012.2,N,022.6,K
2017-11-04T05:16:16.672662Z $GPZDA,000512,07,08,2014,7
2017-11-04T05:16:16.926768Z $GPGLL,3935.418,S,03728.598,W
2017-11-04T05:16:17.182098Z $GPVTG,230.0,T,,M,011.7,N,021.7,K
2017-11-04T05:16:17.437280Z $GPZDA,000513,07,08,2014,7
2017-11-04T05:16:17.687474Z $GPGLL,3935.421,S,03728.602,W
2017-11-04T05:16:17.941277Z $GPVTG,230.4,T,,M,011.6,N,021.4,K
2017-11-04T05:16:18.192034Z $GPZDA,000514,07,08,2014,7
2017-11-04T05:16:18.443566Z $GPGLL,3935.423,S,03728.606,W
2017-11-04T05:16:18.696197Z $GPVTG,230.4,T,,M,011.8,N,021.8,K
2017-11-04T05:16:18.946525Z $GPZDA,000515,07,08,2014,7
2017-11-04T05:16:19.201849Z $GPGLL,3935.423,S,03728.606,W
2017-11-04T05:16:19.452057Z $GPVTG,230.4,T,,M,011.8,N,021.8,K
2017-11-04T05:16:19.707221Z $GPZDA,000516,07,08,2014,7
2017-11-04T05:16:19.958045Z $GPGLL,3935.426,S,03728.609,W
2017-11-04T05:16:20.212076Z $GPVTG,230.0,T,,M,012.0,N,022.2,K
2017-11-04T05:16:20.464800Z $GPZDA,000517,07,08,2014,7
2017-11-04T05:16:20.720082Z $GPGLL,3935.428,S,03728.613,W
2017-11-04T05:16:20.972419Z $GPVTG,229.7,T,,M,012.1,N,022.5,K
2017-11-04T05:16:21.222956Z $GPZDA,000518,07,08,2014,7
2017-11-04T05:16:21.476697Z $GPGLL,3935.430,S,03728.616,W
2017-11-04T05:16:21.726933Z $GPVTG,230.5,T,,M,011.8,N,021.8,K
2017-11-04T05:16:21.977213Z $GPZDA,000519,07,08,2014,7
2017-11-04T05:16:22.227671Z $GPGLL,3935.432,S,03728.620,W
2017-11-04T05:16:22.477756Z $GPVTG,231.3,T,,M,011.5,N,021.3,K
2017-11-04T05:16:22.730465Z $GPZDA,000520,07,08,2014,7
2017-11-04T05:16:22.982259Z $GPGLL,3935.434,S,03728.623,W
2017-11-04T05:16:23.233260Z $GPVTG,231.3,T,,M,011.4,N,021.1,K
2017-11-04T05:16:23.485187Z $GPZDA,000521,07,08,2014,7
2017-11-04T05:16:23.735607Z $GPGLL,3935.434,S,03728.623,W
2017-11-04T05:16:23.986574Z $GPVTG,231.3,T,,M,011.4,N,021.1,K
2017-11-04T05:16:24.240125Z $GPZDA,000522,07,08,2014,7
2017-11-04T05:16:24.493222Z $GPGLL,3935.436,S,03728.627,W
2017-11-04T05:16:24.743351Z $GPVTG,230.9,T,,M,011.4,N,021.2,K
2017-11-04T05:16:24.994605Z $GPZDA,000523,07,08,2014,7
2017-11-04T05:16:25.244711Z $GPGLL,3935.438,S,03728.631,W
2017-11-04T05:16:25.499519Z $GPVTG,230.5,T,,M,011.5,N,021.3,K
2017-11-04T05:16:25.750468Z $GPZDA,000524,07,08,2014,7
2017-11-04T05:16:26.001902Z $GPGLL,3935.441,S,03728.635,W
2017-11-04T05:16:26.254856Z $GPVTG,229.7,T,,M,011.6,N,021.5,K
2017-11-04T05:16:26.505955Z $GPZDA,000525,07,08,2014,7
2017-11-04T05:16:26.769702Z $GPGLL,3935.443,S,03728.638,W
2017-11-04T05:16:27.020215Z $GPVTG,229.7,T,,M,011.4,N,021.1,K
2017-11-04T05:16:27.274300Z $GPZDA,000526,07,08,2014,7
2017-11-04T05:16:27.524943Z $GPGLL,3935.445,S,03728.642,W
2017-11-04T05:16:27.777815Z $GPVTG,230.7,T,,M,010.9,N,020.2,K
2017-11-04T05:16:28.028300Z $GPZDA,000527,07,08,2014,7
2017-11-04T05:16:28.279343Z $GPGLL,3935.445,S,03728.642,W
2017-11-04T05:16:28.534055Z $GPVTG,230.7,T,,M,010.9,N,020.2,K
2017-11-04T05:16:28.785129Z $GPZDA,000528,07,08,2014,7
2017-11-04T05:16:29.038352Z $GPGLL,3935.447,S,03728.645,W
2017-11-04T05:16:29.289015Z $GPVTG,232.4,T,,M,010.5,N,019.5,K
2017-11-04T05:16:29.539954Z $GPZDA,000529,07,08,2014,7
2017-11-04T05:16:29.794349Z $GPGLL,3935.450,S,03728.650,W
2017-11-04T05:16:30.044754Z $GPVTG,234.0,T,,M,010.2,N,018.9,K
2017-11-04T05:16:30.299392Z $GPZDA,000530,07,08,2014,7
2017-11-04T05:16:30.549605Z $GPGLL,3935.453,S,03728.654,W
2017-11-04T05:16:30.800909Z $GPVTG,232.0,T,,M,010.9,N,020.1,K
2017-11-04T05:16:31.051379Z $GPZDA,000531,07,08,2014,7
2017-11-04T05:16:31.304291Z $GPGLL,3935.455,S,03728.657,W
2017-11-04T05:16:31.554419Z $GPVTG,229.8,T,,M,011.0,N,020.4,K
2017-11-04T05:16:31.805254Z $GPZDA,000532,07,08,2014,7
2017-11-04T05:16:32.055505Z $GPGLL,3935.457,S,03728.661,W
2017-11-04T05:16:32.308005Z $GPVTG,228.5,T,,M,010.8,N,020.0,K
2017-11-04T05:16:32.563390Z $GPZDA,000533,07,08,2014,7
2017-11-04T05:16:32.815101Z $GPGLL,3935.457,S,03728.661,W
2017-11-04T05:16:33.070042Z $GPVTG,228.5,T,,M,010.8,N,020.0,K
2017-11-04T05:16:33.323539Z $GPZDA,000534,07,08,2014,7
2017-11-04T05:16:33.576070Z $GPGLL,3935.460,S,03728.665,W
2017-11-04T05:16:33.829005Z $GPVTG,228.7,T,,M,010.5,N,019.5,K
2017-11-04T05:16:34.081955Z $GPZDA,000535,07,08,2014,7
2017-11-04T05:16:34.336760Z $GPGLL,3935.462,S,03728.669,W
2017-11-04T05:16:34.588832Z $GPVTG,228.9,T,,M,010.3,N,019.0,K
2017-11-04T05:16:34.839329Z $GPZDA,000536,07,08,2014,7
2017-11-04T05:16:35.094358Z $GPGLL,3935.465,S,03728.673,W
2017-11-04T05:16:35.349437Z $GPVTG,230.2,T,,M,010.5,N,019.5,K
2017-11-04T05:16:35.602470Z $GPZDA,000537,07,08,2014,7
2017-11-04T05:16:35.856642Z $GPGLL,3935.467,S,03728.677,W
2017-11-04T05:16:36.108537Z $GPVTG,230.2,T,,M,010.8,N,020.0,K
2017-11-04T05:16:36.359152Z $GPZDA,000538,07,08,2014,7
2017-11-04T05:16:36.609261Z $GPGLL,3935.470,S,03728.680,W
2017-11-04T05:16:36.859756Z $GPVTG,229.4,T,,M,011.0,N,020.4,K
2017-11-04T05:16:37.111044Z $GPZDA,000539,07,08,2014,7
2017-11-04T05:16:37.361175Z $GPGLL,3935.470,S,03728.680,W
2017-11-04T05:16:37.615082Z $GPVTG,229.4,T,,M,011.0,N,020.4,K
2017-11-04T05:16:37.869882Z $GPZDA,000540,07,08,2014,7
2017-11-04T05:16:38.123941Z $GPGLL,3935.472,S,03728.684,W
2017-11-04T05:16:38.381806Z $GPVTG,228.6,T,,M,011.1,N,020.5,K
2017-11-04T05:16:38.634211Z $GPZDA,000541,07,08,2014,7
2017-11-04T05:16:38.884361Z $GPGLL,3935.475,S,03728.688,W
2017-11-04T05:16:39.134639Z $GPVTG,227.9,T,,M,011.1,N,020.6,K
2017-11-04T05:16:39.384837Z $GPZDA,000542,07,08,2014,7
2017-11-04T05:16:39.638786Z $GPGLL,3935.477,S,03728.691,W
