2017-11-04:05:12:19.481328 $GPZDA,235959.92,06,08,2014,,*65
2017-11-04:05:12:19.735342 $GPGGA,235959.92,3934.831152,S,03727.694551,W,1,11,0.9,-5.30,M,,M,,*6F
2017-11-04:05:12:19.990659 $GPVTG,226.69,T,,M,10.8,N,,K,A*23
2017-11-04:05:12:20.245888 $GPHDT,236.03,T*01
2017-11-04:05:12:20.501188 $PSXN,20,1,0,0,0*3A
2017-11-04:05:12:20.754583 $PSXN,22,0.44,0.81*30
2017-11-04:05:12:21.006515 $PSXN,23,-2.54,1.82,236.03,-1.67*34
2017-11-04:05:12:21.261835 $GPZDA,000000.92,07,08,2014,,*65
2017-11-04:05:12:21.517092 $GPGGA,000000.92,3934.833175,S,03727.697459,W,1,11,0.9,-5.89,M,,M,,*61
2017-11-04:05:12:21.772426 $GPVTG,229.63,T,,M,10.8,N,,K,A*26
2017-11-04:05:12:22.022646 $GPHDT,236.28,T*08
2017-11-04:05:12:22.272874 $PSXN,20,1,0,0,0*3A
2017-11-04:05:12:22.526512 $PSXN,22,0.44,0.81*30
2017-11-04:05:12:22.779671 $PSXN,23,-2.50,-1.48,236.28,-1.06*15
2017-11-04:05:12:23.030096 $GPZDA,000001.92,07,08,2014,,*64
2017-11-04:05:12:23.281760 $GPGGA,000001.92,3934.835118,S,03727.700517,W,1,11,0.9,-7.07,M,,M,,*6D
2017-11-04:05:12:23.532669 $GPVTG,231.79,T,,M,11.1,N,,K,A*2C
2017-11-04:05:12:23.783004 $GPHDT,236.56,T*01
2017-11-04:05:12:24.035708 $PSXN,20,1,0,0,0*3A
2017-11-04:05:12:24.287940 $PSXN,22,0.44,0.81*30
2017-11-04:05:12:24.540765 $PSXN,23,-2.19,-3.26,236.56,0.13*33
2017-11-04:05:12:24.790998 $GPZDA,000002.92,07,08,2014,,*67
2017-11-04:05:12:25.046195 $GPGGA,000002.92,3934.837038,S,03727.703725,W,1,11,0.9,-7.98,M,,M,,*69
2017-11-04:05:12:25.301541 $GPVTG,232.31,T,,M,11.5,N,,K,A*27
2017-11-04:05:12:25.553129 $GPHDT,236.47,T*01
2017-11-04:05:12:25.806433 $PSXN,20,1,0,0,0*3A
2017-11-04:05:12:26.061721 $PSXN,22,0.44,0.81*30
2017-11-04:05:12:26.314857 $PSXN,23,-1.63,-2.22,236.47,1.04*3F
2017-11-04:05:12:26.567007 $GPZDA,000003.92,07,08,2014,,*66
2017-11-04:05:12:26.819311 $GPGGA,000003.92,3934.839023,S,03727.706977,W,1,11,0.9,-7.98,M,,M,,*60
2017-11-04:05:12:27.071958 $GPVTG,230.75,T,,M,11.7,N,,K,A*27
2017-11-04:05:12:27.327301 $GPHDT,235.98,T*00
2017-11-04:05:12:27.581758 $PSXN,20,1,0,0,0*3A
2017-11-04:05:12:27.832511 $PSXN,22,0.44,0.81*30
2017-11-04:05:12:28.085464 $PSXN,23,-1.03,0.41,235.98,1.04*12
2017-11-04:05:12:28.335724 $GPZDA,000004.91,07,08,2014,,*62
2017-11-04:05:12:28.586228 $GPGGA,000004.91,3934.841042,S,03727.710114,W,1,10,0.9,-7.22,M,,M,,*66
2017-11-04:05:12:28.837839 $GPVTG,229.21,T,,M,11.4,N,,K,A*2D
2017-11-04:05:12:29.091909 $GPHDT,235.63,T*04
2017-11-04:05:12:29.347263 $PSXN,20,1,0,0,0*3A
2017-11-04:05:12:29.602303 $PSXN,22,0.44,0.81*30
2017-11-04:05:12:29.852553 $PSXN,23,-0.84,2.47,235.63,0.22*19
2017-11-04:05:12:30.107463 $GPZDA,000005.91,07,08,2014,,*63
2017-11-04:05:12:30.362874 $GPGGA,000005.91,3934.843045,S,03727.713132,W,1,11,0.9,-6.32,M,,M,,*64
2017-11-04:05:12:30.618196 $GPVTG,229.20,T,,M,11.0,N,,K,A*28
2017-11-04:05:12:30.873519 $GPHDT,235.67,T*00
2017-11-04:05:12:31.125547 $PSXN,20,1,0,0,0*3A
2017-11-04:05:12:31.378254 $PSXN,22,0.44,0.81*30
2017-11-04:05:12:31.629163 $PSXN,23,-1.12,2.89,235.67,-0.74*3F
2017-11-04:05:12:31.883761 $GPZDA,000006.91,07,08,2014,,*60
2017-11-04:05:12:32.138852 $GPGGA,000006.91,3934.845043,S,03727.716130,W,1,11,0.9,-6.03,M,,M,,*62
2017-11-04:05:12:32.394205 $GPVTG,229.76,T,,M,10.8,N,,K,A*22
2017-11-04:05:12:32.649944 $GPHDT,236.02,T*00
2017-11-04:05:12:32.904792 $PSXN,20,1,0,0,0*3A
2017-11-04:05:12:33.157275 $PSXN,22,0.44,0.81*30
2017-11-04:05:12:33.410229 $PSXN,23,-1.58,1.50,236.02,-1.00*34
2017-11-04:05:12:33.661211 $GPZDA,000007.91,07,08,2014,,*61
2017-11-04:05:12:33.915228 $GPGGA,000007.91,3934.847001,S,03727.719133,W,1,11,0.9,-6.73,M,,M,,*6C
2017-11-04:05:12:34.167254 $GPVTG,229.74,T,,M,10.9,N,,K,A*21
2017-11-04:05:12:34.418466 $GPHDT,236.27,T*07
2017-11-04:05:12:34.668981 $PSXN,20,1,0,0,0*3A
2017-11-04:05:12:34.919095 $PSXN,22,0.44,0.81*30
2017-11-04:05:12:35.174373 $PSXN,23,-1.94,-0.71,236.27,-0.28*17
2017-11-04:05:12:35.429717 $GPZDA,000008.91,07,08,2014,,*6E
2017-11-04:05:12:35.684940 $GPGGA,000008.91,3934.849026,S,03727.722172,W,1,11,0.9,-7.76,M,,M,,*61
2017-11-04:05:12:35.935158 $GPVTG,228.83,T,,M,11.2,N,,K,A*22
2017-11-04:05:12:36.190546 $GPHDT,236.20,T*00
2017-11-04:05:12:36.445799 $PSXN,20,1,0,0,0*3A
2017-11-04:05:12:36.701094 $PSXN,22,0.44,0.81*30
2017-11-04:05:12:36.956382 $PSXN,23,-2.01,-2.23,236.20,0.75*3F
2017-11-04:05:12:37.211674 $GPZDA,000009.91,07,08,2014,,*6F
2017-11-04:05:12:37.463168 $GPGGA,000009.91,3934.851128,S,03727.725226,W,1,11,0.9,-8.10,M,,M,,*6C
2017-11-04:05:12:37.717022 $GPVTG,228.60,T,,M,11.4,N,,K,A*29
2017-11-04:05:12:37.972293 $GPHDT,236.04,T*06
2017-11-04:05:12:38.227684 $PSXN,20,1,0,0,0*3A
2017-11-04:05:12:38.482995 $PSXN,22,0.44,0.81*30
2017-11-04:05:12:38.738270 $PSXN,23,-1.63,-1.74,236.04,1.17*3A
2017-11-04:05:12:38.993597 $GPZDA,000010.91,07,08,2014,,*67
2017-11-04:05:12:39.248884 $GPGGA,000010.91,3934.853209,S,03727.728275,W,1,11,0.9,-7.52,M,,M,,*64
2017-11-04:05:12:39.498968 $GPVTG,228.59,T,,M,11.2,N,,K,A*25
2017-11-04:05:12:39.754144 $GPHDT,236.15,T*06
2017-11-04:05:12:40.009545 $PSXN,20,1,0,0,0*3A
2017-11-04:05:12:40.264765 $PSXN,22,0.44,0.82*33
2017-11-04:05:12:40.519037 $PSXN,23,-1.29,0.70,236.15,0.62*1F
2017-11-04:05:12:40.769916 $GPZDA,000011.91,07,08,2014,,*66
2017-11-04:05:12:41.021293 $GPGGA,000011.91,3934.855206,S,03727.731233,W,1,11,0.9,-6.44,M,,M,,*60
2017-11-04:05:12:41.274960 $GPVTG,228.83,T,,M,10.8,N,,K,A*29
2017-11-04:05:12:41.530255 $GPHDT,236.50,T*07
2017-11-04:05:12:41.785571 $PSXN,20,1,0,0,0*3A
2017-11-04:05:12:42.039843 $PSXN,22,0.44,0.82*33
2017-11-04:05:12:42.290794 $PSXN,23,-1.26,3.25,236.50,-0.55*3B
2017-11-04:05:12:42.546018 $GPZDA,000012.91,07,08,2014,,*65
2017-11-04:05:12:42.797434 $GPGGA,000012.91,3934.857127,S,03727.734102,W,1,11,0.9,-5.58,M,,M,,*6B
2017-11-04:05:12:43.051099 $GPVTG,229.39,T,,M,10.4,N,,K,A*25
2017-11-04:05:12:43.301274 $GPHDT,236.80,T*0A
2017-11-04:05:12:43.554481 $PSXN,20,1,0,0,0*3A
2017-11-04:05:12:43.806360 $PSXN,22,0.44,0.82*33
2017-11-04:05:12:44.061043 $PSXN,23,-1.38,3.62,236.80,-1.46*39
2017-11-04:05:12:44.316358 $GPZDA,000013.91,07,08,2014,,*64
2017-11-04:05:12:44.571695 $GPGGA,000013.91,3934.858983,S,03727.736953,W,1,11,0.9,-5.71,M,,M,,*66
2017-11-04:05:12:44.821861 $GPVTG,230.45,T,,M,10.3,N,,K,A*21
2017-11-04:05:12:45.076811 $GPHDT,236.78,T*0D
2017-11-04:05:12:45.327045 $PSXN,20,1,0,0,0*3A
2017-11-04:05:12:45.581739 $PSXN,22,0.44,0.82*33
2017-11-04:05:12:45.835720 $PSXN,23,-1.45,1.27,236.78,-1.36*30
2017-11-04:05:12:46.086153 $GPZDA,000014.91,07,08,2014,,*63
2017-11-04:05:12:46.341483 $GPGGA,000014.91,3934.860850,S,03727.739896,W,1,11,0.9,-6.88,M,,M,,*67
2017-11-04:05:12:46.591737 $GPVTG,231.37,T,,M,10.6,N,,K,A*20
2017-11-04:05:12:46.847012 $GPHDT,236.51,T*06
2017-11-04:05:12:47.102305 $PSXN,20,1,0,0,0*3A
2017-11-04:05:12:47.357578 $PSXN,22,0.44,0.82*33
2017-11-04:05:12:47.612900 $PSXN,23,-1.26,-2.24,236.51,-0.13*15
2017-11-04:05:12:47.863545 $GPZDA,000015.91,07,08,2014,,*62
2017-11-04:05:12:48.118283 $GPGGA,000015.91,3934.862761,S,03727.742953,W,1,11,0.9,-8.30,M,,M,,*60
2017-11-04:05:12:48.373557 $GPVTG,231.12,T,,M,11.1,N,,K,A*21
2017-11-04:05:12:48.628837 $GPHDT,236.42,T*04
2017-11-04:05:12:48.884154 $PSXN,20,1,0,0,0*3A
2017-11-04:05:12:49.139435 $PSXN,22,0.44,0.82*33
2017-11-04:05:12:49.394710 $PSXN,23,-0.98,-3.94,236.42,1.34*30
2017-11-04:05:12:49.645790 $GPZDA,000016.91,07,08,2014,,*61
2017-11-04:05:12:49.899482 $GPGGA,000016.91,3934.864703,S,03727.746052,W,1,11,0.9,-8.92,M,,M,,*65
2017-11-04:05:12:50.149712 $GPVTG,230.37,T,,M,11.4,N,,K,A*22
2017-11-04:05:12:50.405038 $GPHDT,236.60,T*04
2017-11-04:05:12:50.660282 $PSXN,20,1,0,0,0*3A
2017-11-04:05:12:50.912868 $PSXN,22,0.44,0.82*33
2017-11-04:05:12:51.165462 $PSXN,23,-1.21,-2.12,236.60,1.86*35
2017-11-04:05:12:51.415640 $GPZDA,000017.91,07,08,2014,,*60
2017-11-04:05:12:51.669785 $GPGGA,000017.91,3934.866679,S,03727.749109,W,1,11,0.9,-8.12,M,,M,,*62
2017-11-04:05:12:51.925009 $GPVTG,229.61,T,,M,11.2,N,,K,A*2F
2017-11-04:05:12:52.175479 $GPHDT,236.75,T*00
2017-11-04:05:12:52.430754 $PSXN,20,1,0,0,0*3A
2017-11-04:05:12:52.681115 $PSXN,22,0.44,0.82*33
2017-11-04:05:12:52.935266 $PSXN,23,-1.71,1.79,236.75,0.98*19
2017-11-04:05:12:53.189440 $GPZDA,000018.91,07,08,2014,,*6F
2017-11-04:05:12:53.441302 $GPGGA,000018.91,3934.868645,S,03727.752077,W,1,10,1.0,-6.42,M,,M,,*6C
2017-11-04:05:12:53.696189 $GPVTG,229.50,T,,M,10.6,N,,K,A*28
2017-11-04:05:12:53.949765 $GPHDT,236.70,T*05
2017-11-04:05:12:54.201033 $PSXN,20,1,0,0,0*3A
2017-11-04:05:12:54.454484 $PSXN,22,0.44,0.82*33
2017-11-04:05:12:54.704595 $PSXN,23,-1.93,4.78,236.70,-0.65*3B
2017-11-04:05:12:54.955525 $GPZDA,000019.91,07,08,2014,,*6E
2017-11-04:05:12:55.205694 $GPGGA,000019.91,3934.870501,S,03727.754896,W,1,10,1.0,-5.14,M,,M,,*66
2017-11-04:05:12:55.456306 $GPVTG,229.84,T,,M,9.9,N,,K,A*16
2017-11-04:05:12:55.710038 $GPHDT,236.62,T*06
2017-11-04:05:12:55.960127 $PSXN,20,1,0,0,0*3A
2017-11-04:05:12:56.210734 $PSXN,22,0.44,0.82*33
2017-11-04:05:12:56.462078 $PSXN,23,-1.92,4.79,236.62,-1.87*35
2017-11-04:05:12:56.716310 $GPZDA,000020.91,07,08,2014,,*64
2017-11-04:05:12:56.969613 $GPGGA,000020.91,3934.872268,S,03727.757620,W,1,11,0.9,-5.07,M,,M,,*6D
2017-11-04:05:12:57.224166 $GPVTG,230.50,T,,M,9.7,N,,K,A*19
2017-11-04:05:12:57.478901 $GPHDT,236.71,T*04
2017-11-04:05:12:57.731425 $PSXN,20,1,0,0,0*3A
2017-11-04:05:12:57.985590 $PSXN,22,0.44,0.82*33
2017-11-04:05:12:58.250876 $PSXN,23,-2.02,1.89,236.71,-1.88*38
2017-11-04:05:12:58.505963 $GPZDA,000021.91,07,08,2014,,*65
2017-11-04:05:12:58.757399 $GPGGA,000021.91,3934.874014,S,03727.760324,W,1,11,0.9,-6.12,M,,M,,*61
2017-11-04:05:12:59.008117 $GPVTG,230.44,T,,M,9.8,N,,K,A*13
2017-11-04:05:12:59.262538 $GPHDT,236.84,T*0E
2017-11-04:05:12:59.512669 $PSXN,20,1,0,0,0*3A
2017-11-04:05:12:59.767354 $PSXN,22,0.44,0.82*33
2017-11-04:05:13:00.021457 $PSXN,23,-2.24,-1.95,236.84,-0.79*19
2017-11-04:05:13:00.272382 $GPZDA,000022.91,07,08,2014,,*66
2017-11-04:05:13:00.526236 $GPGGA,000022.91,3934.875838,S,03727.763107,W,1,11,0.9,-7.51,M,,M,,*63
2017-11-04:05:13:00.777401 $GPVTG,229.64,T,,M,10.4,N,,K,A*2D
2017-11-04:05:13:01.031035 $GPHDT,236.79,T*0C
2017-11-04:05:13:01.282425 $PSXN,20,1,0,0,0*3A
2017-11-04:05:13:01.537571 $PSXN,22,0.44,0.82*33
2017-11-04:05:13:01.792872 $PSXN,23,-2.22,-4.17,236.79,0.63*34
2017-11-04:05:13:02.044137 $GPZDA,000023.91,07,08,2014,,*67
2017-11-04:05:13:02.298091 $GPGGA,000023.91,3934.877770,S,03727.766040,W,1,11,0.9,-8.51,M,,M,,*6B
2017-11-04:05:13:02.553026 $GPVTG,229.51,T,,M,11.1,N,,K,A*2F
2017-11-04:05:13:02.803217 $GPHDT,236.59,T*0E
2017-11-04:05:13:03.057820 $PSXN,20,1,0,0,0*3A
2017-11-04:05:13:03.312760 $PSXN,22,0.44,0.82*33
2017-11-04:05:13:03.563433 $PSXN,23,-1.95,-3.44,236.59,1.59*30
2017-11-04:05:13:03.813773 $GPZDA,000024.91,07,08,2014,,*60
2017-11-04:05:13:04.068362 $GPGGA,000024.91,3934.879792,S,03727.769159,W,1,11,0.9,-8.68,M,,M,,*62
2017-11-04:05:13:04.323623 $GPVTG,229.93,T,,M,11.6,N,,K,A*26
2017-11-04:05:13:04.578857 $GPHDT,236.37,T*06
2017-11-04:05:13:04.832150 $PSXN,20,1,0,0,0*3A
2017-11-04:05:13:05.085548 $PSXN,22,0.44,0.82*33
2017-11-04:05:13:05.336286 $PSXN,23,-1.74,-0.47,236.37,1.65*38
2017-11-04:05:13:05.588489 $GPZDA,000025.91,07,08,2014,,*61
2017-11-04:05:13:05.838744 $GPGGA,000025.91,3934.881831,S,03727.772289,W,1,11,0.9,-8.00,M,,M,,*68
2017-11-04:05:13:06.094054 $GPVTG,229.57,T,,M,11.3,N,,K,A*2B
2017-11-04:05:13:06.348384 $GPHDT,236.17,T*04
2017-11-04:05:13:06.599076 $PSXN,20,1,0,0,0*3A
2017-11-04:05:13:06.852265 $PSXN,22,0.44,0.82*33
2017-11-04:05:13:07.102863 $PSXN,23,-1.60,2.56,236.17,0.90*1B
2017-11-04:05:13:07.357379 $GPZDA,000026.91,07,08,2014,,*62
2017-11-04:05:13:07.609009 $GPGGA,000026.91,3934.883818,S,03727.775268,W,1,11,0.9,-6.84,M,,M,,*68
2017-11-04:05:13:07.859744 $GPVTG,228.99,T,,M,10.7,N,,K,A*2D
2017-11-04:05:13:08.113780 $GPHDT,235.88,T*01
2017-11-04:05:13:08.369069 $PSXN,20,1,0,0,0*3A
2017-11-04:05:13:08.624303 $PSXN,22,0.44,0.82*33
2017-11-04:05:13:08.877638 $PSXN,23,-1.37,3.97,235.88,-0.20*36
2017-11-04:05:13:09.128316 $GPZDA,000027.91,07,08,2014,,*63
2017-11-04:05:13:09.379159 $GPGGA,000027.91,3934.885726,S,03727.778062,W,1,11,0.9,-5.96,M,,M,,*68
2017-11-04:05:13:09.629563 $GPVTG,228.43,T,,M,10.0,N,,K,A*2D
2017-11-04:05:13:09.884255 $GPHDT,235.60,T*07
2017-11-04:05:13:10.139092 $PSXN,20,1,0,0,0*3A
2017-11-04:05:13:10.389277 $PSXN,22,0.44,0.82*33
2017-11-04:05:13:10.644611 $PSXN,23,-1.03,3.40,235.60,-1.04*3A
2017-11-04:05:13:10.899975 $GPZDA,000028.91,07,08,2014,,*6C
2017-11-04:05:13:11.152086 $GPGGA,000028.91,3934.887495,S,03727.780683,W,1,11,0.9,-5.81,M,,M,,*66
2017-11-04:05:13:11.402308 $GPVTG,228.79,T,,M,9.6,N,,K,A*1A
2017-11-04:05:13:11.653791 $GPHDT,235.58,T*0C
2017-11-04:05:13:11.904534 $PSXN,20,1,0,0,0*3A
2017-11-04:05:13:12.159456 $PSXN,22,0.44,0.82*33
2017-11-04:05:13:12.414724 $PSXN,23,-0.73,1.63,235.58,-1.27*35
2017-11-04:05:13:12.667352 $GPZDA,000029.91,07,08,2014,,*6D
2017-11-04:05:13:12.918121 $GPGGA,000029.91,3934.889207,S,03727.783276,W,1,10,0.9,-6.09,M,,M,,*6B
2017-11-04:05:13:13.169361 $GPVTG,230.49,T,,M,9.5,N,,K,A*13
2017-11-04:05:13:13.424635 $GPHDT,235.84,T*0D
2017-11-04:05:13:13.675291 $PSXN,20,1,0,0,0*3A
2017-11-04:05:13:13.926301 $PSXN,22,0.44,0.82*33
2017-11-04:05:13:14.176596 $PSXN,23,-0.62,-0.54,235.84,-0.97*16
2017-11-04:05:13:14.431008 $GPZDA,000030.91,07,08,2014,,*65
2017-11-04:05:13:14.684485 $GPGGA,000030.91,3934.890929,S,03727.786046,W,1,11,0.9,-6.69,M,,M,,*6F
2017-11-04:05:13:14.939732 $GPVTG,232.27,T,,M,10.1,N,,K,A*25
2017-11-04:05:13:15.192969 $GPHDT,236.05,T*07
2017-11-04:05:13:15.443739 $PSXN,20,1,0,0,0*3A
2017-11-04:05:13:15.695942 $PSXN,22,0.44,0.82*33
2017-11-04:05:13:15.948911 $PSXN,23,-0.60,-2.64,236.05,-0.28*1B
2017-11-04:05:13:16.199175 $GPZDA,000031.91,07,08,2014,,*64
2017-11-04:05:13:16.453356 $GPGGA,000031.91,3934.892686,S,03727.789031,W,1,11,0.9,-7.66,M,,M,,*67
2017-11-04:05:13:16.704171 $GPVTG,231.92,T,,M,11.0,N,,K,A*28
2017-11-04:05:13:16.954312 $GPHDT,236.00,T*02
2017-11-04:05:13:17.209280 $PSXN,20,1,0,0,0*3A
2017-11-04:05:13:17.464570 $PSXN,22,0.44,0.82*33
2017-11-04:05:13:17.719183 $PSXN,23,-0.72,-3.86,236.00,0.60*31
2017-11-04:05:13:17.974400 $GPZDA,000032.91,07,08,2014,,*67
2017-11-04:05:13:18.225020 $GPGGA,000032.91,3934.894647,S,03727.792209,W,1,11,0.9,-8.52,M,,M,,*64
2017-11-04:05:13:18.477687 $GPVTG,229.98,T,,M,11.8,N,,K,A*23
2017-11-04:05:13:18.730028 $GPHDT,235.74,T*02
2017-11-04:05:13:18.984427 $PSXN,20,1,0,0,0*3A
2017-11-04:05:13:19.234991 $PSXN,22,0.44,0.82*33
2017-11-04:05:13:19.490302 $PSXN,23,-0.90,-3.13,235.74,1.39*3C
2017-11-04:05:13:19.745610 $GPZDA,000033.91,07,08,2014,,*66
2017-11-04:05:13:20.000929 $GPGGA,000033.91,3934.896837,S,03727.795432,W,1,11,0.9,-8.78,M,,M,,*6F
2017-11-04:05:13:20.256273 $GPVTG,227.31,T,,M,12.1,N,,K,A*24
2017-11-04:05:13:20.508381 $GPHDT,235.48,T*0D
2017-11-04:05:13:20.759871 $PSXN,20,1,0,0,0*3A
2017-11-04:05:13:21.011137 $PSXN,22,0.44,0.82*33
2017-11-04:05:13:21.262699 $PSXN,23,-1.03,-0.34,235.48,1.64*36
2017-11-04:05:13:21.516165 $GPZDA,000034.91,07,08,2014,,*61
2017-11-04:05:13:21.771269 $GPGGA,000034.91,3934.899097,S,03727.798506,W,1,11,0.9,-8.20,M,,M,,*63
2017-11-04:05:13:22.021438 $GPVTG,225.79,T,,M,11.6,N,,K,A*2E
2017-11-04:05:13:22.276400 $GPHDT,235.34,T*06
2017-11-04:05:13:22.531714 $PSXN,20,1,0,0,0*3A
2017-11-04:05:13:22.783223 $PSXN,22,0.44,0.82*33
2017-11-04:05:13:23.036770 $PSXN,23,-1.27,3.18,235.34,1.03*1A
2017-11-04:05:13:23.292065 $GPZDA,000035.91,07,08,2014,,*60
2017-11-04:05:13:23.546646 $GPGGA,000035.91,3934.901217,S,03727.801369,W,1,11,0.9,-6.98,M,,M,,*65
2017-11-04:05:13:23.797068 $GPVTG,226.64,T,,M,10.5,N,,K,A*23
2017-11-04:05:13:24.052506 $GPHDT,235.38,T*0A
2017-11-04:05:13:24.307820 $PSXN,20,1,0,0,0*3A
2017-11-04:05:13:24.563119 $PSXN,22,0.44,0.82*33
2017-11-04:05:13:24.818373 $PSXN,23,-1.75,5.29,235.38,-0.26*3E
2017-11-04:05:13:25.073599 $GPZDA,000036.91,07,08,2014,,*63
2017-11-04:05:13:25.323728 $GPGGA,000036.91,3934.903115,S,03727.804049,W,1,11,0.9,-5.81,M,,M,,*6A
2017-11-04:05:13:25.578965 $GPVTG,228.32,T,,M,9.7,N,,K,A*14
2017-11-04:05:13:25.834280 $GPHDT,235.44,T*01
2017-11-04:05:13:26.086485 $PSXN,20,1,0,0,0*3A
2017-11-04:05:13:26.339402 $PSXN,22,0.44,0.82*33
2017-11-04:05:13:26.594701 $PSXN,23,-2.17,4.50,235.44,-1.45*39
2017-11-04:05:13:26.847422 $GPZDA,000037.91,07,08,2014,,*62
2017-11-04:05:13:27.100342 $GPGGA,000037.91,3934.904847,S,03727.806636,W,1,10,0.9,-5.55,M,,M,,*66
2017-11-04:05:13:27.354995 $GPVTG,229.46,T,,M,9.5,N,,K,A*14
2017-11-04:05:13:27.605308 $GPHDT,235.41,T*04
2017-11-04:05:13:27.858236 $PSXN,20,1,0,0,0*3A
2017-11-04:05:13:28.109758 $PSXN,22,0.44,0.82*33
2017-11-04:05:13:28.359917 $PSXN,23,-2.14,1.11,235.41,-1.74*3D
2017-11-04:05:13:28.614710 $GPZDA,000038.91,07,08,2014,,*6D
2017-11-04:05:13:28.869312 $GPGGA,000038.91,3934.906566,S,03727.809301,W,1,10,0.9,-6.20,M,,M,,*6A
2017-11-04:05:13:29.124537 $GPVTG,231.15,T,,M,9.7,N,,K,A*19
2017-11-04:05:13:29.374923 $GPHDT,235.46,T*03
2017-11-04:05:13:29.627690 $PSXN,20,1,0,0,0*3A
2017-11-04:05:13:29.880178 $PSXN,22,0.44,0.82*33
2017-11-04:05:13:30.135379 $PSXN,23,-2.00,-2.75,235.46,-1.02*12
2017-11-04:05:13:30.389961 $GPZDA,000039.91,07,08,2014,,*6C
2017-11-04:05:13:30.641044 $GPGGA,000039.91,3934.908301,S,03727.812134,W,1,10,0.9,-7.25,M,,M,,*68
2017-11-04:05:13:30.895430 $GPVTG,232.24,T,,M,10.4,N,,K,A*23
2017-11-04:05:13:31.150724 $GPHDT,235.46,T*03
2017-11-04:05:13:31.403716 $PSXN,20,1,0,0,0*3A
2017-11-04:05:13:31.656110 $PSXN,22,0.44,0.82*33
2017-11-04:05:13:31.911394 $PSXN,23,-2.09,-4.50,235.46,0.08*3C
2017-11-04:05:13:32.166636 $GPZDA,000040.91,07,08,2014,,*62
2017-11-04:05:13:32.421156 $GPGGA,000040.91,3934.910126,S,03727.815144,W,1,10,0.9,-8.16,M,,M,,*67
2017-11-04:05:13:32.671846 $GPVTG,230.93,T,,M,11.1,N,,K,A*29
2017-11-04:05:13:32.927169 $GPHDT,235.19,T*09
2017-11-04:05:13:33.182485 $PSXN,20,1,0,0,0*3A
2017-11-04:05:13:33.436601 $PSXN,22,0.44,0.82*33
2017-11-04:05:13:33.687530 $PSXN,23,-2.24,-3.19,235.19,0.94*36
2017-11-04:05:13:33.942800 $GPZDA,000041.91,07,08,2014,,*63
2017-11-04:05:13:34.198063 $GPGGA,000041.91,3934.912169,S,03727.818241,W,1,11,0.9,-8.40,M,,M,,*66
2017-11-04:05:13:34.449851 $GPVTG,228.23,T,,M,11.6,N,,K,A*2C
2017-11-04:05:13:34.702659 $GPHDT,234.76,T*01
2017-11-04:05:13:34.952967 $PSXN,20,1,0,0,0*3A
2017-11-04:05:13:35.208272 $PSXN,22,0.44,0.82*33
2017-11-04:05:13:35.463602 $PSXN,23,-2.39,-0.22,234.76,1.19*3D
2017-11-04:05:13:35.718923 $GPZDA,000042.91,07,08,2014,,*60
2017-11-04:05:13:35.974299 $GPGGA,000042.91,3934.914357,S,03727.821259,W,1,11,0.9,-8.10,M,,M,,*6A
2017-11-04:05:13:36.229430 $GPVTG,225.67,T,,M,11.5,N,,K,A*22
2017-11-04:05:13:36.483006 $GPHDT,234.41,T*05
2017-11-04:05:13:36.734896 $PSXN,20,1,0,0,0*3A
2017-11-04:05:13:36.990091 $PSXN,22,0.44,0.82*33
2017-11-04:05:13:37.241877 $PSXN,23,-2.38,2.25,234.41,0.89*18
2017-11-04:05:13:37.495281 $GPZDA,000043.91,07,08,2014,,*61
2017-11-04:05:13:37.750523 $GPGGA,000043.91,3934.916600,S,03727.824148,W,1,11,0.9,-7.39,M,,M,,*6C
2017-11-04:05:13:38.005778 $GPVTG,224.83,T,,M,11.0,N,,K,A*2C
2017-11-04:05:13:38.260386 $GPHDT,234.34,T*07
2017-11-04:05:13:38.510918 $PSXN,20,1,0,0,0*3A
2017-11-04:05:13:38.766228 $PSXN,22,0.44,0.82*33
2017-11-04:05:13:39.021520 $PSXN,23,-2.21,3.20,234.34,0.26*13
2017-11-04:05:13:39.276860 $GPZDA,000044.91,07,08,2014,,*66
2017-11-04:05:13:39.532193 $GPGGA,000044.91,3934.918716,S,03727.826908,W,1,11,0.9,-6.77,M,,M,,*66
2017-11-04:05:13:39.786028 $GPVTG,225.98,T,,M,10.5,N,,K,A*23
2017-11-04:05:13:40.037565 $GPHDT,234.60,T*06
2017-11-04:05:13:40.292609 $PSXN,20,1,0,0,0*3A
2017-11-04:05:13:40.547792 $PSXN,22,0.44,0.82*33
2017-11-04:05:13:40.803007 $PSXN,23,-1.91,2.53,234.60,-0.38*3D
2017-11-04:05:13:41.053273 $GPZDA,000045.91,07,08,2014,,*67
2017-11-04:05:13:41.308566 $GPGGA,000045.91,3934.920660,S,03727.829606,W,1,10,1.0,-6.31,M,,M,,*69
2017-11-04:05:13:41.563856 $GPVTG,228.79,T,,M,10.0,N,,K,A*24
2017-11-04:05:13:41.819119 $GPHDT,234.90,T*09
2017-11-04:05:13:42.074373 $PSXN,20,1,0,0,0*3A
2017-11-04:05:13:42.324460 $PSXN,22,0.44,0.82*33
2017-11-04:05:13:42.579720 $PSXN,23,-1.45,1.07,234.90,-0.79*3C
2017-11-04:05:13:42.835026 $GPZDA,000046.91,07,08,2014,,*64
2017-11-04:05:13:43.090437 $GPGGA,000046.91,3934.922454,S,03727.832326,W,1,10,1.0,-6.22,M,,M,,*62
2017-11-04:05:13:43.345706 $GPVTG,230.47,T,,M,9.9,N,,K,A*11
2017-11-04:05:13:43.599133 $GPHDT,235.02,T*03
2017-11-04:05:13:43.850891 $PSXN,20,1,0,0,0*3A
2017-11-04:05:13:44.106162 $PSXN,22,0.44,0.82*33
2017-11-04:05:13:44.361449 $PSXN,23,-0.99,-0.25,235.02,-0.83*1F
2017-11-04:05:13:44.616692 $GPZDA,000047.91,07,08,2014,,*65
2017-11-04:05:13:44.872004 $GPGGA,000047.91,3934.924238,S,03727.835084,W,1,10,1.0,-6.55,M,,M,,*65
2017-11-04:05:13:45.126232 $GPVTG,229.66,T,,M,10.2,N,,K,A*29
2017-11-04:05:13:45.381511 $GPHDT,234.97,T*0E
2017-11-04:05:13:45.632987 $PSXN,20,1,0,0,0*3A
2017-11-04:05:13:45.886084 $PSXN,22,0.44,0.82*33
2017-11-04:05:13:46.139839 $PSXN,23,-0.70,-1.14,234.97,-0.46*1F
2017-11-04:05:13:46.392764 $GPZDA,000048.91,07,08,2014,,*6A
2017-11-04:05:13:46.643560 $GPGGA,000048.91,3934.926196,S,03727.837931,W,1,10,1.0,-7.12,M,,M,,*68
2017-11-04:05:13:46.897602 $GPVTG,228.12,T,,M,10.8,N,,K,A*21
2017-11-04:05:13:47.151215 $GPHDT,234.84,T*0C
2017-11-04:05:13:47.402897 $PSXN,20,1,0,0,0*3A
2017-11-04:05:13:47.654002 $PSXN,22,0.44,0.82*33
2017-11-04:05:13:47.908024 $PSXN,23,-0.63,-1.84,234.84,0.24*3F
2017-11-04:05:13:48.163338 $GPZDA,000049.91,07,08,2014,,*6B
2017-11-04:05:13:48.418671 $GPGGA,000049.91,3934.928283,S,03727.840895,W,1,10,1.0,-7.66,M,,M,,*6C
2017-11-04:05:13:48.674063 $GPVTG,227.99,T,,M,11.3,N,,K,A*27
2017-11-04:05:13:48.929343 $GPHDT,234.95,T*0C
2017-11-04:05:13:49.184656 $PSXN,20,1,0,0,0*3A
2017-11-04:05:13:49.439947 $PSXN,22,0.44,0.82*33
2017-11-04:05:13:49.690038 $PSXN,23,-0.94,-1.96,234.95,0.89*33
2017-11-04:05:13:49.940234 $GPZDA,000050.91,07,08,2014,,*63
2017-11-04:05:13:50.194939 $GPGGA,000050.91,3934.930422,S,03727.843921,W,1,10,1.0,-7.64,M,,M,,*6F
2017-11-04:05:13:50.450313 $GPVTG,227.92,T,,M,11.4,N,,K,A*2B
2017-11-04:05:13:50.705634 $GPHDT,235.20,T*03
2017-11-04:05:13:50.960890 $PSXN,20,1,0,0,0*3A
2017-11-04:05:13:51.216217 $PSXN,22,0.44,0.82*33
2017-11-04:05:13:51.467404 $PSXN,23,-1.54,-0.69,235.20,0.94*3C
2017-11-04:05:13:51.719473 $GPZDA,000051.91,07,08,2014,,*62
2017-11-04:05:13:51.969693 $GPGGA,000051.91,3934.932540,S,03727.846898,W,1,10,1.0,-6.96,M,,M,,*63
2017-11-04:05:13:52.220529 $GPVTG,227.31,T,,M,11.1,N,,K,A*27
2017-11-04:05:13:52.475876 $GPHDT,235.21,T*02
2017-11-04:05:13:52.731141 $PSXN,20,1,0,0,0*3A
2017-11-04:05:13:52.986213 $PSXN,22,0.44,0.82*33
2017-11-04:05:13:53.236332 $PSXN,23,-1.92,1.58,235.21,0.31*16
2017-11-04:05:13:53.491672 $GPZDA,000052.91,07,08,2014,,*61
2017-11-04:05:13:53.746988 $GPGGA,000052.91,3934.934607,S,03727.849789,W,1,10,1.0,-6.07,M,,M,,*6E
2017-11-04:05:13:54.002249 $GPVTG,227.12,T,,M,10.8,N,,K,A*2E
2017-11-04:05:13:54.257579 $GPHDT,234.97,T*0E
2017-11-04:05:13:54.512274 $PSXN,20,1,0,0,0*3A
2017-11-04:05:13:54.762959 $PSXN,22,0.44,0.82*33
2017-11-04:05:13:55.018228 $PSXN,23,-1.92,3.09,234.97,-0.54*32
2017-11-04:05:13:55.273538 $GPZDA,000053.91,07,08,2014,,*60
2017-11-04:05:13:55.528868 $GPGGA,000053.91,3934.936623,S,03727.852616,W,1,10,1.0,-5.60,M,,M,,*64
2017-11-04:05:13:55.784198 $GPVTG,227.59,T,,M,10.6,N,,K,A*2F
2017-11-04:05:13:56.039473 $GPHDT,234.77,T*00
2017-11-04:05:13:56.294798 $PSXN,20,1,0,0,0*3A
2017-11-04:05:13:56.544892 $PSXN,22,0.44,0.82*33
2017-11-04:05:13:56.798828 $PSXN,23,-1.82,2.43,234.77,-0.98*32
2017-11-04:05:13:57.049945 $GPZDA,000054.91,07,08,2014,,*67
2017-11-04:05:13:57.300705 $GPGGA,000054.91,3934.938606,S,03727.855452,W,1,10,1.0,-5.88,M,,M,,*69
2017-11-04:05:13:57.554636 $GPVTG,228.42,T,,M,10.5,N,,K,A*29
2017-11-04:05:13:57.804796 $GPHDT,234.85,T*0D
2017-11-04:05:13:58.059765 $PSXN,20,1,0,0,0*3A
2017-11-04:05:13:58.315098 $PSXN,22,0.44,0.82*33
2017-11-04:05:13:58.570149 $PSXN,23,-1.92,0.06,234.85,-0.69*33
2017-11-04:05:13:58.825530 $GPZDA,000055.91,07,08,2014,,*66
2017-11-04:05:13:59.080785 $GPGGA,000055.91,3934.940506,S,03727.858280,W,1,10,1.0,-6.56,M,,M,,*60
2017-11-04:05:13:59.330901 $GPVTG,229.32,T,,M,10.5,N,,K,A*2F
2017-11-04:05:13:59.586257 $GPHDT,235.14,T*04
2017-11-04:05:13:59.841581 $PSXN,20,1,0,0,0*3A
2017-11-04:05:14:00.096930 $PSXN,22,0.44,0.82*33
2017-11-04:05:14:00.349011 $PSXN,23,-2.24,-1.67,235.14,-0.11*10
2017-11-04:05:14:00.602043 $GPZDA,000056.91,07,08,2014,,*65
2017-11-04:05:14:00.857317 $GPGGA,000056.91,3934.942383,S,03727.861156,W,1,10,1.0,-6.96,M,,M,,*64
2017-11-04:05:14:01.112437 $GPVTG,230.23,T,,M,10.6,N,,K,A*24
2017-11-04:05:14:01.367693 $GPHDT,235.45,T*00
2017-11-04:05:14:01.617870 $PSXN,20,1,0,0,0*3A
2017-11-04:05:14:01.873072 $PSXN,22,0.44,0.82*33
2017-11-04:05:14:02.128376 $PSXN,23,-2.52,-1.40,235.45,0.21*3E
2017-11-04:05:14:02.380390 $GPZDA,000057.91,07,08,2014,,*64
2017-11-04:05:14:02.633544 $GPGGA,000057.91,3934.944326,S,03727.864094,W,1,10,1.0,-6.67,M,,M,,*68
2017-11-04:05:14:02.888877 $GPVTG,229.60,T,,M,10.7,N,,K,A*2A
2017-11-04:05:14:03.144177 $GPHDT,235.51,T*05
2017-11-04:05:14:03.396145 $PSXN,20,1,0,0,0*3A
2017-11-04:05:14:03.649217 $PSXN,22,0.44,0.82*33
2017-11-04:05:14:03.902333 $PSXN,23,-2.50,0.17,235.51,0.07*13
2017-11-04:05:14:04.154132 $GPZDA,000058.91,07,08,2014,,*6B
2017-11-04:05:14:04.409477 $GPGGA,000058.91,3934.946251,S,03727.866989,W,1,10,1.0,-6.56,M,,M,,*61
2017-11-04:05:14:04.665213 $GPVTG,228.22,T,,M,10.9,N,,K,A*23
2017-11-04:05:14:04.917302 $GPHDT,235.44,T*01
2017-11-04:05:14:05.169626 $PSXN,20,1,0,0,0*3A
2017-11-04:05:14:05.421587 $PSXN,22,0.44,0.82*33
2017-11-04:05:14:05.675103 $PSXN,23,-2.35,1.24,235.44,-0.13*3D
2017-11-04:05:14:05.929018 $GPZDA,000059.91,07,08,2014,,*6A
2017-11-04:05:14:06.182005 $GPGGA,000059.91,3934.948287,S,03727.869914,W,1,10,1.0,-6.81,M,,M,,*64
2017-11-04:05:14:06.435288 $GPVTG,227.26,T,,M,11.1,N,,K,A*21
2017-11-04:05:14:06.690594 $GPHDT,235.37,T*05
2017-11-04:05:14:06.945922 $PSXN,20,1,0,0,0*3A
2017-11-04:05:14:07.201257 $PSXN,22,0.44,0.82*33
2017-11-04:05:14:07.456556 $PSXN,23,-2.24,0.65,235.37,0.06*14
2017-11-04:05:14:07.711980 $GPZDA,000100.91,07,08,2014,,*67
2017-11-04:05:14:07.967266 $GPGGA,000100.91,3934.950446,S,03727.872853,W,1,10,1.0,-7.18,M,,M,,*62
2017-11-04:05:14:08.217501 $GPVTG,226.38,T,,M,11.1,N,,K,A*2F
2017-11-04:05:14:08.470950 $GPHDT,235.24,T*07
2017-11-04:05:14:08.722182 $PSXN,20,1,0,0,0*3A
2017-11-04:05:14:08.977522 $PSXN,22,0.44,0.82*33
2017-11-04:05:14:09.232878 $PSXN,23,-2.04,-0.62,235.24,0.49*35
2017-11-04:05:14:09.484828 $GPZDA,000101.91,07,08,2014,,*66
2017-11-04:05:14:09.737974 $GPGGA,000101.91,3934.952581,S,03727.875723,W,1,10,1.0,-7.19,M,,M,,*65
2017-11-04:05:14:09.993316 $GPVTG,226.74,T,,M,10.9,N,,K,A*2E
2017-11-04:05:14:10.248617 $GPHDT,235.27,T*04
2017-11-04:05:14:10.503024 $PSXN,20,1,0,0,0*3A
2017-11-04:05:14:10.753132 $PSXN,22,0.44,0.82*33
2017-11-04:05:14:11.008460 $PSXN,23,-1.51,-0.44,235.27,0.56*3F
2017-11-04:05:14:11.258723 $GPZDA,000102.91,07,08,2014,,*65
2017-11-04:05:14:11.514094 $GPGGA,000102.91,3934.954571,S,03727.878573,W,1,10,1.0,-6.60,M,,M,,*6A
2017-11-04:05:14:11.769396 $GPVTG,230.01,T,,M,10.5,N,,K,A*27
2017-11-04:05:14:12.024721 $GPHDT,235.67,T*00
2017-11-04:05:14:12.280025 $PSXN,20,1,0,0,0*3A
2017-11-04:05:14:12.530281 $PSXN,22,0.44,0.82*33
2017-11-04:05:14:12.785139 $PSXN,23,-0.86,1.17,235.67,0.01*18
2017-11-04:05:14:13.040453 $GPZDA,000103.91,07,08,2014,,*64
2017-11-04:05:14:13.294154 $GPGGA,000103.91,3934.956340,S,03727.881505,W,1,10,1.0,-5.77,M,,M,,*6F
2017-11-04:05:14:13.544994 $GPVTG,233.71,T,,M,10.3,N,,K,A*25
2017-11-04:05:14:13.795247 $GPHDT,236.22,T*02
2017-11-04:05:14:14.050528 $PSXN,20,1,0,0,0*3A
2017-11-04:05:14:14.300813 $PSXN,22,0.44,0.82*33
2017-11-04:05:14:14.555455 $PSXN,23,-0.46,2.33,236.22,-0.79*31
2017-11-04:05:14:14.806669 $GPZDA,000104.91,07,08,2014,,*63
2017-11-04:05:14:15.061082 $GPGGA,000104.91,3934.958043,S,03727.884485,W,1,10,1.0,-5.45,M,,M,,*6B
2017-11-04:05:14:15.315464 $GPVTG,232.79,T,,M,10.3,N,,K,A*2C
2017-11-04:05:14:15.567312 $GPHDT,236.37,T*06
2017-11-04:05:14:15.819102 $PSXN,20,1,0,0,0*3A
2017-11-04:05:14:16.070410 $PSXN,22,0.44,0.82*33
2017-11-04:05:14:16.322128 $PSXN,23,-0.39,1.50,236.37,-1.07*33
2017-11-04:05:14:16.573474 $GPZDA,000105.91,07,08,2014,,*62
2017-11-04:05:14:16.824402 $GPGGA,000105.91,3934.959875,S,03727.887415,W,1,10,1.0,-5.97,M,,M,,*63
2017-11-04:05:14:17.076152 $GPVTG,229.26,T,,M,10.5,N,,K,A*2A
2017-11-04:05:14:17.326730 $GPHDT,236.12,T*01
2017-11-04:05:14:17.579448 $PSXN,20,1,0,0,0*3A
2017-11-04:05:14:17.832804 $PSXN,22,0.44,0.82*33
2017-11-04:05:14:18.084501 $PSXN,23,-0.34,-0.76,236.12,-0.53*11
2017-11-04:05:14:18.334738 $GPZDA,000106.91,07,08,2014,,*61
2017-11-04:05:14:18.589549 $GPGGA,000106.91,3934.961866,S,03727.890295,W,1,10,1.0,-6.87,M,,M,,*63
2017-11-04:05:14:18.839793 $GPVTG,227.86,T,,M,10.8,N,,K,A*23
2017-11-04:05:14:19.090558 $GPHDT,236.09,T*0B
2017-11-04:05:14:19.344076 $PSXN,20,1,0,0,0*3A
2017-11-04:05:14:19.599467 $PSXN,22,0.44,0.82*33
2017-11-04:05:14:19.853337 $PSXN,23,-0.32,-2.27,236.09,0.40*34
2017-11-04:05:14:20.104371 $GPZDA,000107.91,07,08,2014,,*60
2017-11-04:05:14:20.359482 $GPGGA,000107.91,3934.963879,S,03727.893221,W,1,10,1.0,-7.41,M,,M,,*69
2017-11-04:05:14:20.609601 $GPVTG,229.36,T,,M,11.0,N,,K,A*2F
2017-11-04:05:14:20.864784 $GPHDT,236.50,T*07
2017-11-04:05:14:21.119779 $PSXN,20,1,0,0,0*3A
2017-11-04:05:14:21.375156 $PSXN,22,0.44,0.82*33
2017-11-04:05:14:21.630420 $PSXN,23,-0.90,-1.61,236.50,0.95*39
2017-11-04:05:14:21.885550 $GPZDA,000108.91,07,08,2014,,*6F
2017-11-04:05:14:22.136841 $GPGGA,000108.91,3934.965776,S,03727.896232,W,1,10,1.0,-7.30,M,,M,,*61
2017-11-04:05:14:22.391327 $GPVTG,231.22,T,,M,11.0,N,,K,A*23
2017-11-04:05:14:22.645521 $GPHDT,236.87,T*0D
2017-11-04:05:14:22.896040 $PSXN,20,1,0,0,0*3A
2017-11-04:05:14:23.151359 $PSXN,22,0.44,0.82*33
2017-11-04:05:14:23.406599 $PSXN,23,-1.75,0.43,236.87,0.72*1C
2017-11-04:05:14:23.661911 $GPZDA,000109.91,07,08,2014,,*6E
2017-11-04:05:14:23.913051 $GPGGA,000109.91,3934.967641,S,03727.899290,W,1,10,1.0,-6.70,M,,M,,*65
2017-11-04:05:14:24.167239 $GPVTG,231.22,T,,M,10.9,N,,K,A*2B
2017-11-04:05:14:24.422514 $GPHDT,236.77,T*02
2017-11-04:05:14:24.677809 $PSXN,20,1,0,0,0*3A
2017-11-04:05:14:24.930332 $PSXN,22,0.44,0.82*33
2017-11-04:05:14:25.182990 $PSXN,23,-1.96,1.93,236.77,0.04*13
2017-11-04:05:14:25.436543 $GPZDA,000110.91,07,08,2014,,*66
2017-11-04:05:14:25.688108 $GPGGA,000110.91,3934.969548,S,03727.902318,W,1,10,1.0,-6.05,M,,M,,*69
2017-11-04:05:14:25.939328 $GPVTG,230.30,T,,M,10.6,N,,K,A*26
2017-11-04:05:14:26.189779 $GPHDT,236.46,T*00
2017-11-04:05:14:26.443123 $PSXN,20,1,0,0,0*3A
2017-11-04:05:14:26.698005 $PSXN,22,0.44,0.82*33
2017-11-04:05:14:26.953304 $PSXN,23,-1.60,2.11,236.46,-0.55*38
2017-11-04:05:14:27.208614 $GPZDA,000111.90,07,08,2014,,*66
2017-11-04:05:14:27.463820 $GPGGA,000111.90,3934.971439,S,03727.905233,W,1,10,1.0,-5.83,M,,M,,*65
2017-11-04:05:14:27.716513 $GPVTG,229.77,T,,M,10.4,N,,K,A*2F
2017-11-04:05:14:27.969128 $GPHDT,236.39,T*08
2017-11-04:05:14:28.224473 $PSXN,20,1,0,0,0*3A
2017-11-04:05:14:28.479777 $PSXN,22,0.44,0.82*33
2017-11-04:05:14:28.735098 $PSXN,23,-1.45,1.32,236.39,-0.73*31
2017-11-04:05:14:28.990386 $GPZDA,000112.91,07,08,2014,,*64
2017-11-04:05:14:29.245654 $GPGGA,000112.91,3934.973312,S,03727.908096,W,1,10,1.0,-6.02,M,,M,,*61
2017-11-04:05:14:29.500886 $GPVTG,230.16,T,,M,10.4,N,,K,A*20
2017-11-04:05:14:29.751142 $GPHDT,236.58,T*0F
2017-11-04:05:14:30.006419 $PSXN,20,1,0,0,0*3A
2017-11-04:05:14:30.261698 $PSXN,22,0.44,0.82*33
2017-11-04:05:14:30.516862 $PSXN,23,-1.79,0.05,236.58,-0.50*3D
2017-11-04:05:14:30.766969 $GPZDA,000113.91,07,08,2014,,*65
2017-11-04:05:14:31.022035 $GPGGA,000113.91,3934.975191,S,03727.910988,W,1,10,1.0,-6.41,M,,M,,*67
2017-11-04:05:14:31.277225 $GPVTG,230.34,T,,M,10.6,N,,K,A*22
2017-11-04:05:14:31.532446 $GPHDT,236.67,T*03
2017-11-04:05:14:31.786305 $PSXN,20,1,0,0,0*3A
2017-11-04:05:14:32.037820 $PSXN,22,0.44,0.82*33
2017-11-04:05:14:32.293144 $PSXN,23,-2.11,-1.18,236.67,-0.08*11
2017-11-04:05:14:32.548457 $GPZDA,000114.90,07,08,2014,,*63
2017-11-04:05:14:32.803087 $GPGGA,000114.90,3934.977110,S,03727.913969,W,1,10,1.0,-6.76,M,,M,,*62
2017-11-04:05:14:33.058299 $GPVTG,230.53,T,,M,10.9,N,,K,A*2C
2017-11-04:05:14:33.309174 $GPHDT,236.56,T*01
2017-11-04:05:14:33.564450 $PSXN,20,1,0,0,0*3A
2017-11-04:05:14:33.819793 $PSXN,22,0.44,0.82*33
2017-11-04:05:14:34.070371 $PSXN,23,-1.93,-1.71,236.56,0.30*33
2017-11-04:05:14:34.324830 $GPZDA,000115.91,07,08,2014,,*63
2017-11-04:05:14:34.577180 $GPGGA,000115.91,3934.979051,S,03727.917073,W,1,10,1.0,-6.91,M,,M,,*67
2017-11-04:05:14:34.828352 $GPVTG,231.71,T,,M,11.2,N,,K,A*27
2017-11-04:05:14:35.079423 $GPHDT,236.48,T*0E
2017-11-04:05:14:35.334728 $PSXN,20,1,0,0,0*3A
2017-11-04:05:14:35.590009 $PSXN,22,0.44,0.82*33
2017-11-04:05:14:35.845282 $PSXN,23,-1.57,-1.19,236.48,0.47*3A
2017-11-04:05:14:36.100621 $GPZDA,000116.91,07,08,2014,,*60
2017-11-04:05:14:36.355979 $GPGGA,000116.91,3934.980974,S,03727.920258,W,1,10,1.0,-6.85,M,,M,,*66
2017-11-04:05:14:36.607647 $GPVTG,232.12,T,,M,11.2,N,,K,A*21
2017-11-04:05:14:36.861322 $GPHDT,236.48,T*0E
2017-11-04:05:14:37.116672 $PSXN,20,1,0,0,0*3A
2017-11-04:05:14:37.367259 $PSXN,22,0.44,0.82*33
2017-11-04:05:14:37.619630 $PSXN,23,-1.37,0.25,236.48,0.40*18
2017-11-04:05:14:37.871120 $GPZDA,000117.90,07,08,2014,,*60
2017-11-04:05:14:38.126542 $GPGGA,000117.90,3934.982878,S,03727.923381,W,1,10,1.0,-6.55,M,,M,,*62
2017-11-04:05:14:38.381887 $GPVTG,231.06,T,,M,11.0,N,,K,A*25
2017-11-04:05:14:38.636552 $GPHDT,236.25,T*05
2017-11-04:05:14:38.890878 $PSXN,20,1,0,0,0*3A
2017-11-04:05:14:39.142331 $PSXN,22,0.44,0.82*33
2017-11-04:05:14:39.396451 $PSXN,23,-1.24,1.99,236.25,0.09*1A
2017-11-04:05:14:39.647307 $GPZDA,000118.91,07,08,2014,,*6E
2017-11-04:05:14:39.902624 $GPGGA,000118.91,3934.984804,S,03727.926376,W,1,10,1.0,-6.25,M,,M,,*6B
2017-11-04:05:14:40.158056 $GPVTG,229.54,T,,M,10.8,N,,K,A*22
2017-11-04:05:14:40.413837 $GPHDT,235.95,T*0D
2017-11-04:05:14:40.665857 $PSXN,20,1,0,0,0*3A
2017-11-04:05:14:40.918971 $PSXN,22,0.44,0.82*33
2017-11-04:05:14:41.172709 $PSXN,23,-1.13,2.48,235.95,-0.21*3E
2017-11-04:05:14:41.423217 $GPZDA,000119.91,07,08,2014,,*6F
2017-11-04:05:14:41.673740 $GPGGA,000119.91,3934.986781,S,03727.929305,W,1,10,1.0,-6.32,M,,M,,*67
2017-11-04:05:14:41.929181 $GPVTG,228.39,T,,M,10.8,N,,K,A*28
2017-11-04:05:14:42.184215 $GPHDT,235.90,T*08
2017-11-04:05:14:42.439190 $PSXN,20,1,0,0,0*3A
2017-11-04:05:14:42.689645 $PSXN,22,0.44,0.82*33
2017-11-04:05:14:42.944951 $PSXN,23,-1.22,0.84,235.90,-0.13*3A
2017-11-04:05:14:43.200315 $GPZDA,000120.91,07,08,2014,,*65
2017-11-04:05:14:43.455280 $GPGGA,000120.91,3934.988791,S,03727.932222,W,1,10,1.0,-6.60,M,,M,,*6B
2017-11-04:05:14:43.705997 $GPVTG,228.83,T,,M,10.8,N,,K,A*29
2017-11-04:05:14:43.960469 $GPHDT,236.12,T*01
2017-11-04:05:14:44.215327 $PSXN,20,1,0,0,0*3A
2017-11-04:05:14:44.466850 $PSXN,22,0.44,0.82*33
2017-11-04:05:14:44.719939 $PSXN,23,-1.52,-1.34,236.12,0.17*3A
2017-11-04:05:14:44.970286 $GPZDA,000121.91,07,08,2014,,*64
2017-11-04:05:14:45.224435 $GPGGA,000121.91,3934.990755,S,03727.935158,W,1,10,1.0,-6.66,M,,M,,*64
2017-11-04:05:14:45.475247 $GPVTG,229.84,T,,M,10.8,N,,K,A*2F
2017-11-04:05:14:45.730646 $GPHDT,236.36,T*07
2017-11-04:05:14:45.982086 $PSXN,20,1,0,0,0*3A
2017-11-04:05:14:46.235665 $PSXN,22,0.44,0.82*33
2017-11-04:05:14:46.490975 $PSXN,23,-1.68,-1.54,236.36,0.25*32
2017-11-04:05:14:46.746301 $GPZDA,000122.91,07,08,2014,,*67
2017-11-04:05:14:47.001615 $GPGGA,000122.91,3934.992641,S,03727.938082,W,1,10,1.0,-6.33,M,,M,,*6A
2017-11-04:05:14:47.256932 $GPVTG,230.56,T,,M,10.7,N,,K,A*27
2017-11-04:05:14:47.512225 $GPHDT,236.51,T*06
2017-11-04:05:14:47.766056 $PSXN,20,1,0,0,0*3A
2017-11-04:05:14:48.017633 $PSXN,22,0.44,0.82*33
2017-11-04:05:14:48.272899 $PSXN,23,-1.51,0.42,236.51,-0.08*30
2017-11-04:05:14:48.527384 $GPZDA,000123.91,07,08,2014,,*66
2017-11-04:05:14:48.778071 $GPGGA,000123.91,3934.994489,S,03727.941018,W,1,10,1.0,-5.79,M,,M,,*6B
2017-11-04:05:14:49.032380 $GPVTG,230.85,T,,M,10.6,N,,K,A*28
2017-11-04:05:14:49.282889 $GPHDT,236.55,T*02
2017-11-04:05:14:49.537045 $PSXN,20,1,0,0,0*3A
2017-11-04:05:14:49.787541 $PSXN,22,0.44,0.82*33
2017-11-04:05:14:50.042598 $PSXN,23,-1.36,2.07,236.55,-0.60*38
2017-11-04:05:14:50.297939 $GPZDA,000124.90,07,08,2014,,*60
2017-11-04:05:14:50.553277 $GPGGA,000124.90,3934.996299,S,03727.943969,W,1,10,1.0,-5.84,M,,M,,*67
2017-11-04:05:14:50.804115 $GPVTG,230.86,T,,M,10.7,N,,K,A*2A
2017-11-04:05:14:51.058693 $GPHDT,236.43,T*05
2017-11-04:05:14:51.313877 $PSXN,20,1,0,0,0*3A
2017-11-04:05:14:51.569284 $PSXN,22,0.44,0.83*32
2017-11-04:05:14:51.821020 $PSXN,23,-1.26,1.37,236.43,-0.68*36
2017-11-04:05:14:52.074440 $GPZDA,000125.90,07,08,2014,,*61
2017-11-04:05:14:52.330146 $GPGGA,000125.90,3934.998181,S,03727.946960,W,1,10,1.0,-6.56,M,,M,,*62
2017-11-04:05:14:52.582207 $GPVTG,230.06,T,,M,10.8,N,,K,A*2D
2017-11-04:05:14:52.835181 $GPHDT,236.19,T*0A
2017-11-04:05:14:53.090438 $PSXN,20,1,0,0,0*3A
2017-11-04:05:14:53.345847 $PSXN,22,0.44,0.83*32
2017-11-04:05:14:53.599151 $PSXN,23,-1.16,-0.70,236.19,-0.04*1F
2017-11-04:05:14:53.851052 $GPZDA,000126.90,07,08,2014,,*62
2017-11-04:05:14:54.106494 $GPGGA,000126.90,3935.000188,S,03727.949969,W,1,10,1.0,-7.42,M,,M,,*63
2017-11-04:05:14:54.361592 $GPVTG,228.82,T,,M,11.0,N,,K,A*21
2017-11-04:05:14:54.616770 $GPHDT,235.93,T*0B
2017-11-04:05:14:54.871829 $PSXN,20,1,0,0,0*3A
2017-11-04:05:14:55.121994 $PSXN,22,0.44,0.83*32
2017-11-04:05:14:55.376901 $PSXN,23,-1.24,-1.90,235.93,0.88*39
2017-11-04:05:14:55.628118 $GPZDA,000127.90,07,08,2014,,*63
2017-11-04:05:14:55.882500 $GPGGA,000127.90,3935.002267,S,03727.952957,W,1,10,1.0,-7.76,M,,M,,*62
2017-11-04:05:14:56.138655 $GPVTG,228.09,T,,M,11.2,N,,K,A*20
2017-11-04:05:14:56.393169 $GPHDT,235.82,T*0B
2017-11-04:05:14:56.648504 $PSXN,20,1,0,0,0*3A
2017-11-04:05:14:56.903833 $PSXN,22,0.44,0.83*32
2017-11-04:05:14:57.159277 $PSXN,23,-1.35,-1.09,235.82,1.24*3E
2017-11-04:05:14:57.414603 $GPZDA,000128.90,07,08,2014,,*6C
2017-11-04:05:14:57.669942 $GPGGA,000128.90,3935.004327,S,03727.955953,W,1,10,1.0,-7.13,M,,M,,*6E
2017-11-04:05:14:57.920774 $GPVTG,229.60,T,,M,11.1,N,,K,A*2D
2017-11-04:05:14:58.174252 $GPHDT,236.02,T*00
2017-11-04:05:14:58.429257 $PSXN,20,1,0,0,0*3A
2017-11-04:05:14:58.684697 $PSXN,22,0.44,0.83*32
2017-11-04:05:14:58.939560 $PSXN,23,-1.32,0.84,236.02,0.65*1F
2017-11-04:05:14:59.191139 $GPZDA,000129.90,07,08,2014,,*6D
2017-11-04:05:14:59.446185 $GPGGA,000129.90,3935.006236,S,03727.959028,W,1,10,1.0,-6.00,M,,M,,*66
2017-11-04:05:14:59.701526 $GPVTG,232.77,T,,M,10.9,N,,K,A*28
2017-11-04:05:14:59.956340 $GPHDT,236.43,T*05
2017-11-04:05:15:00.206854 $PSXN,20,1,0,0,0*3A
2017-11-04:05:15:00.462193 $PSXN,22,0.44,0.83*32
2017-11-04:05:15:00.718287 $PSXN,23,-1.23,2.13,236.43,-0.45*39
2017-11-04:05:15:00.973006 $GPZDA,000130.90,07,08,2014,,*65
2017-11-04:05:15:01.227920 $GPGGA,000130.90,3935.007966,S,03727.962125,W,1,10,1.0,-5.33,M,,M,,*66
2017-11-04:05:15:01.478064 $GPVTG,234.16,T,,M,10.6,N,,K,A*26
2017-11-04:05:15:01.733401 $GPHDT,236.74,T*01
2017-11-04:05:15:01.987806 $PSXN,20,1,0,0,0*3A
2017-11-04:05:15:02.238003 $PSXN,22,0.44,0.83*32
2017-11-04:05:15:02.488148 $PSXN,23,-1.23,1.96,236.74,-1.21*30
2017-11-04:05:15:02.742978 $GPZDA,000131.90,07,08,2014,,*64
2017-11-04:05:15:02.997283 $GPGGA,000131.90,3935.009685,S,03727.965181,W,1,10,1.0,-5.49,M,,M,,*6F
2017-11-04:05:15:03.247390 $GPVTG,232.65,T,,M,10.5,N,,K,A*27
2017-11-04:05:15:03.497644 $GPHDT,236.64,T*00
2017-11-04:05:15:03.752964 $PSXN,20,1,0,0,0*3A
2017-11-04:05:15:04.008331 $PSXN,22,0.44,0.83*32
2017-11-04:05:15:04.263628 $PSXN,23,-1.22,0.80,236.64,-1.12*36
2017-11-04:05:15:04.518951 $GPZDA,000132.90,07,08,2014,,*67
2017-11-04:05:15:04.774284 $GPGGA,000132.90,3935.011505,S,03727.968124,W,1,10,1.0,-6.36,M,,M,,*67
2017-11-04:05:15:05.029368 $GPVTG,229.46,T,,M,10.6,N,,K,A*2F
2017-11-04:05:15:05.279925 $GPHDT,236.20,T*00
2017-11-04:05:15:05.535256 $PSXN,20,1,0,0,0*3A
2017-11-04:05:15:05.790143 $PSXN,22,0.44,0.83*32
2017-11-04:05:15:06.045489 $PSXN,23,-1.14,-0.49,236.20,-0.30*1A
2017-11-04:05:15:06.300823 $GPZDA,000133.90,07,08,2014,,*66
2017-11-04:05:15:06.556172 $GPGGA,000133.90,3935.013472,S,03727.971004,W,1,10,1.0,-7.36,M,,M,,*6F
2017-11-04:05:15:06.808160 $GPVTG,227.66,T,,M,10.9,N,,K,A*2C
2017-11-04:05:15:07.061869 $GPHDT,235.87,T*0E
2017-11-04:05:15:07.317193 $PSXN,20,1,0,0,0*3A
2017-11-04:05:15:07.572068 $PSXN,22,0.44,0.83*32
2017-11-04:05:15:07.827124 $PSXN,23,-1.17,-1.39,235.87,0.65*3C
2017-11-04:05:15:08.077373 $GPZDA,000134.90,07,08,2014,,*61
2017-11-04:05:15:08.332686 $GPGGA,000134.90,3935.015547,S,03727.973960,W,1,10,1.0,-7.93,M,,M,,*6F
2017-11-04:05:15:08.587490 $GPVTG,228.04,T,,M,11.4,N,,K,A*2B
2017-11-04:05:15:08.837921 $GPHDT,236.00,T*02
2017-11-04:05:15:09.088092 $PSXN,20,1,0,0,0*3A
2017-11-04:05:15:09.342499 $PSXN,22,0.44,0.83*32
2017-11-04:05:15:09.597946 $PSXN,23,-1.54,-1.72,236.00,1.20*38
2017-11-04:05:15:09.853092 $GPZDA,000135.90,07,08,2014,,*60
2017-11-04:05:15:10.108821 $GPGGA,000135.90,3935.017637,S,03727.977047,W,1,10,1.0,-7.84,M,,M,,*66
2017-11-04:05:15:10.364168 $GPVTG,229.63,T,,M,11.5,N,,K,A*2A
2017-11-04:05:15:10.619575 $GPHDT,236.29,T*09
2017-11-04:05:15:10.874886 $PSXN,20,1,0,0,0*3A
2017-11-04:05:15:11.130196 $PSXN,22,0.44,0.83*32
2017-11-04:05:15:11.386033 $PSXN,23,-1.90,-0.98,236.29,1.10*3D
2017-11-04:05:15:11.636582 $GPZDA,000136.90,07,08,2014,,*63
2017-11-04:05:15:11.890893 $GPGGA,000136.90,3935.019681,S,03727.980211,W,1,10,1.0,-7.05,M,,M,,*66
2017-11-04:05:15:12.146230 $GPVTG,231.17,T,,M,11.3,N,,K,A*26
2017-11-04:05:15:12.401562 $GPHDT,236.51,T*06
2017-11-04:05:15:12.656957 $PSXN,20,1,0,0,0*3A
2017-11-04:05:15:12.911548 $PSXN,22,0.44,0.83*32
2017-11-04:05:15:13.162271 $PSXN,23,-1.94,1.07,236.51,0.42*1A
2017-11-04:05:15:13.417611 $GPZDA,000137.90,07,08,2014,,*62
2017-11-04:05:15:13.672338 $GPGGA,000137.90,3935.021598,S,03727.983305,W,1,10,1.0,-6.06,M,,M,,*62
2017-11-04:05:15:13.927235 $GPVTG,231.61,T,,M,10.8,N,,K,A*2D
2017-11-04:05:15:14.182556 $GPHDT,236.59,T*0E
2017-11-04:05:15:14.436783 $PSXN,20,1,0,0,0*3A
2017-11-04:05:15:14.687745 $PSXN,22,0.44,0.83*32
2017-11-04:05:15:14.938269 $PSXN,23,-1.81,3.03,236.59,-0.50*3E
2017-11-04:05:15:15.192539 $GPZDA,000138.90,07,08,2014,,*6D
2017-11-04:05:15:15.447872 $GPGGA,000138.90,3935.023442,S,03727.986271,W,1,10,1.0,-5.40,M,,M,,*6F
2017-11-04:05:15:15.703222 $GPVTG,230.90,T,,M,10.4,N,,K,A*2E
2017-11-04:05:15:15.953393 $GPHDT,236.50,T*07
2017-11-04:05:15:16.208495 $PSXN,20,1,0,0,0*3A
2017-11-04:05:15:16.463813 $PSXN,22,0.44,0.83*32
2017-11-04:05:15:16.719119 $PSXN,23,-1.63,3.22,236.50,-1.10*3D
2017-11-04:05:15:16.974458 $GPZDA,000139.90,07,08,2014,,*6C
2017-11-04:05:15:17.229770 $GPGGA,000139.90,3935.025301,S,03727.989143,W,1,10,1.0,-5.49,M,,M,,*6C
2017-11-04:05:15:17.485119 $GPVTG,229.59,T,,M,10.3,N,,K,A*24
2017-11-04:05:15:17.735316 $GPHDT,236.34,T*05
2017-11-04:05:15:17.990411 $PSXN,20,1,0,0,0*3A
2017-11-04:05:15:18.245813 $PSXN,22,0.44,0.83*32
2017-11-04:05:15:18.497371 $PSXN,23,-1.60,1.13,236.34,-0.96*33
2017-11-04:05:15:18.750730 $GPZDA,000140.90,07,08,2014,,*62
2017-11-04:05:15:19.006068 $GPGGA,000140.90,3935.027234,S,03727.991996,W,1,10,1.0,-6.29,M,,M,,*6B
2017-11-04:05:15:19.261371 $GPVTG,228.76,T,,M,10.6,N,,K,A*2D
2017-11-04:05:15:19.512355 $GPHDT,236.29,T*09
2017-11-04:05:15:19.766342 $PSXN,20,1,0,0,0*3A
2017-11-04:05:15:20.020402 $PSXN,22,0.44,0.83*32
2017-11-04:05:15:20.271511 $PSXN,23,-1.72,-2.03,236.29,-0.12*1F
2017-11-04:05:15:20.526760 $GPZDA,000141.90,07,08,2014,,*63
2017-11-04:05:15:20.780654 $GPGGA,000141.90,3935.029214,S,03727.994950,W,1,10,1.0,-7.38,M,,M,,*68
2017-11-04:05:15:21.031890 $GPVTG,229.37,T,,M,11.1,N,,K,A*2F
2017-11-04:05:15:21.287045 $GPHDT,236.33,T*02
2017-11-04:05:15:21.537777 $PSXN,20,1,0,0,0*3A
2017-11-04:05:15:21.792780 $PSXN,22,0.44,0.83*32
2017-11-04:05:15:22.043457 $PSXN,23,-1.70,-3.78,236.33,0.89*34
2017-11-04:05:15:22.298140 $GPZDA,000142.90,07,08,2014,,*60
2017-11-04:05:15:22.552998 $GPGGA,000142.90,3935.031214,S,03727.998047,W,1,10,1.0,-7.94,M,,M,,*67
2017-11-04:05:15:22.808200 $GPVTG,230.85,T,,M,11.4,N,,K,A*2B
2017-11-04:05:15:23.063229 $GPHDT,236.46,T*00
2017-11-04:05:15:23.313452 $PSXN,20,1,0,0,0*3A
2017-11-04:05:15:23.569120 $PSXN,22,0.44,0.83*32
2017-11-04:05:15:23.824431 $PSXN,23,-1.45,-2.16,236.46,1.35*3F
2017-11-04:05:15:24.079815 $GPZDA,000143.90,07,08,2014,,*61
2017-11-04:05:15:24.335143 $GPGGA,000143.90,3935.033146,S,03728.001201,W,1,10,1.0,-7.39,M,,M,,*61
2017-11-04:05:15:24.590164 $GPVTG,232.84,T,,M,11.0,N,,K,A*2C
2017-11-04:05:15:24.840349 $GPHDT,236.57,T*00
2017-11-04:05:15:25.095356 $PSXN,20,1,0,0,0*3A
2017-11-04:05:15:25.350602 $PSXN,22,0.44,0.83*32
2017-11-04:05:15:25.603913 $PSXN,23,-1.11,1.85,236.57,0.84*11
2017-11-04:05:15:25.855660 $GPZDA,000144.90,07,08,2014,,*66
2017-11-04:05:15:26.106763 $GPGGA,000144.90,3935.034906,S,03728.004278,W,1,10,1.0,-6.09,M,,M,,*64
2017-11-04:05:15:26.360985 $GPVTG,233.75,T,,M,10.4,N,,K,A*26
2017-11-04:05:15:26.615972 $GPHDT,236.55,T*02
2017-11-04:05:15:26.871063 $PSXN,20,1,0,0,0*3A
2017-11-04:05:15:27.126299 $PSXN,22,0.44,0.83*32
2017-11-04:05:15:27.376463 $PSXN,23,-0.82,4.85,236.55,-0.41*39
2017-11-04:05:15:27.631775 $GPZDA,000145.90,07,08,2014,,*67
2017-11-04:05:15:27.887173 $GPGGA,000145.90,3935.036626,S,03728.007234,W,1,10,1.0,-5.05,M,,M,,*6E
2017-11-04:05:15:28.139770 $GPVTG,232.00,T,,M,10.1,N,,K,A*20
2017-11-04:05:15:28.392570 $GPHDT,236.44,T*02
2017-11-04:05:15:28.647868 $PSXN,20,1,0,0,0*3A
2017-11-04:05:15:28.902899 $PSXN,22,0.44,0.83*32
2017-11-04:05:15:29.158200 $PSXN,23,-0.62,4.03,236.44,-1.39*37
2017-11-04:05:15:29.413529 $GPZDA,000146.90,07,08,2014,,*64
2017-11-04:05:15:29.668578 $GPGGA,000146.90,3935.038446,S,03728.010046,W,1,10,1.0,-5.12,M,,M,,*60
2017-11-04:05:15:29.918953 $GPVTG,228.78,T,,M,10.1,N,,K,A*24
2017-11-04:05:15:30.174237 $GPHDT,236.37,T*06
2017-11-04:05:15:30.429566 $PSXN,20,1,0,0,0*3A
2017-11-04:05:15:30.684887 $PSXN,22,0.44,0.83*32
2017-11-04:05:15:30.935110 $PSXN,23,-0.75,0.08,236.37,-1.26*34
2017-11-04:05:15:31.189820 $GPZDA,000147.90,07,08,2014,,*65
2017-11-04:05:15:31.445124 $GPGGA,000147.90,3935.040411,S,03728.012831,W,1,10,1.0,-6.18,M,,M,,*6F
2017-11-04:05:15:31.700579 $GPVTG,227.55,T,,M,10.5,N,,K,A*20
2017-11-04:05:15:31.955391 $GPHDT,236.53,T*04
2017-11-04:05:15:32.205521 $PSXN,20,1,0,0,0*3A
2017-11-04:05:15:32.460414 $PSXN,22,0.44,0.83*32
2017-11-04:05:15:32.710967 $PSXN,23,-1.10,-3.54,236.53,-0.15*12
2017-11-04:05:15:32.965323 $GPZDA,000148.90,07,08,2014,,*6A
2017-11-04:05:15:33.220253 $GPGGA,000148.90,3935.042400,S,03728.015683,W,1,10,1.0,-7.30,M,,M,,*69
2017-11-04:05:15:33.471220 $GPVTG,229.37,T,,M,10.8,N,,K,A*27
2017-11-04:05:15:33.726477 $GPHDT,236.88,T*02
2017-11-04:05:15:33.981794 $PSXN,20,1,0,0,0*3A
2017-11-04:05:15:34.237166 $PSXN,22,0.44,0.83*32
2017-11-04:05:15:34.492460 $PSXN,23,-1.28,-3.52,236.88,1.00*31
2017-11-04:05:15:34.747783 $GPZDA,000149.90,07,08,2014,,*6B
2017-11-04:05:15:35.003113 $GPGGA,000149.90,3935.044301,S,03728.018659,W,1,10,1.0,-7.52,M,,M,,*66
2017-11-04:05:15:35.258447 $GPVTG,232.01,T,,M,10.9,N,,K,A*29
2017-11-04:05:15:35.513867 $GPHDT,237.28,T*09
2017-11-04:05:15:35.768944 $PSXN,20,1,0,0,0*3A
2017-11-04:05:15:36.019511 $PSXN,22,0.44,0.83*32
2017-11-04:05:15:36.274632 $PSXN,23,-1.14,-0.19,237.28,1.22*39
2017-11-04:05:15:36.529949 $GPZDA,000150.90,07,08,2014,,*63
2017-11-04:05:15:36.784972 $GPGGA,000150.90,3935.046077,S,03728.021698,W,1,10,1.0,-6.64,M,,M,,*6D
2017-11-04:05:15:37.035104 $GPVTG,233.26,T,,M,10.6,N,,K,A*22
2017-11-04:05:15:37.290106 $GPHDT,237.52,T*04
2017-11-04:05:15:37.545035 $PSXN,20,1,0,0,0*3A
2017-11-04:05:15:37.795272 $PSXN,22,0.44,0.83*32
2017-11-04:05:15:38.050241 $PSXN,23,-0.78,3.21,237.52,0.36*1E
2017-11-04:05:15:38.304150 $GPZDA,000151.90,07,08,2014,,*62
2017-11-04:05:15:38.555333 $GPGGA,000151.90,3935.047798,S,03728.024681,W,1,10,1.0,-5.57,M,,M,,*65
2017-11-04:05:15:38.806677 $GPVTG,232.57,T,,M,10.2,N,,K,A*21
2017-11-04:05:15:39.059582 $GPHDT,237.39,T*09
2017-11-04:05:15:39.309995 $PSXN,20,1,0,0,0*3A
2017-11-04:05:15:39.565015 $PSXN,22,0.44,0.83*32
2017-11-04:05:15:39.820268 $PSXN,23,-0.40,3.80,237.39,-0.69*34
2017-11-04:05:15:40.075605 $GPZDA,000152.90,07,08,2014,,*61
2017-11-04:05:15:40.330949 $GPGGA,000152.90,3935.049540,S,03728.027536,W,1,10,1.0,-5.21,M,,M,,*62
2017-11-04:05:15:40.586554 $GPVTG,230.95,T,,M,9.9,N,,K,A*1E
2017-11-04:05:15:40.841447 $GPHDT,236.88,T*02
2017-11-04:05:15:41.096831 $PSXN,20,1,0,0,0*3A
2017-11-04:05:15:41.346914 $PSXN,22,0.44,0.83*32
2017-11-04:05:15:41.602153 $PSXN,23,-0.04,1.77,236.88,-1.02*39
2017-11-04:05:15:41.857467 $GPZDA,000153.90,07,08,2014,,*60
2017-11-04:05:15:42.112814 $GPGGA,000153.90,3935.051294,S,03728.030279,W,1,10,1.0,-5.67,M,,M,,*6C
2017-11-04:05:15:42.366708 $GPVTG,230.11,T,,M,9.8,N,,K,A*13
2017-11-04:05:15:42.617744 $GPHDT,236.40,T*06
2017-11-04:05:15:42.868050 $PSXN,20,1,0,0,0*3A
2017-11-04:05:15:43.120028 $PSXN,22,0.44,0.83*32
2017-11-04:05:15:43.372840 $PSXN,23,0.14,-0.55,236.40,-0.52*39
2017-11-04:05:15:43.628198 $GPZDA,000154.90,07,08,2014,,*67
2017-11-04:05:15:43.883083 $GPGGA,000154.90,3935.053074,S,03728.033014,W,1,10,1.0,-6.56,M,,M,,*6E
2017-11-04:05:15:44.136942 $GPVTG,230.51,T,,M,10.1,N,,K,A*26
2017-11-04:05:15:44.387141 $GPHDT,236.21,T*01
2017-11-04:05:15:44.642487 $PSXN,20,1,0,0,0*3A
2017-11-04:05:15:44.893264 $PSXN,22,0.44,0.83*32
2017-11-04:05:15:45.146858 $PSXN,23,-0.09,-1.81,236.21,0.36*38
2017-11-04:05:15:45.398624 $GPZDA,000155.90,07,08,2014,,*66
2017-11-04:05:15:45.653938 $GPGGA,000155.90,3935.054916,S,03728.035914,W,1,09,1.1,-7.13,M,,M,,*63
2017-11-04:05:15:45.909225 $GPVTG,231.36,T,,M,10.6,N,,K,A*21
2017-11-04:05:15:46.164119 $GPHDT,236.31,T*00
2017-11-04:05:15:46.419430 $PSXN,20,1,0,0,0*3A
2017-11-04:05:15:46.675196 $PSXN,22,0.44,0.83*32
2017-11-04:05:15:46.931017 $PSXN,23,-0.60,-2.00,236.31,1.04*3C
2017-11-04:05:15:47.186318 $GPZDA,000156.90,07,08,2014,,*65
2017-11-04:05:15:47.440768 $GPGGA,000156.90,3935.056811,S,03728.039004,W,1,09,1.1,-7.19,M,,M,,*6A
2017-11-04:05:15:47.696158 $GPVTG,232.07,T,,M,11.2,N,,K,A*25
2017-11-04:05:15:47.951516 $GPHDT,236.54,T*03
2017-11-04:05:15:48.202064 $PSXN,20,1,0,0,0*3A
2017-11-04:05:15:48.456950 $PSXN,22,0.44,0.83*32
2017-11-04:05:15:48.712354 $PSXN,23,-1.02,-1.57,236.54,1.17*39
2017-11-04:05:15:48.967667 $GPZDA,000157.90,07,08,2014,,*64
2017-11-04:05:15:49.220134 $GPGGA,000157.90,3935.058722,S,03728.042155,W,1,10,1.0,-6.72,M,,M,,*66
2017-11-04:05:15:49.472891 $GPVTG,231.74,T,,M,11.2,N,,K,A*22
2017-11-04:05:15:49.728059 $GPHDT,236.62,T*06
2017-11-04:05:15:49.983388 $PSXN,20,1,0,0,0*3A
2017-11-04:05:15:50.236993 $PSXN,22,0.44,0.83*32
2017-11-04:05:15:50.488384 $PSXN,23,-1.21,-0.24,236.62,0.68*31
2017-11-04:05:15:50.738781 $GPZDA,000158.90,07,08,2014,,*6B
2017-11-04:05:15:50.989258 $GPGGA,000158.90,3935.060591,S,03728.045237,W,1,09,1.1,-5.99,M,,M,,*67
2017-11-04:05:15:51.243029 $GPVTG,230.95,T,,M,10.9,N,,K,A*26
2017-11-04:05:15:51.493352 $GPHDT,236.49,T*0F
2017-11-04:05:15:51.748784 $PSXN,20,1,0,0,0*3A
2017-11-04:05:15:52.004128 $PSXN,22,0.44,0.83*32
2017-11-04:05:15:52.259568 $PSXN,23,-1.28,1.90,236.49,-0.20*33
2017-11-04:05:15:52.514850 $GPZDA,000159.90,07,08,2014,,*6A
2017-11-04:05:15:52.770162 $GPGGA,000159.90,3935.062402,S,03728.048175,W,1,09,1.1,-5.36,M,,M,,*62
2017-11-04:05:15:53.025403 $GPVTG,231.01,T,,M,10.4,N,,K,A*27
2017-11-04:05:15:53.280729 $GPHDT,236.24,T*04
2017-11-04:05:15:53.535779 $PSXN,20,1,0,0,0*3A
2017-11-04:05:15:53.786369 $PSXN,22,0.44,0.83*32
2017-11-04:05:15:54.041424 $PSXN,23,-1.30,3.53,236.24,-0.96*31
2017-11-04:05:15:54.296746 $GPZDA,000200.90,07,08,2014,,*65
2017-11-04:05:15:54.552181 $GPGGA,000200.90,3935.064179,S,03728.051026,W,1,10,1.0,-5.07,M,,M,,*66
2017-11-04:05:15:54.807509 $GPVTG,231.70,T,,M,10.0,N,,K,A*25
2017-11-04:05:15:55.057942 $GPHDT,235.98,T*00
2017-11-04:05:15:55.312943 $PSXN,20,1,0,0,0*3A
2017-11-04:05:15:55.568118 $PSXN,22,0.44,0.83*32
2017-11-04:05:15:55.823190 $PSXN,23,-1.36,3.08,235.98,-1.21*30
2017-11-04:05:15:56.078462 $GPZDA,000201.90,07,08,2014,,*64
2017-11-04:05:15:56.333903 $GPGGA,000201.90,3935.065915,S,03728.053813,W,1,10,1.0,-5.46,M,,M,,*6D
2017-11-04:05:15:56.589140 $GPVTG,231.32,T,,M,9.9,N,,K,A*12
2017-11-04:05:15:56.844119 $GPHDT,235.83,T*0A
2017-11-04:05:15:57.098712 $PSXN,20,1,0,0,0*3A
2017-11-04:05:15:57.353607 $PSXN,22,0.44,0.83*32
2017-11-04:05:15:57.604448 $PSXN,23,-1.51,0.51,235.83,-0.78*39
2017-11-04:05:15:57.854848 $GPZDA,000202.90,07,08,2014,,*67
2017-11-04:05:15:58.109741 $GPGGA,000202.90,3935.067709,S,03728.056594,W,1,10,1.0,-6.28,M,,M,,*63
2017-11-04:05:15:58.365010 $GPVTG,230.12,T,,M,10.2,N,,K,A*22
2017-11-04:05:15:58.620227 $GPHDT,235.81,T*08
2017-11-04:05:15:58.870643 $PSXN,20,1,0,0,0*3A
2017-11-04:05:15:59.122526 $PSXN,22,0.44,0.83*32
2017-11-04:05:15:59.372780 $PSXN,23,-1.71,-2.36,235.81,0.08*3D
2017-11-04:05:15:59.625215 $GPZDA,000203.90,07,08,2014,,*66
2017-11-04:05:15:59.878909 $GPGGA,000203.90,3935.069653,S,03728.059496,W,1,10,1.0,-7.07,M,,M,,*62
2017-11-04:05:16:00.130056 $GPVTG,229.69,T,,M,10.8,N,,K,A*2C
2017-11-04:05:16:00.380257 $GPHDT,235.80,T*09
2017-11-04:05:16:00.634756 $PSXN,20,1,0,0,0*3A
2017-11-04:05:16:00.889737 $PSXN,22,0.44,0.83*32
2017-11-04:05:16:01.140224 $PSXN,23,-1.78,-3.43,235.80,0.96*31
2017-11-04:05:16:01.394673 $GPZDA,000204.90,07,08,2014,,*61
2017-11-04:05:16:01.648327 $GPGGA,000204.90,3935.071679,S,03728.062513,W,1,10,1.0,-7.44,M,,M,,*67
2017-11-04:05:16:01.902119 $GPVTG,229.50,T,,M,11.3,N,,K,A*2C
2017-11-04:05:16:02.154689 $GPHDT,235.73,T*05
2017-11-04:05:16:02.405017 $PSXN,20,1,0,0,0*3A
2017-11-04:05:16:02.655640 $PSXN,22,0.44,0.83*32
2017-11-04:05:16:02.909014 $PSXN,23,-1.66,-1.96,235.73,1.38*3D
2017-11-04:05:16:03.159138 $GPZDA,000205.90,07,08,2014,,*60
2017-11-04:05:16:03.409784 $GPGGA,000205.90,3935.073693,S,03728.065560,W,1,10,1.0,-7.19,M,,M,,*6B
2017-11-04:05:16:03.664162 $GPVTG,229.19,T,,M,11.2,N,,K,A*20
2017-11-04:05:16:03.917121 $GPHDT,235.43,T*06
2017-11-04:05:16:04.169625 $PSXN,20,1,0,0,0*3A
2017-11-04:05:16:04.424503 $PSXN,22,0.44,0.83*32
2017-11-04:05:16:04.678227 $PSXN,23,-1.51,0.97,235.43,1.08*14
2017-11-04:05:16:04.929266 $GPZDA,000206.90,07,08,2014,,*63
2017-11-04:05:16:05.179500 $GPGGA,000206.90,3935.075665,S,03728.068523,W,1,10,1.0,-6.28,M,,M,,*6E
2017-11-04:05:16:05.431961 $GPVTG,229.24,T,,M,10.7,N,,K,A*2A
2017-11-04:05:16:05.684544 $GPHDT,235.10,T*00
2017-11-04:05:16:05.939986 $PSXN,20,1,0,0,0*3A
2017-11-04:05:16:06.195327 $PSXN,22,0.44,0.83*32
2017-11-04:05:16:06.450139 $PSXN,23,-1.26,3.48,235.10,0.14*1F
2017-11-04:05:16:06.700337 $GPZDA,000207.90,07,08,2014,,*62
2017-11-04:05:16:06.954184 $GPGGA,000207.90,3935.077526,S,03728.071358,W,1,10,1.0,-5.25,M,,M,,*65
2017-11-04:05:16:07.207555 $GPVTG,229.82,T,,M,10.1,N,,K,A*20
2017-11-04:05:16:07.459364 $GPHDT,234.91,T*08
2017-11-04:05:16:07.712759 $PSXN,20,1,0,0,0*3A
2017-11-04:05:16:07.964975 $PSXN,22,0.44,0.83*32
2017-11-04:05:16:08.216931 $PSXN,23,-0.90,3.90,234.91,-0.91*3E
2017-11-04:05:16:08.467241 $GPZDA,000208.90,07,08,2014,,*6D
2017-11-04:05:16:08.717495 $GPGGA,000208.90,3935.079312,S,03728.074104,W,1,10,1.0,-4.77,M,,M,,*6D
2017-11-04:05:16:08.968616 $GPVTG,230.22,T,,M,9.8,N,,K,A*13
2017-11-04:05:16:09.219018 $GPHDT,234.94,T*0D
2017-11-04:05:16:09.473658 $PSXN,20,1,0,0,0*3A
2017-11-04:05:16:09.723836 $PSXN,22,0.44,0.83*32
2017-11-04:05:16:09.978894 $PSXN,23,-0.75,1.94,234.94,-1.40*3B
2017-11-04:05:16:10.234231 $GPZDA,000209.90,07,08,2014,,*6C
2017-11-04:05:16:10.484380 $GPGGA,000209.90,3935.081082,S,03728.076874,W,1,10,1.0,-5.23,M,,M,,*6D
2017-11-04:05:16:10.734805 $GPVTG,230.62,T,,M,10.0,N,,K,A*27
2017-11-04:05:16:10.987178 $GPHDT,235.13,T*03
2017-11-04:05:16:11.238714 $PSXN,20,1,0,0,0*3A
2017-11-04:05:16:11.494039 $PSXN,22,0.44,0.83*32
2017-11-04:05:16:11.744532 $PSXN,23,-0.85,-1.33,235.13,-0.92*14
2017-11-04:05:16:11.999308 $GPZDA,000210.90,07,08,2014,,*64
2017-11-04:05:16:12.253889 $GPGGA,000210.90,3935.082866,S,03728.079716,W,1,10,1.0,-6.38,M,,M,,*69
2017-11-04:05:16:12.504167 $GPVTG,230.63,T,,M,10.4,N,,K,A*22
2017-11-04:05:16:12.756594 $GPHDT,235.14,T*04
2017-11-04:05:16:13.007912 $PSXN,20,1,0,0,0*3A
2017-11-04:05:16:13.258618 $PSXN,22,0.44,0.83*32
2017-11-04:05:16:13.509015 $PSXN,23,-0.93,-3.46,235.14,0.10*33
2017-11-04:05:16:13.764152 $GPZDA,000211.90,07,08,2014,,*65
2017-11-04:05:16:14.018966 $GPGGA,000211.90,3935.084731,S,03728.082640,W,1,10,1.0,-7.21,M,,M,,*6C
2017-11-04:05:16:14.269171 $GPVTG,229.56,T,,M,10.8,N,,K,A*20
2017-11-04:05:16:14.523906 $GPHDT,234.83,T*0B
2017-11-04:05:16:14.777788 $PSXN,20,1,0,0,0*3A
2017-11-04:05:16:15.028814 $PSXN,22,0.44,0.83*32
2017-11-04:05:16:15.284561 $PSXN,23,-0.87,-2.56,234.83,0.83*33
2017-11-04:05:16:15.534827 $GPZDA,000212.90,07,08,2014,,*66
2017-11-04:05:16:15.789362 $GPGGA,000212.90,3935.086730,S,03728.085566,W,1,10,1.0,-7.07,M,,M,,*68
2017-11-04:05:16:16.043001 $GPVTG,227.72,T,,M,11.0,N,,K,A*21
2017-11-04:05:16:16.294409 $GPHDT,234.37,T*04
2017-11-04:05:16:16.544761 $PSXN,20,1,0,0,0*3A
2017-11-04:05:16:16.799310 $PSXN,22,0.44,0.83*32
2017-11-04:05:16:17.053870 $PSXN,23,-0.58,0.46,234.37,0.73*1F
2017-11-04:05:16:17.306604 $GPZDA,000213.90,07,08,2014,,*67
2017-11-04:05:16:17.559600 $GPGGA,000213.90,3935.088806,S,03728.088416,W,1,10,1.0,-6.35,M,,M,,*66
2017-11-04:05:16:17.811900 $GPVTG,225.85,T,,M,10.9,N,,K,A*23
2017-11-04:05:16:18.062031 $GPHDT,234.11,T*00
2017-11-04:05:16:18.315787 $PSXN,20,1,0,0,0*3A
2017-11-04:05:16:18.567784 $PSXN,22,0.44,0.82*33
2017-11-04:05:16:18.819271 $PSXN,23,-0.43,2.77,234.11,0.04*11
2017-11-04:05:16:19.074418 $GPZDA,000214.90,07,08,2014,,*60
2017-11-04:05:16:19.329770 $GPGGA,000214.90,3935.090905,S,03728.091208,W,1,10,1.0,-5.81,M,,M,,*67
2017-11-04:05:16:19.585119 $GPVTG,225.97,T,,M,10.7,N,,K,A*2E
2017-11-04:05:16:19.836967 $GPHDT,234.33,T*00
2017-11-04:05:16:20.090406 $PSXN,20,1,0,0,0*3A
2017-11-04:05:16:20.345698 $PSXN,22,0.44,0.82*33
2017-11-04:05:16:20.598554 $PSXN,23,-0.81,2.63,234.33,-0.48*3F
2017-11-04:05:16:20.850614 $GPZDA,000215.90,07,08,2014,,*61
2017-11-04:05:16:21.104423 $GPGGA,000215.90,3935.092943,S,03728.093974,W,1,10,1.0,-5.86,M,,M,,*63
2017-11-04:05:16:21.355681 $GPVTG,227.51,T,,M,10.4,N,,K,A*25
2017-11-04:05:16:21.607385 $GPHDT,234.73,T*04
2017-11-04:05:16:21.857692 $PSXN,20,1,0,0,0*3A
2017-11-04:05:16:22.111188 $PSXN,22,0.44,0.82*33
2017-11-04:05:16:22.364932 $PSXN,23,-1.50,0.83,234.73,-0.42*30
2017-11-04:05:16:22.615143 $GPZDA,000216.90,07,08,2014,,*62
2017-11-04:05:16:22.867712 $GPGGA,000216.90,3935.094878,S,03728.096753,W,1,10,1.0,-6.29,M,,M,,*67
2017-11-04:05:16:23.119977 $GPVTG,228.75,T,,M,10.3,N,,K,A*2B
2017-11-04:05:16:23.373865 $GPHDT,234.85,T*0D
2017-11-04:05:16:23.625222 $PSXN,20,1,0,0,0*3A
2017-11-04:05:16:23.880314 $PSXN,22,0.44,0.82*33
2017-11-04:05:16:24.132189 $PSXN,23,-1.95,-0.71,234.85,0.03*38
2017-11-04:05:16:24.382432 $GPZDA,000217.90,07,08,2014,,*63
2017-11-04:05:16:24.632699 $GPGGA,000217.90,3935.096773,S,03728.099535,W,1,10,1.0,-6.69,M,,M,,*69
2017-11-04:05:16:24.882932 $GPVTG,228.56,T,,M,10.3,N,,K,A*2A
2017-11-04:05:16:25.134122 $GPHDT,234.57,T*02
2017-11-04:05:16:25.388856 $PSXN,20,1,0,0,0*3A
2017-11-04:05:16:25.640673 $PSXN,22,0.44,0.82*33
2017-11-04:05:16:25.890900 $PSXN,23,-1.80,-0.91,234.57,0.43*39
2017-11-04:05:16:26.144945 $GPZDA,000218.90,07,08,2014,,*6C
2017-11-04:05:16:26.400769 $GPGGA,000218.90,3935.098677,S,03728.102310,W,1,10,1.0,-6.67,M,,M,,*61
2017-11-04:05:16:26.651782 $GPVTG,228.41,T,,M,10.4,N,,K,A*2B
2017-11-04:05:16:26.902177 $GPHDT,234.31,T*02
2017-11-04:05:16:27.152812 $PSXN,20,1,0,0,0*3A
2017-11-04:05:16:27.403833 $PSXN,22,0.44,0.82*33
2017-11-04:05:16:27.656828 $PSXN,23,-1.35,-0.02,234.31,0.42*3C
2017-11-04:05:16:27.910482 $GPZDA,000219.90,07,08,2014,,*6D
2017-11-04:05:16:28.161419 $GPGGA,000219.90,3935.100585,S,03728.105106,W,1,10,1.0,-6.20,M,,M,,*6F
2017-11-04:05:16:28.413532 $GPVTG,228.93,T,,M,10.4,N,,K,A*24
2017-11-04:05:16:28.663904 $GPHDT,234.47,T*03
2017-11-04:05:16:28.918580 $PSXN,20,1,0,0,0*3A
2017-11-04:05:16:29.172001 $PSXN,22,0.44,0.82*33
2017-11-04:05:16:29.423080 $PSXN,23,-1.28,0.81,234.47,-0.04*38
2017-11-04:05:16:29.673275 $GPZDA,000220.90,07,08,2014,,*67
2017-11-04:05:16:29.923449 $GPGGA,000220.90,3935.102475,S,03728.107938,W,1,10,1.0,-5.64,M,,M,,*6D
2017-11-04:05:16:30.177815 $GPVTG,229.52,T,,M,10.4,N,,K,A*28
