2014-08-01T00:00:00.124000Z $GPZDA,000000.00,16,12,1994,00,00,*4B
2014-08-01T00:00:00.241000Z $GPGGA,235959.226,2200.1091,S,01756.3580,W,1,06,1.3,033.6,M,-002.6,M,,*4D
2014-08-01T00:00:00.241000Z $GPGLL,2200.1091,S,01756.3580,W,235959.226,A*3E
2014-08-01T00:00:00.241000Z $GPVTG,220.2,T,245.1,M,009.7,N,018.0,K*49
2014-08-01T00:00:00.305000Z $GPRMC,235959.226,A,2200.1091,S,01756.3580,W,009.7,220.2,151294,24.9,W*49
2014-08-01T00:00:01.125000Z $GPZDA,000001.00,16,12,1994,00,00,*4A
2014-08-01T00:00:01.242000Z $GPGGA,000000.226,2200.1111,S,01756.3596,W,1,06,1.3,032.7,M,-002.6,M,,*42
2014-08-01T00:00:01.242000Z $GPGLL,2200.1111,S,01756.3596,W,000000.226,A*31
2014-08-01T00:00:01.242000Z $GPVTG,214.9,T,239.8,M,008.3,N,015.4,K*4B
2014-08-01T00:00:01.306000Z $GPRMC,000000.226,A,2200.1111,S,01756.3596,W,008.3,214.9,161294,24.9,W*4C
2014-08-01T00:00:02.140000Z $GPGGA,000001.226,2200.1129,S,01756.3609,W,1,06,1.3,032.4,M,-002.6,M,,*4E
2014-08-01T00:00:02.256000Z $GPGLL,2200.1129,S,01756.3609,W,000001.226,A*3E
2014-08-01T00:00:02.256000Z $GPVTG,211.3,T,236.2,M,008.0,N,014.8,K*4F
2014-08-01T00:00:02.320000Z $GPRMC,000001.226,A,2200.1129,S,01756.3609,W,008.0,211.3,161294,24.9,W*4F
2014-08-01T00:00:02.320000Z $GPZDA,000002.00,16,12,1994,00,00,*49
2014-08-01T00:00:03.140000Z $GPGGA,000002.226,2200.1149,S,01756.3623,W,1,06,1.3,032.5,M,-002.6,M,,*42
2014-08-01T00:00:03.257000Z $GPGLL,2200.1149,S,01756.3623,W,000002.226,A*33
2014-08-01T00:00:03.257000Z $GPVTG,214.0,T,238.9,M,008.9,N,016.5,K*4A
2014-08-01T00:00:03.321000Z $GPRMC,000002.226,A,2200.1149,S,01756.3623,W,008.9,214.0,161294,24.9,W*4D
2014-08-01T00:00:03.321000Z $GPZDA,000003.00,16,12,1994,00,00,*48
2014-08-01T00:00:04.140000Z $GPGGA,000003.226,2200.1170,S,01756.3639,W,1,06,1.3,033.0,M,-002.6,M,,*46
2014-08-01T00:00:04.257000Z $GPGLL,2200.1170,S,01756.3639,W,000003.226,A*33
2014-08-01T00:00:04.257000Z $GPVTG,218.3,T,243.2,M,010.2,N,018.9,K*42
2014-08-01T00:00:04.321000Z $GPRMC,000003.226,A,2200.1170,S,01756.3639,W,010.2,218.3,161294,24.9,W*40
2014-08-01T00:00:04.321000Z $GPZDA,000004.00,16,12,1994,00,00,*4F
2014-08-01T00:00:05.140000Z $GPGGA,000004.226,2200.1195,S,01756.3659,W,1,06,1.3,033.1,M,-002.6,M,,*4D
2014-08-01T00:00:05.257000Z $GPGLL,2200.1195,S,01756.3659,W,000004.226,A*39
2014-08-01T00:00:05.257000Z $GPVTG,219.6,T,244.5,M,010.5,N,019.5,K*4C
2014-08-01T00:00:05.321000Z $GPRMC,000004.226,A,2200.1195,S,01756.3659,W,010.5,219.6,161294,24.9,W*49
2014-08-01T00:00:05.321000Z $GPZDA,000005.00,16,12,1994,00,00,*4E
2014-08-01T00:00:06.126000Z $GPZDA,000006.00,16,12,1994,00,00,*4D
2014-08-01T00:00:06.242000Z $GPGGA,000005.226,2200.1216,S,01756.3679,W,1,06,1.3,033.4,M,-002.6,M,,*43
2014-08-01T00:00:06.242000Z $GPGLL,2200.1216,S,01756.3679,W,000005.226,A*32
2014-08-01T00:00:06.242000Z $GPVTG,219.6,T,244.4,M,009.8,N,018.1,K*4D
2014-08-01T00:00:06.306000Z $GPRMC,000005.226,A,2200.1216,S,01756.3679,W,009.8,219.6,161294,24.9,W*47
2014-08-01T00:00:07.125000Z $GPZDA,000007.00,16,12,1994,00,00,*4C
2014-08-01T00:00:07.242000Z $GPGGA,000006.226,2200.1236,S,01756.3696,W,1,06,1.3,033.4,M,-002.6,M,,*43
2014-08-01T00:00:07.242000Z $GPGLL,2200.1236,S,01756.3696,W,000006.226,A*32
2014-08-01T00:00:07.242000Z $GPVTG,215.9,T,240.8,M,008.7,N,016.2,K*45
2014-08-01T00:00:07.306000Z $GPRMC,000006.226,A,2200.1236,S,01756.3696,W,008.7,215.9,161294,24.9,W*4A
2014-08-01T00:00:08.140000Z $GPGGA,000007.226,2200.1255,S,01756.3710,W,1,06,1.3,033.5,M,-002.6,M,,*49
2014-08-01T00:00:08.257000Z $GPGLL,2200.1255,S,01756.3710,W,000007.226,A*39
2014-08-01T00:00:08.257000Z $GPVTG,213.8,T,238.7,M,008.2,N,015.2,K*44
2014-08-01T00:00:08.321000Z $GPRMC,000007.226,A,2200.1255,S,01756.3710,W,008.2,213.8,161294,24.9,W*43
2014-08-01T00:00:08.321000Z $GPZDA,000008.00,16,12,1994,00,00,*43
2014-08-01T00:00:09.125000Z $GPZDA,000009.00,16,12,1994,00,00,*42
2014-08-01T00:00:09.242000Z $GPGGA,000008.226,2200.1274,S,01756.3725,W,1,06,1.3,033.9,M,-002.6,M,,*4F
2014-08-01T00:00:09.242000Z $GPGLL,2200.1274,S,01756.3725,W,000008.226,A*33
2014-08-01T00:00:09.242000Z $GPVTG,217.0,T,241.9,M,008.8,N,016.3,K*40
2014-08-01T00:00:09.306000Z $GPRMC,000008.226,A,2200.1274,S,01756.3725,W,008.8,217.0,161294,24.9,W*4F
2014-08-01T00:00:10.140000Z $GPGGA,000009.226,2200.1294,S,01756.3743,W,1,06,1.3,034.2,M,-002.6,M,,*4C
2014-08-01T00:00:10.257000Z $GPGLL,2200.1294,S,01756.3743,W,000009.226,A*3C
2014-08-01T00:00:10.257000Z $GPVTG,222.6,T,247.5,M,010.3,N,019.2,K*46
2014-08-01T00:00:10.321000Z $GPRMC,000009.226,A,2200.1294,S,01756.3743,W,010.3,222.6,161294,24.9,W*42
2014-08-01T00:00:10.321000Z $GPZDA,000010.00,16,12,1994,00,00,*4A
2014-08-01T00:00:11.141000Z $GPGGA,000010.226,2200.1316,S,01756.3766,W,1,06,1.3,034.2,M,-002.6,M,,*48
2014-08-01T00:00:11.257000Z $GPGLL,2200.1316,S,01756.3766,W,000010.226,A*38
2014-08-01T00:00:11.257000Z $GPVTG,225.3,T,250.1,M,011.5,N,021.3,K*4B
2014-08-01T00:00:11.322000Z $GPRMC,000010.226,A,2200.1316,S,01756.3766,W,011.5,225.3,161294,24.9,W*43
2014-08-01T00:00:11.322000Z $GPZDA,000011.00,16,12,1994,00,00,*4B
2014-08-01T00:00:12.125000Z $GPZDA,000012.00,16,12,1994,00,00,*48
2014-08-01T00:00:12.242000Z $GPGGA,000011.226,2200.1338,S,01756.3790,W,1,06,1.3,033.8,M,-002.6,M,,*41
2014-08-01T00:00:12.242000Z $GPGLL,2200.1338,S,01756.3790,W,000011.226,A*3C
2014-08-01T00:00:12.242000Z $GPVTG,225.7,T,250.6,M,010.5,N,019.4,K*45
2014-08-01T00:00:12.306000Z $GPRMC,000011.226,A,2200.1338,S,01756.3790,W,010.5,225.7,161294,24.9,W*42
2014-08-01T00:00:13.125000Z $GPZDA,000013.00,16,12,1994,00,00,*49
2014-08-01T00:00:13.242000Z $GPGGA,000012.226,2200.1357,S,01756.3810,W,1,06,1.3,033.4,M,-002.6,M,,*40
2014-08-01T00:00:13.242000Z $GPGLL,2200.1357,S,01756.3810,W,000012.226,A*31
2014-08-01T00:00:13.242000Z $GPVTG,223.2,T,248.0,M,008.4,N,015.6,K*4F
2014-08-01T00:00:13.306000Z $GPRMC,000012.226,A,2200.1357,S,01756.3810,W,008.4,223.2,161294,24.9,W*44
2014-08-01T00:00:14.141000Z $GPGGA,000013.226,2200.1373,S,01756.3824,W,1,06,1.3,033.1,M,-002.6,M,,*45
2014-08-01T00:00:14.257000Z $GPGLL,2200.1373,S,01756.3824,W,000013.226,A*31
2014-08-01T00:00:14.257000Z $GPVTG,215.2,T,240.0,M,007.3,N,013.5,K*4F
2014-08-01T00:00:14.322000Z $GPRMC,000013.226,A,2200.1373,S,01756.3824,W,007.3,215.2,161294,24.9,W*49
2014-08-01T00:00:14.322000Z $GPZDA,000014.00,16,12,1994,00,00,*4E
2014-08-01T00:00:15.140000Z $GPGGA,000014.226,2200.1391,S,01756.3836,W,1,06,1.3,033.2,M,-002.6,M,,*4E
2014-08-01T00:00:15.257000Z $GPGLL,2200.1391,S,01756.3836,W,000014.226,A*39
2014-08-01T00:00:15.257000Z $GPVTG,209.7,T,234.6,M,008.3,N,015.4,K*4A
2014-08-01T00:00:15.321000Z $GPRMC,000014.226,A,2200.1391,S,01756.3836,W,008.3,209.7,161294,24.9,W*46
2014-08-01T00:00:15.321000Z $GPZDA,000015.00,16,12,1994,00,00,*4F
2014-08-01T00:00:16.139000Z $GPGGA,000015.226,2200.1413,S,01756.3850,W,1,06,1.3,033.3,M,-002.6,M,,*43
2014-08-01T00:00:16.256000Z $GPGLL,2200.1413,S,01756.3850,W,000015.226,A*35
2014-08-01T00:00:16.256000Z $GPVTG,211.0,T,235.9,M,010.0,N,018.6,K*4F
2014-08-01T00:00:16.320000Z $GPRMC,000015.226,A,2200.1413,S,01756.3850,W,010.0,211.0,161294,24.9,W*4E
2014-08-01T00:00:16.320000Z $GPZDA,000016.00,16,12,1994,00,00,*4C
2014-08-01T00:00:17.141000Z $GPGGA,000016.226,2200.1438,S,01756.3868,W,1,06,1.3,033.3,M,-002.6,M,,*42
2014-08-01T00:00:17.257000Z $GPGLL,2200.1438,S,01756.3868,W,000016.226,A*34
2014-08-01T00:00:17.257000Z $GPVTG,214.5,T,239.4,M,011.1,N,020.5,K*46
2014-08-01T00:00:17.322000Z $GPRMC,000016.226,A,2200.1438,S,01756.3868,W,011.1,214.5,161294,24.9,W*4F
2014-08-01T00:00:17.322000Z $GPZDA,000017.00,16,12,1994,00,00,*4D
2014-08-01T00:00:18.125000Z $GPZDA,000018.00,16,12,1994,00,00,*42
2014-08-01T00:00:18.242000Z $GPGGA,000017.226,2200.1464,S,01756.3887,W,1,06,1.3,033.1,M,-002.6,M,,*49
2014-08-01T00:00:18.242000Z $GPGLL,2200.1464,S,01756.3887,W,000017.226,A*3D
2014-08-01T00:00:18.242000Z $GPVTG,215.3,T,240.2,M,010.9,N,020.2,K*47
2014-08-01T00:00:18.306000Z $GPRMC,000017.226,A,2200.1464,S,01756.3887,W,010.9,215.3,161294,24.9,W*48
2014-08-01T00:00:19.125000Z $GPZDA,000019.00,16,12,1994,00,00,*43
2014-08-01T00:00:19.242000Z $GPGGA,000018.226,2200.1487,S,01756.3904,W,1,06,1.3,032.9,M,-002.6,M,,*48
2014-08-01T00:00:19.242000Z $GPGLL,2200.1487,S,01756.3904,W,000018.226,A*35
2014-08-01T00:00:19.242000Z $GPVTG,216.4,T,241.3,M,009.5,N,017.5,K*44
2014-08-01T00:00:19.306000Z $GPRMC,000018.226,A,2200.1487,S,01756.3904,W,009.5,216.4,161294,24.9,W*40
2014-08-01T00:00:20.125000Z $GPZDA,000020.00,16,12,1994,00,00,*49
2014-08-01T00:00:20.242000Z $GPGGA,000019.226,2200.1507,S,01756.3920,W,1,06,1.3,032.8,M,-002.6,M,,*47
2014-08-01T00:00:20.242000Z $GPGLL,2200.1507,S,01756.3920,W,000019.226,A*3B
2014-08-01T00:00:20.242000Z $GPVTG,218.4,T,243.3,M,008.4,N,015.5,K*4A
2014-08-01T00:00:20.306000Z $GPRMC,000019.226,A,2200.1507,S,01756.3920,W,008.4,218.4,161294,24.9,W*40
2014-08-01T00:00:21.125000Z $GPZDA,000021.00,16,12,1994,00,00,*48
2014-08-01T00:00:21.242000Z $GPGGA,000020.226,2200.1524,S,01756.3936,W,1,06,1.3,033.2,M,-002.6,M,,*40
2014-08-01T00:00:21.242000Z $GPGLL,2200.1524,S,01756.3936,W,000020.226,A*37
2014-08-01T00:00:21.242000Z $GPVTG,219.9,T,244.8,M,008.4,N,015.5,K*4A
2014-08-01T00:00:21.306000Z $GPRMC,000020.226,A,2200.1524,S,01756.3936,W,008.4,219.9,161294,24.9,W*40
2014-08-01T00:00:22.125000Z $GPZDA,000022.00,16,12,1994,00,00,*4B
2014-08-01T00:00:22.242000Z $GPGGA,000021.226,2200.1542,S,01756.3953,W,1,06,1.3,033.8,M,-002.6,M,,*48
2014-08-01T00:00:22.242000Z $GPGLL,2200.1542,S,01756.3953,W,000021.226,A*35
2014-08-01T00:00:22.242000Z $GPVTG,221.8,T,246.6,M,009.1,N,016.8,K*46
2014-08-01T00:00:22.306000Z $GPRMC,000021.226,A,2200.1542,S,01756.3953,W,009.1,221.8,161294,24.9,W*4C
2014-08-01T00:00:23.125000Z $GPZDA,000023.00,16,12,1994,00,00,*4A
2014-08-01T00:00:23.242000Z $GPGGA,000022.226,2200.1561,S,01756.3973,W,1,06,1.3,034.6,M,-002.6,M,,*41
2014-08-01T00:00:23.242000Z $GPGLL,2200.1561,S,01756.3973,W,000022.226,A*35
2014-08-01T00:00:23.242000Z $GPVTG,225.0,T,249.8,M,009.7,N,017.9,K*4D
2014-08-01T00:00:23.306000Z $GPRMC,000022.226,A,2200.1561,S,01756.3973,W,009.7,225.0,161294,24.9,W*46
2014-08-01T00:00:24.125000Z $GPZDA,000024.00,16,12,1994,00,00,*4D
2014-08-01T00:00:24.242000Z $GPGGA,000023.226,2200.1581,S,01756.3994,W,1,06,1.3,034.9,M,-002.6,M,,*48
2014-08-01T00:00:24.242000Z $GPGLL,2200.1581,S,01756.3994,W,000023.226,A*33
2014-08-01T00:00:24.242000Z $GPVTG,226.7,T,251.6,M,009.8,N,018.2,K*45
2014-08-01T00:00:24.306000Z $GPRMC,000023.226,A,2200.1581,S,01756.3994,W,009.8,226.7,161294,24.9,W*4B
2014-08-01T00:00:25.126000Z $GPZDA,000025.00,16,12,1994,00,00,*4C
2014-08-01T00:00:25.242000Z $GPGGA,000024.226,2200.1600,S,01756.4015,W,1,06,1.3,034.9,M,-002.6,M,,*42
2014-08-01T00:00:25.242000Z $GPGLL,2200.1600,S,01756.4015,W,000024.226,A*39
2014-08-01T00:00:25.242000Z $GPVTG,225.0,T,249.9,M,010.0,N,018.5,K*40
2014-08-01T00:00:25.306000Z $GPRMC,000024.226,A,2200.1600,S,01756.4015,W,010.0,225.0,161294,24.9,W*45
2014-08-01T00:00:26.125000Z $GPZDA,000026.00,16,12,1994,00,00,*4F
2014-08-01T00:00:26.242000Z $GPGGA,000025.226,2200.1620,S,01756.4035,W,1,06,1.3,034.4,M,-002.6,M,,*4E
2014-08-01T00:00:26.242000Z $GPGLL,2200.1620,S,01756.4035,W,000025.226,A*38
2014-08-01T00:00:26.242000Z $GPVTG,221.0,T,245.9,M,010.0,N,018.4,K*49
2014-08-01T00:00:26.306000Z $GPRMC,000025.226,A,2200.1620,S,01756.4035,W,010.0,221.0,161294,24.9,W*40
2014-08-01T00:00:27.125000Z $GPZDA,000027.00,16,12,1994,00,00,*4E
2014-08-01T00:00:27.242000Z $GPGGA,000026.226,2200.1641,S,01756.4053,W,1,06,1.3,033.6,M,-002.6,M,,*4F
2014-08-01T00:00:27.242000Z $GPGLL,2200.1641,S,01756.4053,W,000026.226,A*3C
2014-08-01T00:00:27.242000Z $GPVTG,214.9,T,239.8,M,009.6,N,017.8,K*41
2014-08-01T00:00:27.306000Z $GPRMC,000026.226,A,2200.1641,S,01756.4053,W,009.6,214.9,161294,24.9,W*45
2014-08-01T00:00:28.125000Z $GPZDA,000028.00,16,12,1994,00,00,*41
2014-08-01T00:00:28.242000Z $GPGGA,000027.226,2200.1663,S,01756.4068,W,1,06,1.3,033.0,M,-002.6,M,,*40
2014-08-01T00:00:28.242000Z $GPGLL,2200.1663,S,01756.4068,W,000027.226,A*35
2014-08-01T00:00:28.242000Z $GPVTG,209.8,T,234.6,M,009.4,N,017.3,K*46
2014-08-01T00:00:28.306000Z $GPRMC,000027.226,A,2200.1663,S,01756.4068,W,009.4,209.8,161294,24.9,W*43
2014-08-01T00:00:29.125000Z $GPZDA,000029.00,16,12,1994,00,00,*40
2014-08-01T00:00:29.242000Z $GPGGA,000028.226,2200.1686,S,01756.4082,W,1,06,1.3,032.5,M,-002.6,M,,*44
2014-08-01T00:00:29.242000Z $GPGLL,2200.1686,S,01756.4082,W,000028.226,A*35
2014-08-01T00:00:29.242000Z $GPVTG,208.7,T,233.6,M,009.3,N,017.3,K*48
2014-08-01T00:00:29.306000Z $GPRMC,000028.226,A,2200.1686,S,01756.4082,W,009.3,208.7,161294,24.9,W*4A
2014-08-01T00:00:30.125000Z $GPZDA,000030.00,16,12,1994,00,00,*48
2014-08-01T00:00:30.242000Z $GPGGA,000029.226,2200.1709,S,01756.4096,W,1,06,1.3,032.2,M,-002.6,M,,*41
2014-08-01T00:00:30.242000Z $GPGLL,2200.1709,S,01756.4096,W,000029.226,A*37
2014-08-01T00:00:30.242000Z $GPVTG,210.1,T,234.9,M,009.5,N,017.6,K*4C
2014-08-01T00:00:30.306000Z $GPRMC,000029.226,A,2200.1709,S,01756.4096,W,009.5,210.1,161294,24.9,W*41
2014-08-01T00:00:31.125000Z $GPZDA,000031.00,16,12,1994,00,00,*49
2014-08-01T00:00:31.242000Z $GPGGA,000030.226,2200.1731,S,01756.4111,W,1,06,1.3,032.4,M,-002.6,M,,*4A
2014-08-01T00:00:31.242000Z $GPGLL,2200.1731,S,01756.4111,W,000030.226,A*3A
2014-08-01T00:00:31.242000Z $GPVTG,214.4,T,239.3,M,009.8,N,018.1,K*4F
2014-08-01T00:00:31.306000Z $GPRMC,000030.226,A,2200.1731,S,01756.4111,W,009.8,214.4,161294,24.9,W*40
2014-08-01T00:00:32.125000Z $GPZDA,000032.00,16,12,1994,00,00,*4A
2014-08-01T00:00:32.242000Z $GPGGA,000031.226,2200.1754,S,01756.4129,W,1,06,1.3,032.7,M,-002.6,M,,*40
2014-08-01T00:00:32.242000Z $GPGLL,2200.1754,S,01756.4129,W,000031.226,A*33
2014-08-01T00:00:32.242000Z $GPVTG,217.9,T,242.8,M,010.3,N,019.1,K*44
2014-08-01T00:00:32.306000Z $GPRMC,000031.226,A,2200.1754,S,01756.4129,W,010.3,217.9,161294,24.9,W*44
2014-08-01T00:00:33.125000Z $GPZDA,000033.00,16,12,1994,00,00,*4B
2014-08-01T00:00:33.242000Z $GPGGA,000032.226,2200.1777,S,01756.4148,W,1,06,1.3,033.1,M,-002.6,M,,*42
2014-08-01T00:00:33.242000Z $GPGLL,2200.1777,S,01756.4148,W,000032.226,A*36
2014-08-01T00:00:33.242000Z $GPVTG,221.2,T,246.1,M,010.3,N,019.1,K*47
2014-08-01T00:00:33.306000Z $GPRMC,000032.226,A,2200.1777,S,01756.4148,W,010.3,221.2,161294,24.9,W*4F
2014-08-01T00:00:34.125000Z $GPZDA,000034.00,16,12,1994,00,00,*4C
2014-08-01T00:00:34.242000Z $GPGGA,000033.226,2200.1797,S,01756.4168,W,1,06,1.3,033.5,M,-002.6,M,,*4B
2014-08-01T00:00:34.242000Z $GPGLL,2200.1797,S,01756.4168,W,000033.226,A*3B
2014-08-01T00:00:34.242000Z $GPVTG,223.8,T,248.7,M,009.0,N,016.8,K*4A
2014-08-01T00:00:34.306000Z $GPRMC,000033.226,A,2200.1797,S,01756.4168,W,009.0,223.8,161294,24.9,W*41
2014-08-01T00:00:35.126000Z $GPZDA,000035.00,16,12,1994,00,00,*4D
2014-08-01T00:00:35.242000Z $GPGGA,000034.226,2200.1813,S,01756.4186,W,1,06,1.3,034.1,M,-002.6,M,,*4C
2014-08-01T00:00:35.242000Z $GPGLL,2200.1813,S,01756.4186,W,000034.226,A*3F
2014-08-01T00:00:35.242000Z $GPVTG,227.1,T,252.0,M,007.6,N,014.1,K*48
2014-08-01T00:00:35.306000Z $GPRMC,000034.226,A,2200.1813,S,01756.4186,W,007.6,227.1,161294,24.9,W*40
2014-08-01T00:00:36.125000Z $GPZDA,000036.00,16,12,1994,00,00,*4E
2014-08-01T00:00:36.242000Z $GPGGA,000035.226,2200.1826,S,01756.4202,W,1,06,1.3,035.1,M,-002.6,M,,*45
2014-08-01T00:00:36.242000Z $GPGLL,2200.1826,S,01756.4202,W,000035.226,A*37
2014-08-01T00:00:36.242000Z $GPVTG,229.1,T,253.9,M,007.8,N,014.4,K*45
2014-08-01T00:00:36.306000Z $GPRMC,000035.226,A,2200.1826,S,01756.4202,W,007.8,229.1,161294,24.9,W*48
2014-08-01T00:00:37.125000Z $GPZDA,000037.00,16,12,1994,00,00,*4F
2014-08-01T00:00:37.242000Z $GPGGA,000036.226,2200.1843,S,01756.4222,W,1,06,1.3,036.0,M,-002.6,M,,*45
2014-08-01T00:00:37.242000Z $GPGLL,2200.1843,S,01756.4222,W,000036.226,A*35
2014-08-01T00:00:37.242000Z $GPVTG,225.6,T,250.5,M,009.7,N,018.0,K*48
2014-08-01T00:00:37.306000Z $GPRMC,000036.226,A,2200.1843,S,01756.4222,W,009.7,225.6,161294,24.9,W*40
2014-08-01T00:00:38.125000Z $GPZDA,000038.00,16,12,1994,00,00,*40
2014-08-01T00:00:38.242000Z $GPGGA,000037.226,2200.1865,S,01756.4244,W,1,06,1.3,035.9,M,-002.6,M,,*4A
2014-08-01T00:00:38.242000Z $GPGLL,2200.1865,S,01756.4244,W,000037.226,A*30
2014-08-01T00:00:38.242000Z $GPVTG,221.2,T,246.0,M,011.9,N,022.1,K*45
2014-08-01T00:00:38.306000Z $GPRMC,000037.226,A,2200.1865,S,01756.4244,W,011.9,221.2,161294,24.9,W*42
2014-08-01T00:00:39.125000Z $GPZDA,000039.00,16,12,1994,00,00,*41
2014-08-01T00:00:39.242000Z $GPGGA,000038.226,2200.1893,S,01756.4268,W,1,06,1.3,034.5,M,-002.6,M,,*4F
2014-08-01T00:00:39.242000Z $GPGLL,2200.1893,S,01756.4268,W,000038.226,A*38
2014-08-01T00:00:39.242000Z $GPVTG,217.9,T,242.7,M,012.9,N,024.0,K*4C
2014-08-01T00:00:39.306000Z $GPRMC,000038.226,A,2200.1893,S,01756.4268,W,012.9,217.9,161294,24.9,W*47
2014-08-01T00:00:40.125000Z $GPZDA,000040.00,16,12,1994,00,00,*4F
2014-08-01T00:00:40.242000Z $GPGGA,000039.226,2200.1920,S,01756.4289,W,1,06,1.3,032.4,M,-002.6,M,,*4F
2014-08-01T00:00:40.242000Z $GPGLL,2200.1920,S,01756.4289,W,000039.226,A*3F
2014-08-01T00:00:40.242000Z $GPVTG,213.7,T,238.6,M,010.6,N,019.7,K*4E
2014-08-01T00:00:40.306000Z $GPRMC,000039.226,A,2200.1920,S,01756.4289,W,010.6,213.7,161294,24.9,W*47
2014-08-01T00:00:41.125000Z $GPZDA,000041.00,16,12,1994,00,00,*4E
2014-08-01T00:00:41.242000Z $GPGGA,000040.226,2200.1940,S,01756.4302,W,1,06,1.3,031.1,M,-002.6,M,,*43
2014-08-01T00:00:41.242000Z $GPGLL,2200.1940,S,01756.4302,W,000040.226,A*35
2014-08-01T00:00:41.242000Z $GPVTG,208.0,T,232.8,M,006.8,N,012.6,K*44
2014-08-01T00:00:41.307000Z $GPRMC,000040.226,A,2200.1940,S,01756.4302,W,006.8,208.0,161294,24.9,W*49
2014-08-01T00:00:42.054000Z $GPZDA,000042.00,16,12,1994,00,00,*4D
2014-08-01T00:00:42.265000Z $GPGGA,000041.226,2200.1954,S,01756.4309,W,1,06,1.3,031.1,M,-002.6,M,,*4C
2014-08-01T00:00:42.381000Z $GPGLL,2200.1954,S,01756.4309,W,000041.226,A*3A
2014-08-01T00:00:42.381000Z $GPVTG,209.1,T,234.0,M,005.0,N,009.2,K*4F
2014-08-01T00:00:42.405000Z $GPRMC,000041.226,A,2200.1954,S,01756.4309,W,005.0,209.1,161294,24.9,W*4D
2014-08-01T00:00:43.125000Z $GPZDA,000043.00,16,12,1994,00,00,*4C
2014-08-01T00:00:43.242000Z $GPGGA,000042.226,2200.1966,S,01756.4318,W,1,06,1.3,032.2,M,-002.6,M,,*4E
2014-08-01T00:00:43.242000Z $GPGLL,2200.1966,S,01756.4318,W,000042.226,A*38
2014-08-01T00:00:43.242000Z $GPVTG,215.6,T,240.5,M,006.4,N,011.8,K*47
2014-08-01T00:00:43.306000Z $GPRMC,000042.226,A,2200.1966,S,01756.4318,W,006.4,215.6,161294,24.9,W*42
2014-08-01T00:00:44.125000Z $GPZDA,000044.00,16,12,1994,00,00,*4B
2014-08-01T00:00:44.242000Z $GPGGA,000043.226,2200.1983,S,01756.4333,W,1,06,1.3,033.9,M,-002.6,M,,*47
2014-08-01T00:00:44.242000Z $GPGLL,2200.1983,S,01756.4333,W,000043.226,A*3B
2014-08-01T00:00:44.242000Z $GPVTG,218.9,T,243.8,M,009.3,N,017.2,K*4F
2014-08-01T00:00:44.306000Z $GPRMC,000043.226,A,2200.1983,S,01756.4333,W,009.3,218.9,161294,24.9,W*4B
2014-08-01T00:00:45.126000Z $GPZDA,000045.00,16,12,1994,00,00,*4A
2014-08-01T00:00:45.242000Z $GPGGA,000044.226,2200.2006,S,01756.4355,W,1,06,1.3,035.8,M,-002.6,M,,*40
2014-08-01T00:00:45.242000Z $GPGLL,2200.2006,S,01756.4355,W,000044.226,A*3B
2014-08-01T00:00:45.242000Z $GPVTG,222.6,T,247.4,M,011.6,N,021.5,K*4F
2014-08-01T00:00:45.306000Z $GPRMC,000044.226,A,2200.2006,S,01756.4355,W,011.6,222.6,161294,24.9,W*41
2014-08-01T00:00:46.125000Z $GPZDA,000046.00,16,12,1994,00,00,*49
2014-08-01T00:00:46.242000Z $GPGGA,000045.226,2200.2031,S,01756.4380,W,1,06,1.3,036.2,M,-002.6,M,,*44
2014-08-01T00:00:46.242000Z $GPGLL,2200.2031,S,01756.4380,W,000045.226,A*36
2014-08-01T00:00:46.242000Z $GPVTG,224.7,T,249.6,M,012.6,N,023.3,K*43
2014-08-01T00:00:46.306000Z $GPRMC,000045.226,A,2200.2031,S,01756.4380,W,012.6,224.7,161294,24.9,W*48
2014-08-01T00:00:47.125000Z $GPZDA,000047.00,16,12,1994,00,00,*48
2014-08-01T00:00:47.242000Z $GPGGA,000046.226,2200.2055,S,01756.4406,W,1,06,1.3,035.5,M,-002.6,M,,*48
2014-08-01T00:00:47.242000Z $GPGLL,2200.2055,S,01756.4406,W,000046.226,A*3E
2014-08-01T00:00:47.242000Z $GPVTG,224.7,T,249.6,M,011.7,N,021.6,K*46
2014-08-01T00:00:47.306000Z $GPRMC,000046.226,A,2200.2055,S,01756.4406,W,011.7,224.7,161294,24.9,W*42
2014-08-01T00:00:48.125000Z $GPZDA,000048.00,16,12,1994,00,00,*47
2014-08-01T00:00:48.243000Z $GPGGA,000047.226,2200.2076,S,01756.4426,W,1,06,1.3,033.5,M,-002.6,M,,*4C
2014-08-01T00:00:48.243000Z $GPGLL,2200.2076,S,01756.4426,W,000047.226,A*3C
2014-08-01T00:00:48.243000Z $GPVTG,221.8,T,246.7,M,009.0,N,016.6,K*48
2014-08-01T00:00:48.306000Z $GPRMC,000047.226,A,2200.2076,S,01756.4426,W,009.0,221.8,161294,24.9,W*44
2014-08-01T00:00:49.125000Z $GPZDA,000049.00,16,12,1994,00,00,*46
2014-08-01T00:00:49.242000Z $GPGGA,000048.226,2200.2092,S,01756.4441,W,1,06,1.3,032.2,M,-002.6,M,,*4E
2014-08-01T00:00:49.242000Z $GPGLL,2200.2092,S,01756.4441,W,000048.226,A*38
2014-08-01T00:00:49.242000Z $GPVTG,217.7,T,242.5,M,007.0,N,013.0,K*49
2014-08-01T00:00:49.306000Z $GPRMC,000048.226,A,2200.2092,S,01756.4441,W,007.0,217.7,161294,24.9,W*44
2014-08-01T00:00:50.125000Z $GPZDA,000050.00,16,12,1994,00,00,*4E
2014-08-01T00:00:50.242000Z $GPGGA,000049.226,2200.2107,S,01756.4453,W,1,06,1.3,031.7,M,-002.6,M,,*47
2014-08-01T00:00:50.242000Z $GPGLL,2200.2107,S,01756.4453,W,000049.226,A*37
2014-08-01T00:00:50.242000Z $GPVTG,214.8,T,239.7,M,006.6,N,012.2,K*4F
2014-08-01T00:00:50.306000Z $GPRMC,000049.226,A,2200.2107,S,01756.4453,W,006.6,214.8,161294,24.9,W*40
2014-08-01T00:00:51.125000Z $GPZDA,000051.00,16,12,1994,00,00,*4F
2014-08-01T00:00:51.242000Z $GPGGA,000050.226,2200.2123,S,01756.4465,W,1,06,1.3,032.3,M,-002.6,M,,*4B
2014-08-01T00:00:51.242000Z $GPGLL,2200.2123,S,01756.4465,W,000050.226,A*3C
2014-08-01T00:00:51.242000Z $GPVTG,215.6,T,240.5,M,007.2,N,013.3,K*49
2014-08-01T00:00:51.306000Z $GPRMC,000050.226,A,2200.2123,S,01756.4465,W,007.2,215.6,161294,24.9,W*41
2014-08-01T00:00:52.125000Z $GPZDA,000052.00,16,12,1994,00,00,*4C
2014-08-01T00:00:52.242000Z $GPGGA,000051.226,2200.2141,S,01756.4478,W,1,06,1.3,033.3,M,-002.6,M,,*43
2014-08-01T00:00:52.242000Z $GPGLL,2200.2141,S,01756.4478,W,000051.226,A*35
2014-08-01T00:00:52.242000Z $GPVTG,213.7,T,238.6,M,008.4,N,015.5,K*4B
2014-08-01T00:00:52.306000Z $GPRMC,000051.226,A,2200.2141,S,01756.4478,W,008.4,213.7,161294,24.9,W*46
2014-08-01T00:00:53.125000Z $GPZDA,000053.00,16,12,1994,00,00,*4D
2014-08-01T00:00:53.242000Z $GPGGA,000052.226,2200.2162,S,01756.4493,W,1,06,1.3,034.5,M,-002.6,M,,*45
2014-08-01T00:00:53.242000Z $GPGLL,2200.2162,S,01756.4493,W,000052.226,A*32
2014-08-01T00:00:53.242000Z $GPVTG,213.9,T,238.8,M,009.5,N,017.7,K*4B
2014-08-01T00:00:53.306000Z $GPRMC,000052.226,A,2200.2162,S,01756.4493,W,009.5,213.9,161294,24.9,W*4F
2014-08-01T00:00:54.125000Z $GPZDA,000054.00,16,12,1994,00,00,*4A
2014-08-01T00:00:54.242000Z $GPGGA,000053.226,2200.2185,S,01756.4511,W,1,06,1.3,035.6,M,-002.6,M,,*44
2014-08-01T00:00:54.242000Z $GPGLL,2200.2185,S,01756.4511,W,000053.226,A*31
2014-08-01T00:00:54.242000Z $GPVTG,215.5,T,240.3,M,010.5,N,019.4,K*40
2014-08-01T00:00:54.306000Z $GPRMC,000053.226,A,2200.2185,S,01756.4511,W,010.5,215.5,161294,24.9,W*4E
2014-08-01T00:00:55.125000Z $GPZDA,000055.00,16,12,1994,00,00,*4B
2014-08-01T00:00:55.242000Z $GPGGA,000054.226,2200.2208,S,01756.4530,W,1,06,1.3,035.7,M,-002.6,M,,*47
2014-08-01T00:00:55.242000Z $GPGLL,2200.2208,S,01756.4530,W,000054.226,A*33
2014-08-01T00:00:55.242000Z $GPVTG,218.4,T,243.2,M,010.7,N,019.8,K*40
2014-08-01T00:00:55.306000Z $GPRMC,000054.226,A,2200.2208,S,01756.4530,W,010.7,218.4,161294,24.9,W*42
2014-08-01T00:00:56.126000Z $GPZDA,000056.00,16,12,1994,00,00,*48
2014-08-01T00:00:56.242000Z $GPGGA,000055.226,2200.2231,S,01756.4550,W,1,06,1.3,035.2,M,-002.6,M,,*4F
2014-08-01T00:00:56.242000Z $GPGLL,2200.2231,S,01756.4550,W,000055.226,A*3E
2014-08-01T00:00:56.242000Z $GPVTG,220.3,T,245.2,M,010.4,N,019.2,K*43
2014-08-01T00:00:56.306000Z $GPRMC,000055.226,A,2200.2231,S,01756.4550,W,010.4,220.3,161294,24.9,W*40
2014-08-01T00:00:57.125000Z $GPZDA,000057.00,16,12,1994,00,00,*49
2014-08-01T00:00:57.242000Z $GPGGA,000056.226,2200.2253,S,01756.4568,W,1,06,1.3,033.5,M,-002.6,M,,*42
2014-08-01T00:00:57.242000Z $GPGLL,2200.2253,S,01756.4568,W,000056.226,A*32
2014-08-01T00:00:57.242000Z $GPVTG,220.2,T,245.1,M,009.7,N,018.0,K*49
2014-08-01T00:00:57.306000Z $GPRMC,000056.226,A,2200.2253,S,01756.4568,W,009.7,220.2,161294,24.9,W*46
2014-08-01T00:00:58.125000Z $GPZDA,000058.00,16,12,1994,00,00,*46
2014-08-01T00:00:58.242000Z $GPGGA,000057.226,2200.2272,S,01756.4586,W,1,06,1.3,032.2,M,-002.6,M,,*46
2014-08-01T00:00:58.242000Z $GPGLL,2200.2272,S,01756.4586,W,000057.226,A*30
2014-08-01T00:00:58.242000Z $GPVTG,220.1,T,244.9,M,008.7,N,016.0,K*4C
2014-08-01T00:00:58.306000Z $GPRMC,000057.226,A,2200.2272,S,01756.4586,W,008.7,220.1,161294,24.9,W*46
2014-08-01T00:00:59.125000Z $GPZDA,000059.00,16,12,1994,00,00,*47
2014-08-01T00:00:59.242000Z $GPGGA,000058.226,2200.2289,S,01756.4601,W,1,06,1.3,031.6,M,-002.6,M,,*46
2014-08-01T00:00:59.242000Z $GPGLL,2200.2289,S,01756.4601,W,000058.226,A*37
2014-08-01T00:00:59.242000Z $GPVTG,219.5,T,244.3,M,007.6,N,014.0,K*44
2014-08-01T00:00:59.306000Z $GPRMC,000058.226,A,2200.2289,S,01756.4601,W,007.6,219.5,161294,24.9,W*41
2014-08-01T00:01:00.124000Z $GPZDA,000100.00,16,12,1994,00,00,*4A
2014-08-01T00:01:00.241000Z $GPGGA,000059.226,2200.2305,S,01756.4615,W,1,06,1.3,031.9,M,-002.6,M,,*48
2014-08-01T00:01:00.241000Z $GPGLL,2200.2305,S,01756.4615,W,000059.226,A*36
2014-08-01T00:01:00.241000Z $GPVTG,218.7,T,243.5,M,007.3,N,013.6,K*42
2014-08-01T00:01:00.305000Z $GPRMC,000059.226,A,2200.2305,S,01756.4615,W,007.3,218.7,161294,24.9,W*46
2014-08-01T00:01:01.125000Z $GPZDA,000101.00,16,12,1994,00,00,*4B
2014-08-01T00:01:01.242000Z $GPGGA,000100.226,2200.2322,S,01756.4630,W,1,06,1.3,032.7,M,-002.6,M,,*4A
2014-08-01T00:01:01.242000Z $GPGLL,2200.2322,S,01756.4630,W,000100.226,A*39
2014-08-01T00:01:01.242000Z $GPVTG,218.9,T,243.8,M,008.2,N,015.3,K*4C
2014-08-01T00:01:01.306000Z $GPRMC,000100.226,A,2200.2322,S,01756.4630,W,008.2,218.9,161294,24.9,W*49
2014-08-01T00:01:02.125000Z $GPZDA,000102.00,16,12,1994,00,00,*48
2014-08-01T00:01:02.241000Z $GPGGA,000101.226,2200.2341,S,01756.4647,W,1,06,1.3,033.9,M,-002.6,M,,*41
2014-08-01T00:01:02.242000Z $GPGLL,2200.2341,S,01756.4647,W,000101.226,A*3D
2014-08-01T00:01:02.242000Z $GPVTG,220.6,T,245.4,M,009.7,N,017.9,K*4E
2014-08-01T00:01:02.306000Z $GPRMC,000101.226,A,2200.2341,S,01756.4647,W,009.7,220.6,161294,24.9,W*4D
2014-08-01T00:01:03.125000Z $GPZDA,000103.00,16,12,1994,00,00,*49
2014-08-01T00:01:03.242000Z $GPGGA,000102.226,2200.2363,S,01756.4669,W,1,06,1.3,035.1,M,-002.6,M,,*40
2014-08-01T00:01:03.242000Z $GPGLL,2200.2363,S,01756.4669,W,000102.226,A*32
2014-08-01T00:01:03.242000Z $GPVTG,223.3,T,248.2,M,011.0,N,020.4,K*44
2014-08-01T00:01:03.306000Z $GPRMC,000102.226,A,2200.2363,S,01756.4669,W,011.0,223.3,161294,24.9,W*4A
2014-08-01T00:01:04.125000Z $GPZDA,000104.00,16,12,1994,00,00,*4E
2014-08-01T00:01:04.242000Z $GPGGA,000103.226,2200.2385,S,01756.4692,W,1,06,1.3,035.3,M,-002.6,M,,*4F
2014-08-01T00:01:04.242000Z $GPGLL,2200.2385,S,01756.4692,W,000103.226,A*3F
2014-08-01T00:01:04.242000Z $GPVTG,223.7,T,248.6,M,011.1,N,020.5,K*44
2014-08-01T00:01:04.306000Z $GPRMC,000103.226,A,2200.2385,S,01756.4692,W,011.1,223.7,161294,24.9,W*42
2014-08-01T00:01:05.125000Z $GPZDA,000105.00,16,12,1994,00,00,*4F
2014-08-01T00:01:05.242000Z $GPGGA,000104.226,2200.2406,S,01756.4713,W,1,06,1.3,035.0,M,-002.6,M,,*4F
2014-08-01T00:01:05.242000Z $GPGLL,2200.2406,S,01756.4713,W,000104.226,A*3C
2014-08-01T00:01:05.242000Z $GPVTG,221.9,T,246.8,M,009.8,N,018.1,K*47
2014-08-01T00:01:05.306000Z $GPRMC,000104.226,A,2200.2406,S,01756.4713,W,009.8,221.9,161294,24.9,W*4D
2014-08-01T00:01:06.125000Z $GPZDA,000106.00,16,12,1994,00,00,*4C
2014-08-01T00:01:06.242000Z $GPGGA,000105.226,2200.2426,S,01756.4729,W,1,06,1.3,033.8,M,-002.6,M,,*4B
2014-08-01T00:01:06.242000Z $GPGLL,2200.2426,S,01756.4729,W,000105.226,A*36
2014-08-01T00:01:06.242000Z $GPVTG,216.3,T,241.2,M,008.3,N,015.4,K*46
2014-08-01T00:01:06.306000Z $GPRMC,000105.226,A,2200.2426,S,01756.4729,W,008.3,216.3,161294,24.9,W*43
2014-08-01T00:01:07.125000Z $GPZDA,000107.00,16,12,1994,00,00,*4D
2014-08-01T00:01:07.242000Z $GPGGA,000106.226,2200.2444,S,01756.4743,W,1,06,1.3,033.2,M,-002.6,M,,*4A
2014-08-01T00:01:07.242000Z $GPGLL,2200.2444,S,01756.4743,W,000106.226,A*3D
2014-08-01T00:01:07.242000Z $GPVTG,213.7,T,238.6,M,007.9,N,014.7,K*4A
2014-08-01T00:01:07.306000Z $GPRMC,000106.226,A,2200.2444,S,01756.4743,W,007.9,213.7,161294,24.9,W*4C
2014-08-01T00:01:08.125000Z $GPZDA,000108.00,16,12,1994,00,00,*42
2014-08-01T00:01:08.242000Z $GPGGA,000107.226,2200.2463,S,01756.4756,W,1,06,1.3,033.1,M,-002.6,M,,*49
2014-08-01T00:01:08.242000Z $GPGLL,2200.2463,S,01756.4756,W,000107.226,A*3D
2014-08-01T00:01:08.242000Z $GPVTG,213.8,T,238.6,M,008.5,N,015.7,K*47
2014-08-01T00:01:08.306000Z $GPRMC,000107.226,A,2200.2463,S,01756.4756,W,008.5,213.8,161294,24.9,W*40
2014-08-01T00:01:09.126000Z $GPZDA,000109.00,16,12,1994,00,00,*43
2014-08-01T00:01:09.242000Z $GPGGA,000108.226,2200.2483,S,01756.4772,W,1,06,1.3,033.4,M,-002.6,M,,*4B
2014-08-01T00:01:09.242000Z $GPGLL,2200.2483,S,01756.4772,W,000108.226,A*3A
2014-08-01T00:01:09.242000Z $GPVTG,216.3,T,241.2,M,009.2,N,017.0,K*40
2014-08-01T00:01:09.306000Z $GPRMC,000108.226,A,2200.2483,S,01756.4772,W,009.2,216.3,161294,24.9,W*4F
2014-08-01T00:01:10.054000Z $GPZDA,000110.00,16,12,1994,00,00,*4B
2014-08-01T00:01:10.265000Z $GPGGA,000109.226,2200.2505,S,01756.4789,W,1,06,1.3,033.4,M,-002.6,M,,*41
2014-08-01T00:01:10.382000Z $GPGLL,2200.2505,S,01756.4789,W,000109.226,A*30
2014-08-01T00:01:10.382000Z $GPVTG,218.4,T,243.3,M,009.8,N,018.1,K*4E
2014-08-01T00:01:10.406000Z $GPRMC,000109.226,A,2200.2505,S,01756.4789,W,009.8,218.4,161294,24.9,W*46
2014-08-01T00:01:11.125000Z $GPZDA,000111.00,16,12,1994,00,00,*4A
2014-08-01T00:01:11.242000Z $GPGGA,000110.226,2200.2526,S,01756.4808,W,1,06,1.3,033.6,M,-002.6,M,,*4C
2014-08-01T00:01:11.242000Z $GPGLL,2200.2526,S,01756.4808,W,000110.226,A*3F
2014-08-01T00:01:11.242000Z $GPVTG,219.1,T,244.0,M,009.7,N,018.0,K*40
2014-08-01T00:01:11.307000Z $GPRMC,000110.226,A,2200.2526,S,01756.4808,W,009.7,219.1,161294,24.9,W*42
2014-08-01T00:01:12.125000Z $GPZDA,000112.00,16,12,1994,00,00,*49
2014-08-01T00:01:12.242000Z $GPGGA,000111.226,2200.2546,S,01756.4825,W,1,06,1.3,033.8,M,-002.6,M,,*4A
2014-08-01T00:01:12.242000Z $GPGLL,2200.2546,S,01756.4825,W,000111.226,A*37
2014-08-01T00:01:12.242000Z $GPVTG,219.5,T,244.3,M,009.0,N,016.7,K*49
2014-08-01T00:01:12.306000Z $GPRMC,000111.226,A,2200.2546,S,01756.4825,W,009.0,219.5,161294,24.9,W*49
2014-08-01T00:01:13.125000Z $GPZDA,000113.00,16,12,1994,00,00,*48
2014-08-01T00:01:13.242000Z $GPGGA,000112.226,2200.2564,S,01756.4842,W,1,06,1.3,034.0,M,-002.6,M,,*47
2014-08-01T00:01:13.242000Z $GPGLL,2200.2564,S,01756.4842,W,000112.226,A*35
2014-08-01T00:01:13.242000Z $GPVTG,218.7,T,243.6,M,008.7,N,016.1,K*48
2014-08-01T00:01:13.306000Z $GPRMC,000112.226,A,2200.2564,S,01756.4842,W,008.7,218.7,161294,24.9,W*4E
2014-08-01T00:01:14.125000Z $GPZDA,000114.00,16,12,1994,00,00,*4F
2014-08-01T00:01:14.242000Z $GPGGA,000113.226,2200.2584,S,01756.4859,W,1,06,1.3,034.0,M,-002.6,M,,*42
2014-08-01T00:01:14.242000Z $GPGLL,2200.2584,S,01756.4859,W,000113.226,A*30
2014-08-01T00:01:14.242000Z $GPVTG,217.8,T,242.7,M,009.6,N,017.8,K*40
2014-08-01T00:01:14.306000Z $GPRMC,000113.226,A,2200.2584,S,01756.4859,W,009.6,217.8,161294,24.9,W*4B
2014-08-01T00:01:15.126000Z $GPZDA,000115.00,16,12,1994,00,00,*4E
2014-08-01T00:01:15.242000Z $GPGGA,000114.226,2200.2608,S,01756.4877,W,1,06,1.3,033.3,M,-002.6,M,,*4A
2014-08-01T00:01:15.242000Z $GPGLL,2200.2608,S,01756.4877,W,000114.226,A*3C
2014-08-01T00:01:15.242000Z $GPVTG,217.0,T,241.9,M,010.7,N,019.8,K*42
2014-08-01T00:01:15.306000Z $GPRMC,000114.226,A,2200.2608,S,01756.4877,W,010.7,217.0,161294,24.9,W*46
2014-08-01T00:01:16.125000Z $GPZDA,000116.00,16,12,1994,00,00,*4D
2014-08-01T00:01:16.242000Z $GPGGA,000115.226,2200.2632,S,01756.4897,W,1,06,1.3,032.8,M,-002.6,M,,*46
2014-08-01T00:01:16.242000Z $GPGLL,2200.2632,S,01756.4897,W,000115.226,A*3A
2014-08-01T00:01:16.242000Z $GPVTG,219.7,T,244.6,M,010.3,N,019.1,K*4C
2014-08-01T00:01:16.306000Z $GPRMC,000115.226,A,2200.2632,S,01756.4897,W,010.3,219.7,161294,24.9,W*4D
2014-08-01T00:01:17.125000Z $GPZDA,000117.00,16,12,1994,00,00,*4C
2014-08-01T00:01:17.242000Z $GPGGA,000116.226,2200.2652,S,01756.4916,W,1,06,1.3,032.4,M,-002.6,M,,*47
2014-08-01T00:01:17.242000Z $GPGLL,2200.2652,S,01756.4916,W,000116.226,A*37
2014-08-01T00:01:17.242000Z $GPVTG,222.0,T,246.8,M,008.8,N,016.4,K*47
2014-08-01T00:01:17.306000Z $GPRMC,000116.226,A,2200.2652,S,01756.4916,W,008.8,222.0,161294,24.9,W*4D
2014-08-01T00:01:18.125000Z $GPZDA,000118.00,16,12,1994,00,00,*43
2014-08-01T00:01:18.242000Z $GPGGA,000117.226,2200.2668,S,01756.4933,W,1,06,1.3,032.8,M,-002.6,M,,*44
2014-08-01T00:01:18.242000Z $GPGLL,2200.2668,S,01756.4933,W,000117.226,A*38
2014-08-01T00:01:18.242000Z $GPVTG,223.1,T,247.9,M,007.8,N,014.5,K*4B
2014-08-01T00:01:18.306000Z $GPRMC,000117.226,A,2200.2668,S,01756.4933,W,007.8,223.1,161294,24.9,W*4D
2014-08-01T00:01:19.125000Z $GPZDA,000119.00,16,12,1994,00,00,*42
2014-08-01T00:01:19.242000Z $GPGGA,000118.226,2200.2684,S,01756.4949,W,1,06,1.3,033.3,M,-002.6,M,,*4E
2014-08-01T00:01:19.242000Z $GPGLL,2200.2684,S,01756.4949,W,000118.226,A*38
2014-08-01T00:01:19.242000Z $GPVTG,221.6,T,246.4,M,008.4,N,015.6,K*43
2014-08-01T00:01:19.306000Z $GPRMC,000118.226,A,2200.2684,S,01756.4949,W,008.4,221.6,161294,24.9,W*4B
2014-08-01T00:01:20.140000Z $GPGGA,000119.226,2200.2704,S,01756.4967,W,1,06,1.3,033.9,M,-002.6,M,,*40
2014-08-01T00:01:20.256000Z $GPGLL,2200.2704,S,01756.4967,W,000119.226,A*3C
2014-08-01T00:01:20.256000Z $GPVTG,221.1,T,246.0,M,009.9,N,018.3,K*44
2014-08-01T00:01:20.321000Z $GPRMC,000119.226,A,2200.2704,S,01756.4967,W,009.9,221.1,161294,24.9,W*44
2014-08-01T00:01:20.321000Z $GPZDA,000120.00,16,12,1994,00,00,*48
2014-08-01T00:01:21.125000Z $GPZDA,000121.00,16,12,1994,00,00,*49
2014-08-01T00:01:21.242000Z $GPGGA,000120.226,2200.2725,S,01756.4987,W,1,06,1.3,034.4,M,-002.6,M,,*4D
2014-08-01T00:01:21.242000Z $GPGLL,2200.2725,S,01756.4987,W,000120.226,A*3B
2014-08-01T00:01:21.242000Z $GPVTG,218.5,T,243.3,M,010.1,N,018.7,K*48
2014-08-01T00:01:21.306000Z $GPRMC,000120.226,A,2200.2725,S,01756.4987,W,010.1,218.5,161294,24.9,W*4D
2014-08-01T00:01:22.140000Z $GPGGA,000121.226,2200.2746,S,01756.5005,W,1,06,1.3,034.6,M,-002.6,M,,*49
2014-08-01T00:01:22.257000Z $GPGLL,2200.2746,S,01756.5005,W,000121.226,A*3D
2014-08-01T00:01:22.257000Z $GPVTG,215.5,T,240.4,M,009.4,N,017.4,K*40
2014-08-01T00:01:22.321000Z $GPRMC,000121.226,A,2200.2746,S,01756.5005,W,009.4,215.5,161294,24.9,W*4B
2014-08-01T00:01:22.321000Z $GPZDA,000122.00,16,12,1994,00,00,*4A
2014-08-01T00:01:23.125000Z $GPZDA,000123.00,16,12,1994,00,00,*4B
2014-08-01T00:01:23.242000Z $GPGGA,000122.226,2200.2767,S,01756.5020,W,1,06,1.3,034.7,M,-002.6,M,,*4F
2014-08-01T00:01:23.242000Z $GPGLL,2200.2767,S,01756.5020,W,000122.226,A*3A
2014-08-01T00:01:23.242000Z $GPVTG,215.2,T,240.1,M,009.1,N,016.9,K*4B
2014-08-01T00:01:23.306000Z $GPRMC,000122.226,A,2200.2767,S,01756.5020,W,009.1,215.2,161294,24.9,W*4E
2014-08-01T00:01:24.125000Z $GPZDA,000124.00,16,12,1994,00,00,*4C
2014-08-01T00:01:24.242000Z $GPGGA,000123.226,2200.2789,S,01756.5037,W,1,06,1.3,034.4,M,-002.6,M,,*4B
2014-08-01T00:01:24.242000Z $GPGLL,2200.2789,S,01756.5037,W,000123.226,A*3D
2014-08-01T00:01:24.242000Z $GPVTG,217.4,T,242.2,M,009.8,N,018.1,K*41
2014-08-01T00:01:24.306000Z $GPRMC,000123.226,A,2200.2789,S,01756.5037,W,009.8,217.4,161294,24.9,W*44
2014-08-01T00:01:25.125000Z $GPZDA,000125.00,16,12,1994,00,00,*4D
2014-08-01T00:01:25.242000Z $GPGGA,000124.226,2200.2811,S,01756.5055,W,1,06,1.3,034.2,M,-002.6,M,,*40
2014-08-01T00:01:25.242000Z $GPGLL,2200.2811,S,01756.5055,W,000124.226,A*30
2014-08-01T00:01:25.242000Z $GPVTG,220.4,T,245.3,M,009.5,N,017.6,K*46
2014-08-01T00:01:25.306000Z $GPRMC,000124.226,A,2200.2811,S,01756.5055,W,009.5,220.4,161294,24.9,W*40
2014-08-01T00:01:26.140000Z $GPGGA,000125.226,2200.2829,S,01756.5072,W,1,06,1.3,034.0,M,-002.6,M,,*4D
2014-08-01T00:01:26.257000Z $GPGLL,2200.2829,S,01756.5072,W,000125.226,A*3F
2014-08-01T00:01:26.257000Z $GPVTG,221.8,T,246.6,M,008.3,N,015.4,K*4A
2014-08-01T00:01:26.321000Z $GPRMC,000125.226,A,2200.2829,S,01756.5072,W,008.3,221.8,161294,24.9,W*45
2014-08-01T00:01:26.321000Z $GPZDA,000126.00,16,12,1994,00,00,*4E
2014-08-01T00:01:27.125000Z $GPZDA,000127.00,16,12,1994,00,00,*4F
2014-08-01T00:01:27.242000Z $GPGGA,000126.226,2200.2846,S,01756.5089,W,1,06,1.3,033.8,M,-002.6,M,,*4C
2014-08-01T00:01:27.242000Z $GPGLL,2200.2846,S,01756.5089,W,000126.226,A*31
2014-08-01T00:01:27.242000Z $GPVTG,222.9,T,247.8,M,008.1,N,014.9,K*49
2014-08-01T00:01:27.306000Z $GPRMC,000126.226,A,2200.2846,S,01756.5089,W,008.1,222.9,161294,24.9,W*4B
2014-08-01T00:01:28.125000Z $GPZDA,000128.00,16,12,1994,00,00,*40
2014-08-01T00:01:28.242000Z $GPGGA,000127.226,2200.2863,S,01756.5106,W,1,06,1.3,033.7,M,-002.6,M,,*43
2014-08-01T00:01:28.242000Z $GPGLL,2200.2863,S,01756.5106,W,000127.226,A*31
2014-08-01T00:01:28.242000Z $GPVTG,222.0,T,246.9,M,009.5,N,017.6,K*49
2014-08-01T00:01:28.306000Z $GPRMC,000127.226,A,2200.2863,S,01756.5106,W,009.5,222.0,161294,24.9,W*47
2014-08-01T00:01:29.140000Z $GPGGA,000128.226,2200.2885,S,01756.5127,W,1,06,1.3,033.2,M,-002.6,M,,*42
2014-08-01T00:01:29.257000Z $GPGLL,2200.2885,S,01756.5127,W,000128.226,A*35
2014-08-01T00:01:29.257000Z $GPVTG,220.3,T,245.1,M,011.4,N,021.1,K*49
2014-08-01T00:01:29.321000Z $GPRMC,000128.226,A,2200.2885,S,01756.5127,W,011.4,220.3,161294,24.9,W*4A
2014-08-01T00:01:29.321000Z $GPZDA,000129.00,16,12,1994,00,00,*41
2014-08-01T00:01:30.125000Z $GPZDA,000130.00,16,12,1994,00,00,*49
2014-08-01T00:01:30.242000Z $GPGGA,000129.226,2200.2911,S,01756.5149,W,1,06,1.3,032.6,M,-002.6,M,,*42
2014-08-01T00:01:30.242000Z $GPGLL,2200.2911,S,01756.5149,W,000129.226,A*30
2014-08-01T00:01:30.242000Z $GPVTG,217.9,T,242.8,M,011.3,N,021.0,K*4F
2014-08-01T00:01:30.306000Z $GPRMC,000129.226,A,2200.2911,S,01756.5149,W,011.3,217.9,161294,24.9,W*46
2014-08-01T00:01:31.125000Z $GPZDA,000131.00,16,12,1994,00,00,*48
2014-08-01T00:01:31.242000Z $GPGGA,000130.226,2200.2934,S,01756.5167,W,1,06,1.3,032.1,M,-002.6,M,,*46
2014-08-01T00:01:31.242000Z $GPGLL,2200.2934,S,01756.5167,W,000130.226,A*33
2014-08-01T00:01:31.243000Z $GPVTG,214.3,T,239.2,M,009.0,N,016.6,K*48
2014-08-01T00:01:31.306000Z $GPRMC,000130.226,A,2200.2934,S,01756.5167,W,009.0,214.3,161294,24.9,W*46
2014-08-01T00:01:32.141000Z $GPGGA,000131.226,2200.2952,S,01756.5179,W,1,06,1.3,032.3,M,-002.6,M,,*4A
2014-08-01T00:01:32.258000Z $GPGLL,2200.2952,S,01756.5179,W,000131.226,A*3D
2014-08-01T00:01:32.258000Z $GPVTG,211.0,T,235.8,M,006.9,N,012.9,K*45
2014-08-01T00:01:32.322000Z $GPRMC,000131.226,A,2200.2952,S,01756.5179,W,006.9,211.0,161294,24.9,W*48
2014-08-01T00:01:32.322000Z $GPZDA,000132.00,16,12,1994,00,00,*4B
2014-08-01T00:01:33.125000Z $GPZDA,000133.00,16,12,1994,00,00,*4A
2014-08-01T00:01:33.242000Z $GPGGA,000132.226,2200.2968,S,01756.5190,W,1,06,1.3,033.2,M,-002.6,M,,*47
2014-08-01T00:01:33.242000Z $GPGLL,2200.2968,S,01756.5190,W,000132.226,A*30
2014-08-01T00:01:33.242000Z $GPVTG,217.0,T,241.9,M,006.9,N,012.9,K*41
2014-08-01T00:01:33.306000Z $GPRMC,000132.226,A,2200.2968,S,01756.5190,W,006.9,217.0,161294,24.9,W*43
2014-08-01T00:01:34.125000Z $GPZDA,000134.00,16,12,1994,00,00,*4D
2014-08-01T00:01:34.242000Z $GPGGA,000133.226,2200.2984,S,01756.5207,W,1,06,1.3,034.4,M,-002.6,M,,*48
2014-08-01T00:01:34.242000Z $GPGLL,2200.2984,S,01756.5207,W,000133.226,A*3E
2014-08-01T00:01:34.242000Z $GPVTG,224.7,T,249.6,M,009.1,N,016.9,K*42
2014-08-01T00:01:34.306000Z $GPRMC,000133.226,A,2200.2984,S,01756.5207,W,009.1,224.7,161294,24.9,W*4D
2014-08-01T00:01:35.140000Z $GPGGA,000134.226,2200.3005,S,01756.5229,W,1,06,1.3,035.3,M,-002.6,M,,*44
2014-08-01T00:01:35.257000Z $GPGLL,2200.3005,S,01756.5229,W,000134.226,A*34
2014-08-01T00:01:35.257000Z $GPVTG,226.2,T,251.0,M,011.5,N,021.4,K*4E
2014-08-01T00:01:35.321000Z $GPRMC,000134.226,A,2200.3005,S,01756.5229,W,011.5,226.2,161294,24.9,W*4D
2014-08-01T00:01:35.321000Z $GPZDA,000135.00,16,12,1994,00,00,*4C
2014-08-01T00:01:36.126000Z $GPZDA,000136.00,16,12,1994,00,00,*4F
2014-08-01T00:01:36.242000Z $GPGGA,000135.226,2200.3027,S,01756.5255,W,1,06,1.3,035.5,M,-002.6,M,,*48
2014-08-01T00:01:36.242000Z $GPGLL,2200.3027,S,01756.5255,W,000135.226,A*3E
2014-08-01T00:01:36.242000Z $GPVTG,226.8,T,251.7,M,011.4,N,021.1,K*47
2014-08-01T00:01:36.306000Z $GPRMC,000135.226,A,2200.3027,S,01756.5255,W,011.4,226.8,161294,24.9,W*4C
2014-08-01T00:01:37.125000Z $GPZDA,000137.00,16,12,1994,00,00,*4E
2014-08-01T00:01:37.242000Z $GPGGA,000136.226,2200.3047,S,01756.5276,W,1,06,1.3,035.0,M,-002.6,M,,*49
2014-08-01T00:01:37.242000Z $GPGLL,2200.3047,S,01756.5276,W,000136.226,A*3A
2014-08-01T00:01:37.242000Z $GPVTG,225.2,T,250.1,M,009.1,N,016.9,K*49
2014-08-01T00:01:37.306000Z $GPRMC,000136.226,A,2200.3047,S,01756.5276,W,009.1,225.2,161294,24.9,W*4D
2014-08-01T00:01:38.125000Z $GPZDA,000138.00,16,12,1994,00,00,*41
2014-08-01T00:01:38.242000Z $GPGGA,000137.226,2200.3062,S,01756.5292,W,1,06,1.3,034.5,M,-002.6,M,,*41
2014-08-01T00:01:38.242000Z $GPGLL,2200.3062,S,01756.5292,W,000137.226,A*36
2014-08-01T00:01:38.242000Z $GPVTG,222.0,T,246.9,M,006.7,N,012.5,K*42
2014-08-01T00:01:38.306000Z $GPRMC,000137.226,A,2200.3062,S,01756.5292,W,006.7,222.0,161294,24.9,W*4D
2014-08-01T00:01:39.125000Z $GPZDA,000139.00,16,12,1994,00,00,*40
2014-08-01T00:01:39.242000Z $GPGGA,000138.226,2200.3077,S,01756.5304,W,1,06,1.3,034.3,M,-002.6,M,,*42
2014-08-01T00:01:39.242000Z $GPGLL,2200.3077,S,01756.5304,W,000138.226,A*33
2014-08-01T00:01:39.243000Z $GPVTG,214.0,T,238.9,M,007.1,N,013.1,K*4C
2014-08-01T00:01:39.306000Z $GPRMC,000138.226,A,2200.3077,S,01756.5304,W,007.1,214.0,161294,24.9,W*4A
2014-08-01T00:01:40.125000Z $GPZDA,000140.00,16,12,1994,00,00,*4E
2014-08-01T00:01:40.242000Z $GPGGA,000139.226,2200.3096,S,01756.5318,W,1,06,1.3,033.9,M,-002.6,M,,*4C
2014-08-01T00:01:40.242000Z $GPGLL,2200.3096,S,01756.5318,W,000139.226,A*30
2014-08-01T00:01:40.242000Z $GPVTG,213.1,T,237.9,M,009.2,N,017.1,K*4C
2014-08-01T00:01:40.306000Z $GPRMC,000139.226,A,2200.3096,S,01756.5318,W,009.2,213.1,161294,24.9,W*42
2014-08-01T00:01:41.125000Z $GPZDA,000141.00,16,12,1994,00,00,*4F
2014-08-01T00:01:41.242000Z $GPGGA,000140.226,2200.3121,S,01756.5335,W,1,06,1.3,033.3,M,-002.6,M,,*4A
2014-08-01T00:01:41.242000Z $GPGLL,2200.3121,S,01756.5335,W,000140.226,A*3C
2014-08-01T00:01:41.242000Z $GPVTG,214.6,T,239.5,M,011.5,N,021.2,K*46
2014-08-01T00:01:41.306000Z $GPRMC,000140.226,A,2200.3121,S,01756.5335,W,011.5,214.6,161294,24.9,W*40
2014-08-01T00:01:42.140000Z $GPGGA,000141.226,2200.3148,S,01756.5356,W,1,06,1.3,032.5,M,-002.6,M,,*46
2014-08-01T00:01:42.257000Z $GPGLL,2200.3148,S,01756.5356,W,000141.226,A*37
2014-08-01T00:01:42.257000Z $GPVTG,215.9,T,240.8,M,011.4,N,021.1,K*49
2014-08-01T00:01:42.321000Z $GPRMC,000141.226,A,2200.3148,S,01756.5356,W,011.4,215.9,161294,24.9,W*44
2014-08-01T00:01:42.321000Z $GPZDA,000142.00,16,12,1994,00,00,*4C
2014-08-01T00:01:43.125000Z $GPZDA,000143.00,16,12,1994,00,00,*4D
2014-08-01T00:01:43.242000Z $GPGGA,000142.226,2200.3170,S,01756.5374,W,1,06,1.3,031.8,M,-002.6,M,,*40
2014-08-01T00:01:43.242000Z $GPGLL,2200.3170,S,01756.5374,W,000142.226,A*3F
2014-08-01T00:01:43.242000Z $GPVTG,216.8,T,241.7,M,009.0,N,016.6,K*4B
2014-08-01T00:01:43.306000Z $GPRMC,000142.226,A,2200.3170,S,01756.5374,W,009.0,216.8,161294,24.9,W*43
2014-08-01T00:01:44.125000Z $GPZDA,000144.00,16,12,1994,00,00,*4A
2014-08-01T00:01:44.242000Z $GPGGA,000143.226,2200.3187,S,01756.5387,W,1,06,1.3,032.0,M,-002.6,M,,*4E
2014-08-01T00:01:44.242000Z $GPGLL,2200.3187,S,01756.5387,W,000143.226,A*3A
2014-08-01T00:01:44.242000Z $GPVTG,219.0,T,243.8,M,006.7,N,012.4,K*4F
2014-08-01T00:01:44.306000Z $GPRMC,000143.226,A,2200.3187,S,01756.5387,W,006.7,219.0,161294,24.9,W*49
2014-08-01T00:01:45.125000Z $GPZDA,000145.00,16,12,1994,00,00,*4B
2014-08-01T00:01:45.242000Z $GPGGA,000144.226,2200.3200,S,01756.5400,W,1,06,1.3,032.9,M,-002.6,M,,*44
2014-08-01T00:01:45.242000Z $GPGLL,2200.3200,S,01756.5400,W,000144.226,A*39
2014-08-01T00:01:45.242000Z $GPVTG,221.5,T,246.4,M,006.2,N,011.5,K*4F
2014-08-01T00:01:45.306000Z $GPRMC,000144.226,A,2200.3200,S,01756.5400,W,006.2,221.5,161294,24.9,W*41
2014-08-01T00:01:46.125000Z $GPZDA,000146.00,16,12,1994,00,00,*48
2014-08-01T00:01:46.242000Z $GPGGA,000145.226,2200.3214,S,01756.5414,W,1,06,1.3,034.3,M,-002.6,M,,*49
2014-08-01T00:01:46.242000Z $GPGLL,2200.3214,S,01756.5414,W,000145.226,A*38
2014-08-01T00:01:46.242000Z $GPVTG,224.3,T,249.2,M,007.6,N,014.2,K*42
2014-08-01T00:01:46.306000Z $GPRMC,000145.226,A,2200.3214,S,01756.5414,W,007.6,224.3,161294,24.9,W*46
2014-08-01T00:01:47.125000Z $GPZDA,000147.00,16,12,1994,00,00,*49
2014-08-01T00:01:47.242000Z $GPGGA,000146.226,2200.3231,S,01756.5433,W,1,06,1.3,035.8,M,-002.6,M,,*42
2014-08-01T00:01:47.242000Z $GPGLL,2200.3231,S,01756.5433,W,000146.226,A*39
2014-08-01T00:01:47.242000Z $GPVTG,226.2,T,251.1,M,010.1,N,018.6,K*42
2014-08-01T00:01:47.306000Z $GPRMC,000146.226,A,2200.3231,S,01756.5433,W,010.1,226.2,161294,24.9,W*45
2014-08-01T00:01:48.141000Z $GPGGA,000147.226,2200.3252,S,01756.5457,W,1,06,1.3,036.1,M,-002.6,M,,*4E
2014-08-01T00:01:48.257000Z $GPGLL,2200.3252,S,01756.5457,W,000147.226,A*3F
2014-08-01T00:01:48.257000Z $GPVTG,225.3,T,250.2,M,011.8,N,021.8,K*4E
2014-08-01T00:01:48.322000Z $GPRMC,000147.226,A,2200.3252,S,01756.5457,W,011.8,225.3,161294,24.9,W*49
2014-08-01T00:01:48.322000Z $GPZDA,000148.00,16,12,1994,00,00,*46
2014-08-01T00:01:49.126000Z $GPZDA,000149.00,16,12,1994,00,00,*47
2014-08-01T00:01:49.242000Z $GPGGA,000148.226,2200.3276,S,01756.5481,W,1,06,1.3,035.5,M,-002.6,M,,*4B
2014-08-01T00:01:49.242000Z $GPGLL,2200.3276,S,01756.5481,W,000148.226,A*3D
2014-08-01T00:01:49.242000Z $GPVTG,223.4,T,248.2,M,011.2,N,020.7,K*42
2014-08-01T00:01:49.306000Z $GPRMC,000148.226,A,2200.3276,S,01756.5481,W,011.2,223.4,161294,24.9,W*40
2014-08-01T00:01:50.125000Z $GPZDA,000150.00,16,12,1994,00,00,*4F
2014-08-01T00:01:50.242000Z $GPGGA,000149.226,2200.3297,S,01756.5500,W,1,06,1.3,034.0,M,-002.6,M,,*49
2014-08-01T00:01:50.242000Z $GPGLL,2200.3297,S,01756.5500,W,000149.226,A*3B
2014-08-01T00:01:50.242000Z $GPVTG,218.2,T,243.1,M,008.8,N,016.4,K*40
2014-08-01T00:01:50.306000Z $GPRMC,000149.226,A,2200.3297,S,01756.5500,W,008.8,218.2,161294,24.9,W*4A
2014-08-01T00:01:51.125000Z $GPZDA,000151.00,16,12,1994,00,00,*4E
2014-08-01T00:01:51.242000Z $GPGGA,000150.226,2200.3314,S,01756.5514,W,1,06,1.3,033.1,M,-002.6,M,,*48
2014-08-01T00:01:51.242000Z $GPGLL,2200.3314,S,01756.5514,W,000150.226,A*3C
2014-08-01T00:01:51.242000Z $GPVTG,214.5,T,239.3,M,007.1,N,013.1,K*42
2014-08-01T00:01:51.306000Z $GPRMC,000150.226,A,2200.3314,S,01756.5514,W,007.1,214.5,161294,24.9,W*40
2014-08-01T00:01:52.125000Z $GPZDA,000152.00,16,12,1994,00,00,*4D
2014-08-01T00:01:52.242000Z $GPGGA,000151.226,2200.3330,S,01756.5526,W,1,06,1.3,032.7,M,-002.6,M,,*49
2014-08-01T00:01:52.242000Z $GPGLL,2200.3330,S,01756.5526,W,000151.226,A*3A
2014-08-01T00:01:52.242000Z $GPVTG,215.8,T,240.7,M,007.5,N,014.0,K*46
2014-08-01T00:01:52.307000Z $GPRMC,000151.226,A,2200.3330,S,01756.5526,W,007.5,215.8,161294,24.9,W*4E
2014-08-01T00:01:53.126000Z $GPZDA,000153.00,16,12,1994,00,00,*4C
2014-08-01T00:01:53.242000Z $GPGGA,000152.226,2200.3349,S,01756.5541,W,1,06,1.3,032.3,M,-002.6,M,,*41
2014-08-01T00:01:53.242000Z $GPGLL,2200.3349,S,01756.5541,W,000152.226,A*36
2014-08-01T00:01:53.242000Z $GPVTG,216.7,T,241.5,M,009.2,N,017.1,K*42
2014-08-01T00:01:53.306000Z $GPRMC,000152.226,A,2200.3349,S,01756.5541,W,009.2,216.7,161294,24.9,W*47
2014-08-01T00:01:54.125000Z $GPZDA,000154.00,16,12,1994,00,00,*4B
2014-08-01T00:01:54.242000Z $GPGGA,000153.226,2200.3371,S,01756.5558,W,1,06,1.3,032.5,M,-002.6,M,,*45
2014-08-01T00:01:54.242000Z $GPGLL,2200.3371,S,01756.5558,W,000153.226,A*34
2014-08-01T00:01:54.242000Z $GPVTG,213.8,T,238.7,M,009.7,N,017.9,K*49
2014-08-01T00:01:54.306000Z $GPRMC,000153.226,A,2200.3371,S,01756.5558,W,009.7,213.8,161294,24.9,W*4A
2014-08-01T00:01:55.125000Z $GPZDA,000155.00,16,12,1994,00,00,*4A
2014-08-01T00:01:55.242000Z $GPGGA,000154.226,2200.3392,S,01756.5573,W,1,06,1.3,032.9,M,-002.6,M,,*4A
2014-08-01T00:01:55.242000Z $GPGLL,2200.3392,S,01756.5573,W,000154.226,A*37
2014-08-01T00:01:55.242000Z $GPVTG,213.2,T,238.1,M,008.4,N,015.6,K*4A
2014-08-01T00:01:55.306000Z $GPRMC,000154.226,A,2200.3392,S,01756.5573,W,008.4,213.2,161294,24.9,W*41
2014-08-01T00:01:56.125000Z $GPZDA,000156.00,16,12,1994,00,00,*49
2014-08-01T00:01:56.242000Z $GPGGA,000155.226,2200.3410,S,01756.5587,W,1,06,1.3,033.7,M,-002.6,M,,*42
2014-08-01T00:01:56.242000Z $GPGLL,2200.3410,S,01756.5587,W,000155.226,A*30
2014-08-01T00:01:56.242000Z $GPVTG,219.7,T,244.6,M,007.6,N,014.0,K*43
2014-08-01T00:01:56.306000Z $GPRMC,000155.226,A,2200.3410,S,01756.5587,W,007.6,219.7,161294,24.9,W*44
2014-08-01T00:01:57.125000Z $GPZDA,000157.00,16,12,1994,00,00,*48
2014-08-01T00:01:57.242000Z $GPGGA,000156.226,2200.3426,S,01756.5603,W,1,06,1.3,034.9,M,-002.6,M,,*42
2014-08-01T00:01:57.242000Z $GPGLL,2200.3426,S,01756.5603,W,000156.226,A*39
2014-08-01T00:01:57.242000Z $GPVTG,226.9,T,251.7,M,008.3,N,015.3,K*4C
2014-08-01T00:01:57.307000Z $GPRMC,000156.226,A,2200.3426,S,01756.5603,W,008.3,226.9,161294,24.9,W*45
2014-08-01T00:01:58.141000Z $GPGGA,000157.226,2200.3444,S,01756.5623,W,1,06,1.3,035.7,M,-002.6,M,,*4A
2014-08-01T00:01:58.258000Z $GPGLL,2200.3444,S,01756.5623,W,000157.226,A*3E
2014-08-01T00:01:58.258000Z $GPVTG,227.6,T,252.4,M,009.9,N,018.3,K*44
2014-08-01T00:01:58.322000Z $GPRMC,000157.226,A,2200.3444,S,01756.5623,W,009.9,227.6,161294,24.9,W*47
2014-08-01T00:01:58.322000Z $GPZDA,000158.00,16,12,1994,00,00,*47
2014-08-01T00:01:59.126000Z $GPZDA,000159.00,16,12,1994,00,00,*46
2014-08-01T00:01:59.242000Z $GPGGA,000158.226,2200.3464,S,01756.5646,W,1,06,1.3,035.6,M,-002.6,M,,*45
2014-08-01T00:01:59.242000Z $GPGLL,2200.3464,S,01756.5646,W,000158.226,A*30
2014-08-01T00:01:59.242000Z $GPVTG,223.7,T,248.6,M,011.1,N,020.5,K*44
2014-08-01T00:01:59.306000Z $GPRMC,000158.226,A,2200.3464,S,01756.5646,W,011.1,223.7,161294,24.9,W*4D
2014-08-01T00:02:00.124000Z $GPZDA,000200.00,16,12,1994,00,00,*49
2014-08-01T00:02:00.241000Z $GPGGA,000159.226,2200.3486,S,01756.5668,W,1,06,1.3,034.4,M,-002.6,M,,*47
2014-08-01T00:02:00.241000Z $GPGLL,2200.3486,S,01756.5668,W,000159.226,A*31
2014-08-01T00:02:00.241000Z $GPVTG,220.3,T,245.2,M,010.6,N,019.5,K*46
2014-08-01T00:02:00.305000Z $GPRMC,000159.226,A,2200.3486,S,01756.5668,W,010.6,220.3,161294,24.9,W*4D
2014-08-01T00:02:01.139000Z $GPGGA,000200.226,2200.3507,S,01756.5685,W,1,06,1.3,032.9,M,-002.6,M,,*48
2014-08-01T00:02:01.256000Z $GPGLL,2200.3507,S,01756.5685,W,000200.226,A*35
2014-08-01T00:02:01.256000Z $GPVTG,217.2,T,242.1,M,008.5,N,015.7,K*43
2014-08-01T00:02:01.320000Z $GPRMC,000200.226,A,2200.3507,S,01756.5685,W,008.5,217.2,161294,24.9,W*46
2014-08-01T00:02:01.320000Z $GPZDA,000201.00,16,12,1994,00,00,*48
2014-08-01T00:02:02.125000Z $GPZDA,000202.00,16,12,1994,00,00,*4B
2014-08-01T00:02:02.242000Z $GPGGA,000201.226,2200.3523,S,01756.5698,W,1,06,1.3,032.1,M,-002.6,M,,*4B
2014-08-01T00:02:02.242000Z $GPGLL,2200.3523,S,01756.5698,W,000201.226,A*3E
2014-08-01T00:02:02.242000Z $GPVTG,214.6,T,239.5,M,006.7,N,012.4,K*44
2014-08-01T00:02:02.306000Z $GPRMC,000201.226,A,2200.3523,S,01756.5698,W,006.7,214.6,161294,24.9,W*46
2014-08-01T00:02:03.125000Z $GPZDA,000203.00,16,12,1994,00,00,*4A
2014-08-01T00:02:03.241000Z $GPGGA,000202.226,2200.3539,S,01756.5709,W,1,06,1.3,032.1,M,-002.6,M,,*4A
2014-08-01T00:02:03.241000Z $GPGLL,2200.3539,S,01756.5709,W,000202.226,A*3F
2014-08-01T00:02:03.242000Z $GPVTG,211.7,T,236.6,M,007.1,N,013.2,K*4C
2014-08-01T00:02:03.306000Z $GPRMC,000202.226,A,2200.3539,S,01756.5709,W,007.1,211.7,161294,24.9,W*44
2014-08-01T00:02:04.140000Z $GPGGA,000203.226,2200.3558,S,01756.5722,W,1,06,1.3,032.6,M,-002.6,M,,*42
2014-08-01T00:02:04.257000Z $GPGLL,2200.3558,S,01756.5722,W,000203.226,A*30
2014-08-01T00:02:04.257000Z $GPVTG,213.8,T,238.7,M,008.7,N,016.2,K*42
2014-08-01T00:02:04.321000Z $GPRMC,000203.226,A,2200.3558,S,01756.5722,W,008.7,213.8,161294,24.9,W*4F
2014-08-01T00:02:04.321000Z $GPZDA,000204.00,16,12,1994,00,00,*4D
2014-08-01T00:02:05.125000Z $GPZDA,000205.00,16,12,1994,00,00,*4C
2014-08-01T00:02:05.242000Z $GPGGA,000204.226,2200.3579,S,01756.5739,W,1,06,1.3,033.3,M,-002.6,M,,*48
2014-08-01T00:02:05.242000Z $GPGLL,2200.3579,S,01756.5739,W,000204.226,A*3E
2014-08-01T00:02:05.242000Z $GPVTG,217.7,T,242.5,M,010.1,N,018.7,K*42
2014-08-01T00:02:05.306000Z $GPRMC,000204.226,A,2200.3579,S,01756.5739,W,010.1,217.7,161294,24.9,W*45
2014-08-01T00:02:06.125000Z $GPZDA,000206.00,16,12,1994,00,00,*4F
2014-08-01T00:02:06.241000Z $GPGGA,000205.226,2200.3602,S,01756.5758,W,1,06,1.3,034.0,M,-002.6,M,,*45
2014-08-01T00:02:06.242000Z $GPGLL,2200.3602,S,01756.5758,W,000205.226,A*37
2014-08-01T00:02:06.242000Z $GPVTG,220.2,T,245.1,M,010.1,N,018.7,K*40
2014-08-01T00:02:06.306000Z $GPRMC,000205.226,A,2200.3602,S,01756.5758,W,010.1,220.2,161294,24.9,W*4D
2014-08-01T00:02:07.140000Z $GPGGA,000206.226,2200.3622,S,01756.5777,W,1,06,1.3,034.5,M,-002.6,M,,*4C
2014-08-01T00:02:07.257000Z $GPGLL,2200.3622,S,01756.5777,W,000206.226,A*3B
2014-08-01T00:02:07.257000Z $GPVTG,222.3,T,247.2,M,009.2,N,017.0,K*41
2014-08-01T00:02:07.321000Z $GPRMC,000206.226,A,2200.3622,S,01756.5777,W,009.2,222.3,161294,24.9,W*49
2014-08-01T00:02:07.321000Z $GPZDA,000207.00,16,12,1994,00,00,*4E
2014-08-01T00:02:08.125000Z $GPZDA,000208.00,16,12,1994,00,00,*41
2014-08-01T00:02:08.242000Z $GPGGA,000207.226,2200.3640,S,01756.5795,W,1,06,1.3,035.0,M,-002.6,M,,*41
2014-08-01T00:02:08.242000Z $GPGLL,2200.3640,S,01756.5795,W,000207.226,A*32
2014-08-01T00:02:08.242000Z $GPVTG,224.3,T,249.2,M,008.7,N,016.2,K*4E
2014-08-01T00:02:08.306000Z $GPRMC,000207.226,A,2200.3640,S,01756.5795,W,008.7,224.3,161294,24.9,W*42
2014-08-01T00:02:09.125000Z $GPZDA,000209.00,16,12,1994,00,00,*40
2014-08-01T00:02:09.242000Z $GPGGA,000208.226,2200.3657,S,01756.5814,W,1,06,1.3,035.1,M,-002.6,M,,*4F
2014-08-01T00:02:09.242000Z $GPGLL,2200.3657,S,01756.5814,W,000208.226,A*3D
2014-08-01T00:02:09.242000Z $GPVTG,224.9,T,249.8,M,009.1,N,016.8,K*43
2014-08-01T00:02:09.307000Z $GPRMC,000208.226,A,2200.3657,S,01756.5814,W,009.1,224.9,161294,24.9,W*40
2014-08-01T00:02:10.054000Z $GPZDA,000210.00,16,12,1994,00,00,*48
2014-08-01T00:02:10.261000Z $GPGGA,000209.226,2200.3677,S,01756.5833,W,1,06,1.3,034.5,M,-002.6,M,,*4C
2014-08-01T00:02:10.378000Z $GPGLL,2200.3677,S,01756.5833,W,000209.226,A*3B
2014-08-01T00:02:10.378000Z $GPVTG,222.2,T,247.1,M,009.8,N,018.1,K*47
2014-08-01T00:02:10.402000Z $GPRMC,000209.226,A,2200.3677,S,01756.5833,W,009.8,222.2,161294,24.9,W*42
2014-08-01T00:02:11.125000Z $GPZDA,000211.00,16,12,1994,00,00,*49
2014-08-01T00:02:11.242000Z $GPGGA,000210.226,2200.3698,S,01756.5852,W,1,06,1.3,033.7,M,-002.6,M,,*47
2014-08-01T00:02:11.242000Z $GPGLL,2200.3698,S,01756.5852,W,000210.226,A*35
2014-08-01T00:02:11.242000Z $GPVTG,218.2,T,243.1,M,009.3,N,017.3,K*4C
2014-08-01T00:02:11.307000Z $GPRMC,000210.226,A,2200.3698,S,01756.5852,W,009.3,218.2,161294,24.9,W*4E
2014-08-01T00:02:12.125000Z $GPZDA,000212.00,16,12,1994,00,00,*4A
2014-08-01T00:02:12.242000Z $GPGGA,000211.226,2200.3718,S,01756.5867,W,1,06,1.3,032.4,M,-002.6,M,,*4B
2014-08-01T00:02:12.242000Z $GPGLL,2200.3718,S,01756.5867,W,000211.226,A*3B
2014-08-01T00:02:12.242000Z $GPVTG,213.9,T,238.8,M,008.4,N,015.6,K*48
2014-08-01T00:02:12.307000Z $GPRMC,000211.226,A,2200.3718,S,01756.5867,W,008.4,213.9,161294,24.9,W*46
2014-08-01T00:02:13.140000Z $GPGGA,000212.226,2200.3737,S,01756.5880,W,1,06,1.3,032.1,M,-002.6,M,,*49
2014-08-01T00:02:13.256000Z $GPGLL,2200.3737,S,01756.5880,W,000212.226,A*3C
2014-08-01T00:02:13.256000Z $GPVTG,212.4,T,237.3,M,008.0,N,014.8,K*4B
2014-08-01T00:02:13.321000Z $GPRMC,000212.226,A,2200.3737,S,01756.5880,W,008.0,212.4,161294,24.9,W*49
2014-08-01T00:02:13.321000Z $GPZDA,000213.00,16,12,1994,00,00,*4B
2014-08-01T00:02:14.125000Z $GPZDA,000214.00,16,12,1994,00,00,*4C
2014-08-01T00:02:14.242000Z $GPGGA,000213.226,2200.3756,S,01756.5893,W,1,06,1.3,032.3,M,-002.6,M,,*4F
2014-08-01T00:02:14.242000Z $GPGLL,2200.3756,S,01756.5893,W,000213.226,A*38
2014-08-01T00:02:14.242000Z $GPVTG,214.0,T,238.9,M,008.8,N,016.4,K*4A
2014-08-01T00:02:14.306000Z $GPRMC,000213.226,A,2200.3756,S,01756.5893,W,008.8,214.0,161294,24.9,W*47
2014-08-01T00:02:15.125000Z $GPZDA,000215.00,16,12,1994,00,00,*4D
2014-08-01T00:02:15.242000Z $GPGGA,000214.226,2200.3777,S,01756.5911,W,1,06,1.3,033.1,M,-002.6,M,,*43
2014-08-01T00:02:15.242000Z $GPGLL,2200.3777,S,01756.5911,W,000214.226,A*37
2014-08-01T00:02:15.242000Z $GPVTG,218.5,T,243.4,M,009.9,N,018.4,K*4C
2014-08-01T00:02:15.306000Z $GPRMC,000214.226,A,2200.3777,S,01756.5911,W,009.9,218.5,161294,24.9,W*41
2014-08-01T00:02:16.125000Z $GPZDA,000216.00,16,12,1994,00,00,*4E
2014-08-01T00:02:16.242000Z $GPGGA,000215.226,2200.3799,S,01756.5930,W,1,06,1.3,033.7,M,-002.6,M,,*47
2014-08-01T00:02:16.242000Z $GPGLL,2200.3799,S,01756.5930,W,000215.226,A*35
2014-08-01T00:02:16.242000Z $GPVTG,220.8,T,245.6,M,010.0,N,018.5,K*4E
2014-08-01T00:02:16.306000Z $GPRMC,000215.226,A,2200.3799,S,01756.5930,W,010.0,220.8,161294,24.9,W*44
2014-08-01T00:02:17.125000Z $GPZDA,000217.00,16,12,1994,00,00,*4F
2014-08-01T00:02:17.242000Z $GPGGA,000216.226,2200.3818,S,01756.5949,W,1,06,1.3,034.1,M,-002.6,M,,*4D
2014-08-01T00:02:17.242000Z $GPGLL,2200.3818,S,01756.5949,W,000216.226,A*3E
2014-08-01T00:02:17.242000Z $GPVTG,223.7,T,248.6,M,009.0,N,016.7,K*4B
2014-08-01T00:02:17.306000Z $GPRMC,000216.226,A,2200.3818,S,01756.5949,W,009.0,223.7,161294,24.9,W*4B
2014-08-01T00:02:18.126000Z $GPZDA,000218.00,16,12,1994,00,00,*40
2014-08-01T00:02:18.242000Z $GPGGA,000217.226,2200.3835,S,01756.5967,W,1,06,1.3,034.2,M,-002.6,M,,*4C
2014-08-01T00:02:18.242000Z $GPGLL,2200.3835,S,01756.5967,W,000217.226,A*3C
2014-08-01T00:02:18.242000Z $GPVTG,225.1,T,249.9,M,008.3,N,015.3,K*40
2014-08-01T00:02:18.307000Z $GPRMC,000217.226,A,2200.3835,S,01756.5967,W,008.3,225.1,161294,24.9,W*4B
2014-08-01T00:02:19.140000Z $GPGGA,000218.226,2200.3852,S,01756.5985,W,1,06,1.3,034.3,M,-002.6,M,,*4F
2014-08-01T00:02:19.257000Z $GPGLL,2200.3852,S,01756.5985,W,000218.226,A*3E
2014-08-01T00:02:19.257000Z $GPVTG,222.8,T,247.6,M,008.9,N,016.5,K*40
2014-08-01T00:02:19.321000Z $GPRMC,000218.226,A,2200.3852,S,01756.5985,W,008.9,222.8,161294,24.9,W*4D
2014-08-01T00:02:19.321000Z $GPZDA,000219.00,16,12,1994,00,00,*41
2014-08-01T00:02:20.125000Z $GPZDA,000220.00,16,12,1994,00,00,*4B
2014-08-01T00:02:20.242000Z $GPGGA,000219.226,2200.3872,S,01756.6004,W,1,06,1.3,034.3,M,-002.6,M,,*4F
2014-08-01T00:02:20.242000Z $GPGLL,2200.3872,S,01756.6004,W,000219.226,A*3E
2014-08-01T00:02:20.242000Z $GPVTG,220.5,T,245.4,M,010.1,N,018.7,K*42
2014-08-01T00:02:20.306000Z $GPRMC,000219.226,A,2200.3872,S,01756.6004,W,010.1,220.5,161294,24.9,W*43
2014-08-01T00:02:21.125000Z $GPZDA,000221.00,16,12,1994,00,00,*4A
2014-08-01T00:02:21.242000Z $GPGGA,000220.226,2200.3895,S,01756.6023,W,1,06,1.3,033.8,M,-002.6,M,,*45
2014-08-01T00:02:21.242000Z $GPGLL,2200.3895,S,01756.6023,W,000220.226,A*38
2014-08-01T00:02:21.242000Z $GPVTG,218.5,T,243.3,M,010.3,N,019.1,K*4D
2014-08-01T00:02:21.306000Z $GPRMC,000220.226,A,2200.3895,S,01756.6023,W,010.3,218.5,161294,24.9,W*4C
2014-08-01T00:02:22.125000Z $GPZDA,000222.00,16,12,1994,00,00,*49
2014-08-01T00:02:22.242000Z $GPGGA,000221.226,2200.3917,S,01756.6041,W,1,06,1.3,033.1,M,-002.6,M,,*42
2014-08-01T00:02:22.242000Z $GPGLL,2200.3917,S,01756.6041,W,000221.226,A*36
2014-08-01T00:02:22.242000Z $GPVTG,216.7,T,241.5,M,009.7,N,017.9,K*4F
2014-08-01T00:02:22.306000Z $GPRMC,000221.226,A,2200.3917,S,01756.6041,W,009.7,216.7,161294,24.9,W*42
2014-08-01T00:02:23.125000Z $GPZDA,000223.00,16,12,1994,00,00,*48
2014-08-01T00:02:23.242000Z $GPGGA,000222.226,2200.3938,S,01756.6058,W,1,06,1.3,032.6,M,-002.6,M,,*42
2014-08-01T00:02:23.242000Z $GPGLL,2200.3938,S,01756.6058,W,000222.226,A*30
2014-08-01T00:02:23.242000Z $GPVTG,214.6,T,239.5,M,009.0,N,016.8,K*44
2014-08-01T00:02:23.307000Z $GPRMC,000222.226,A,2200.3938,S,01756.6058,W,009.0,214.6,161294,24.9,W*40
2014-08-01T00:02:24.125000Z $GPZDA,000224.00,16,12,1994,00,00,*4F
