2014-08-01T00:00:00.316000Z $GPZDA,000000,01,08,2014,7
2014-08-01T00:00:00.316000Z $GPGLL,2200.097,S,01756.346,W
2014-08-01T00:00:00.316000Z $GPVTG,220.6,T,,M,009.7,N,018.0,K
2014-08-01T00:00:01.301000Z $GPZDA,000001,01,08,2014,7
2014-08-01T00:00:01.301000Z $GPGLL,2200.099,S,01756.348,W
2014-08-01T00:00:01.301000Z $GPVTG,220.3,T,,M,009.6,N,017.7,K
2014-08-01T00:00:02.296000Z $GPZDA,000002,01,08,2014,7
2014-08-01T00:00:02.296000Z $GPGLL,2200.101,S,01756.350,W
2014-08-01T00:00:02.296000Z $GPVTG,219.5,T,,M,009.3,N,017.3,K
2014-08-01T00:00:03.301000Z $GPZDA,000003,01,08,2014,7
2014-08-01T00:00:03.301000Z $GPGLL,2200.103,S,01756.352,W
2014-08-01T00:00:03.301000Z $GPVTG,218.7,T,,M,009.2,N,017.0,K
2014-08-01T00:00:04.301000Z $GPZDA,000004,01,08,2014,7
2014-08-01T00:00:04.301000Z $GPGLL,2200.105,S,01756.354,W
2014-08-01T00:00:04.301000Z $GPVTG,217.9,T,,M,009.0,N,016.7,K
2014-08-01T00:00:05.301000Z $GPZDA,000005,01,08,2014,7
2014-08-01T00:00:05.301000Z $GPGLL,2200.107,S,01756.355,W
2014-08-01T00:00:05.301000Z $GPVTG,218.0,T,,M,009.3,N,017.1,K
2014-08-01T00:00:06.301000Z $GPZDA,000006,01,08,2014,7
2014-08-01T00:00:06.301000Z $GPGLL,2200.109,S,01756.357,W
2014-08-01T00:00:06.301000Z $GPVTG,218.3,T,,M,009.4,N,017.4,K
2014-08-01T00:00:07.301000Z $GPZDA,000007,01,08,2014,7
2014-08-01T00:00:07.301000Z $GPGLL,2200.111,S,01756.359,W
2014-08-01T00:00:07.301000Z $GPVTG,218.3,T,,M,009.4,N,017.4,K
2014-08-01T00:00:08.296000Z $GPZDA,000008,01,08,2014,7
2014-08-01T00:00:08.296000Z $GPGLL,2200.113,S,01756.361,W
2014-08-01T00:00:08.296000Z $GPVTG,217.9,T,,M,009.3,N,017.2,K
2014-08-01T00:00:09.302000Z $GPZDA,000009,01,08,2014,7
2014-08-01T00:00:09.302000Z $GPGLL,2200.115,S,01756.362,W
2014-08-01T00:00:09.302000Z $GPVTG,217.5,T,,M,009.2,N,017.0,K
2014-08-01T00:00:10.316000Z $GPZDA,000010,01,08,2014,7
2014-08-01T00:00:10.316000Z $GPGLL,2200.117,S,01756.364,W
2014-08-01T00:00:10.316000Z $GPVTG,217.7,T,,M,009.2,N,017.0,K
2014-08-01T00:00:11.302000Z $GPZDA,000011,01,08,2014,7
2014-08-01T00:00:11.302000Z $GPGLL,2200.119,S,01756.366,W
2014-08-01T00:00:11.302000Z $GPVTG,218.6,T,,M,009.4,N,017.5,K
2014-08-01T00:00:12.296000Z $GPZDA,000012,01,08,2014,7
2014-08-01T00:00:12.296000Z $GPGLL,2200.121,S,01756.368,W
2014-08-01T00:00:12.296000Z $GPVTG,219.7,T,,M,009.7,N,017.9,K
2014-08-01T00:00:13.301000Z $GPZDA,000013,01,08,2014,7
2014-08-01T00:00:13.301000Z $GPGLL,2200.123,S,01756.369,W
2014-08-01T00:00:13.301000Z $GPVTG,220.5,T,,M,009.6,N,017.9,K
2014-08-01T00:00:14.296000Z $GPZDA,000014,01,08,2014,7
2014-08-01T00:00:14.296000Z $GPGLL,2200.125,S,01756.371,W
2014-08-01T00:00:14.296000Z $GPVTG,220.5,T,,M,009.4,N,017.3,K
2014-08-01T00:00:15.301000Z $GPZDA,000015,01,08,2014,7
2014-08-01T00:00:15.301000Z $GPGLL,2200.127,S,01756.373,W
2014-08-01T00:00:15.301000Z $GPVTG,219.7,T,,M,009.1,N,016.8,K
2014-08-01T00:00:16.296000Z $GPZDA,000016,01,08,2014,7
2014-08-01T00:00:16.296000Z $GPGLL,2200.129,S,01756.375,W
2014-08-01T00:00:16.296000Z $GPVTG,218.3,T,,M,009.0,N,016.8,K
2014-08-01T00:00:17.301000Z $GPZDA,000017,01,08,2014,7
2014-08-01T00:00:17.301000Z $GPGLL,2200.131,S,01756.377,W
2014-08-01T00:00:17.301000Z $GPVTG,217.3,T,,M,009.3,N,017.1,K
2014-08-01T00:00:18.296000Z $GPZDA,000018,01,08,2014,7
2014-08-01T00:00:18.296000Z $GPGLL,2200.134,S,01756.378,W
2014-08-01T00:00:18.296000Z $GPVTG,216.9,T,,M,009.5,N,017.6,K
2014-08-01T00:00:19.301000Z $GPZDA,000019,01,08,2014,7
2014-08-01T00:00:19.301000Z $GPGLL,2200.136,S,01756.380,W
2014-08-01T00:00:19.301000Z $GPVTG,216.7,T,,M,009.6,N,017.8,K
2014-08-01T00:00:20.316000Z $GPZDA,000020,01,08,2014,7
2014-08-01T00:00:20.316000Z $GPGLL,2200.138,S,01756.382,W
2014-08-01T00:00:20.316000Z $GPVTG,216.7,T,,M,009.5,N,017.6,K
2014-08-01T00:00:21.301000Z $GPZDA,000021,01,08,2014,7
2014-08-01T00:00:21.301000Z $GPGLL,2200.140,S,01756.383,W
2014-08-01T00:00:21.301000Z $GPVTG,217.1,T,,M,009.4,N,017.3,K
2014-08-01T00:00:22.301000Z $GPZDA,000022,01,08,2014,7
2014-08-01T00:00:22.301000Z $GPGLL,2200.142,S,01756.385,W
2014-08-01T00:00:22.301000Z $GPVTG,217.4,T,,M,009.2,N,017.1,K
2014-08-01T00:00:23.296000Z $GPZDA,000023,01,08,2014,7
2014-08-01T00:00:23.296000Z $GPGLL,2200.144,S,01756.387,W
2014-08-01T00:00:23.296000Z $GPVTG,218.2,T,,M,009.3,N,017.2,K
2014-08-01T00:00:24.301000Z $GPZDA,000024,01,08,2014,7
2014-08-01T00:00:24.301000Z $GPGLL,2200.146,S,01756.389,W
2014-08-01T00:00:24.301000Z $GPVTG,219.3,T,,M,009.4,N,017.3,K
2014-08-01T00:00:25.296000Z $GPZDA,000025,01,08,2014,7
2014-08-01T00:00:25.296000Z $GPGLL,2200.148,S,01756.390,W
2014-08-01T00:00:25.296000Z $GPVTG,220.3,T,,M,009.4,N,017.4,K
2014-08-01T00:00:26.301000Z $GPZDA,000026,01,08,2014,7
2014-08-01T00:00:26.301000Z $GPGLL,2200.150,S,01756.392,W
2014-08-01T00:00:26.301000Z $GPVTG,220.9,T,,M,009.5,N,017.5,K
2014-08-01T00:00:27.296000Z $GPZDA,000027,01,08,2014,7
2014-08-01T00:00:27.296000Z $GPGLL,2200.152,S,01756.394,W
2014-08-01T00:00:27.296000Z $GPVTG,220.6,T,,M,009.5,N,017.6,K
2014-08-01T00:00:28.301000Z $GPZDA,000028,01,08,2014,7
2014-08-01T00:00:28.301000Z $GPGLL,2200.154,S,01756.396,W
2014-08-01T00:00:28.301000Z $GPVTG,219.5,T,,M,009.4,N,017.5,K
2014-08-01T00:00:29.296000Z $GPZDA,000029,01,08,2014,7
2014-08-01T00:00:29.296000Z $GPGLL,2200.156,S,01756.398,W
2014-08-01T00:00:29.296000Z $GPVTG,218.0,T,,M,009.4,N,017.3,K
2014-08-01T00:00:30.321000Z $GPZDA,000030,01,08,2014,7
2014-08-01T00:00:30.321000Z $GPGLL,2200.158,S,01756.399,W
2014-08-01T00:00:30.321000Z $GPVTG,216.7,T,,M,009.3,N,017.3,K
2014-08-01T00:00:31.296000Z $GPZDA,000031,01,08,2014,7
2014-08-01T00:00:31.296000Z $GPGLL,2200.160,S,01756.401,W
2014-08-01T00:00:31.296000Z $GPVTG,215.9,T,,M,009.4,N,017.3,K
2014-08-01T00:00:32.301000Z $GPZDA,000032,01,08,2014,7
2014-08-01T00:00:32.301000Z $GPGLL,2200.163,S,01756.403,W
2014-08-01T00:00:32.301000Z $GPVTG,215.9,T,,M,009.5,N,017.5,K
2014-08-01T00:00:33.296000Z $GPZDA,000033,01,08,2014,7
2014-08-01T00:00:33.296000Z $GPGLL,2200.165,S,01756.404,W
2014-08-01T00:00:33.296000Z $GPVTG,216.4,T,,M,009.6,N,017.8,K
2014-08-01T00:00:34.301000Z $GPZDA,000034,01,08,2014,7
2014-08-01T00:00:34.301000Z $GPGLL,2200.167,S,01756.406,W
2014-08-01T00:00:34.301000Z $GPVTG,217.2,T,,M,009.7,N,017.9,K
2014-08-01T00:00:35.296000Z $GPZDA,000035,01,08,2014,7
2014-08-01T00:00:35.296000Z $GPGLL,2200.169,S,01756.408,W
2014-08-01T00:00:35.296000Z $GPVTG,218.3,T,,M,009.5,N,017.7,K
2014-08-01T00:00:36.301000Z $GPZDA,000036,01,08,2014,7
2014-08-01T00:00:36.301000Z $GPGLL,2200.171,S,01756.410,W
2014-08-01T00:00:36.301000Z $GPVTG,219.4,T,,M,009.3,N,017.2,K
2014-08-01T00:00:37.296000Z $GPZDA,000037,01,08,2014,7
2014-08-01T00:00:37.296000Z $GPGLL,2200.173,S,01756.411,W
2014-08-01T00:00:37.296000Z $GPVTG,220.6,T,,M,009.2,N,017.1,K
2014-08-01T00:00:38.301000Z $GPZDA,000038,01,08,2014,7
2014-08-01T00:00:38.301000Z $GPGLL,2200.175,S,01756.413,W
2014-08-01T00:00:38.301000Z $GPVTG,221.0,T,,M,009.4,N,017.4,K
2014-08-01T00:00:39.296000Z $GPZDA,000039,01,08,2014,7
2014-08-01T00:00:39.296000Z $GPGLL,2200.177,S,01756.415,W
2014-08-01T00:00:39.296000Z $GPVTG,220.7,T,,M,009.7,N,018.0,K
2014-08-01T00:00:40.321000Z $GPZDA,000040,01,08,2014,7
2014-08-01T00:00:40.321000Z $GPGLL,2200.179,S,01756.417,W
2014-08-01T00:00:40.321000Z $GPVTG,220.0,T,,M,010.0,N,018.5,K
2014-08-01T00:00:41.296000Z $GPZDA,000041,01,08,2014,7
2014-08-01T00:00:41.296000Z $GPGLL,2200.181,S,01756.419,W
2014-08-01T00:00:41.296000Z $GPVTG,219.0,T,,M,009.7,N,018.1,K
2014-08-01T00:00:42.301000Z $GPZDA,000042,01,08,2014,7
2014-08-01T00:00:42.301000Z $GPGLL,2200.183,S,01756.421,W
2014-08-01T00:00:42.301000Z $GPVTG,217.9,T,,M,009.2,N,017.0,K
2014-08-01T00:00:43.296000Z $GPZDA,000043,01,08,2014,7
2014-08-01T00:00:43.296000Z $GPGLL,2200.185,S,01756.422,W
2014-08-01T00:00:43.296000Z $GPVTG,217.5,T,,M,008.7,N,016.1,K
2014-08-01T00:00:44.301000Z $GPZDA,000044,01,08,2014,7
2014-08-01T00:00:44.301000Z $GPGLL,2200.187,S,01756.424,W
2014-08-01T00:00:44.301000Z $GPVTG,217.7,T,,M,008.6,N,016.0,K
2014-08-01T00:00:45.296000Z $GPZDA,000045,01,08,2014,7
2014-08-01T00:00:45.296000Z $GPGLL,2200.189,S,01756.426,W
2014-08-01T00:00:45.296000Z $GPVTG,218.3,T,,M,008.9,N,016.6,K
2014-08-01T00:00:46.301000Z $GPZDA,000046,01,08,2014,7
2014-08-01T00:00:46.301000Z $GPGLL,2200.191,S,01756.427,W
2014-08-01T00:00:46.301000Z $GPVTG,219.2,T,,M,009.4,N,017.4,K
2014-08-01T00:00:47.296000Z $GPZDA,000047,01,08,2014,7
2014-08-01T00:00:47.296000Z $GPGLL,2200.193,S,01756.429,W
2014-08-01T00:00:47.296000Z $GPVTG,220.0,T,,M,009.8,N,018.1,K
2014-08-01T00:00:48.301000Z $GPZDA,000048,01,08,2014,7
2014-08-01T00:00:48.301000Z $GPGLL,2200.195,S,01756.431,W
2014-08-01T00:00:48.301000Z $GPVTG,220.5,T,,M,009.8,N,018.2,K
2014-08-01T00:00:49.296000Z $GPZDA,000049,01,08,2014,7
2014-08-01T00:00:49.296000Z $GPGLL,2200.197,S,01756.433,W
2014-08-01T00:00:49.296000Z $GPVTG,220.5,T,,M,009.5,N,017.6,K
2014-08-01T00:00:50.321000Z $GPZDA,000050,01,08,2014,7
2014-08-01T00:00:50.321000Z $GPGLL,2200.199,S,01756.435,W
2014-08-01T00:00:50.321000Z $GPVTG,220.1,T,,M,009.1,N,016.8,K
2014-08-01T00:00:51.296000Z $GPZDA,000051,01,08,2014,7
2014-08-01T00:00:51.296000Z $GPGLL,2200.201,S,01756.436,W
2014-08-01T00:00:51.296000Z $GPVTG,219.7,T,,M,008.7,N,016.2,K
2014-08-01T00:00:52.301000Z $GPZDA,000052,01,08,2014,7
2014-08-01T00:00:52.301000Z $GPGLL,2200.203,S,01756.438,W
2014-08-01T00:00:52.301000Z $GPVTG,219.2,T,,M,008.6,N,016.0,K
2014-08-01T00:00:53.296000Z $GPZDA,000053,01,08,2014,7
2014-08-01T00:00:53.296000Z $GPGLL,2200.205,S,01756.440,W
2014-08-01T00:00:53.296000Z $GPVTG,218.6,T,,M,008.7,N,016.2,K
2014-08-01T00:00:54.301000Z $GPZDA,000054,01,08,2014,7
2014-08-01T00:00:54.301000Z $GPGLL,2200.207,S,01756.441,W
2014-08-01T00:00:54.301000Z $GPVTG,217.9,T,,M,009.0,N,016.6,K
2014-08-01T00:00:55.296000Z $GPZDA,000055,01,08,2014,7
2014-08-01T00:00:55.296000Z $GPGLL,2200.209,S,01756.443,W
2014-08-01T00:00:55.296000Z $GPVTG,217.7,T,,M,009.2,N,017.1,K
2014-08-01T00:00:56.301000Z $GPZDA,000056,01,08,2014,7
2014-08-01T00:00:56.301000Z $GPGLL,2200.211,S,01756.445,W
2014-08-01T00:00:56.301000Z $GPVTG,217.8,T,,M,009.4,N,017.3,K
2014-08-01T00:00:57.296000Z $GPZDA,000057,01,08,2014,7
2014-08-01T00:00:57.296000Z $GPGLL,2200.213,S,01756.446,W
2014-08-01T00:00:57.296000Z $GPVTG,218.0,T,,M,009.4,N,017.4,K
2014-08-01T00:00:58.301000Z $GPZDA,000058,01,08,2014,7
2014-08-01T00:00:58.301000Z $GPGLL,2200.215,S,01756.448,W
2014-08-01T00:00:58.301000Z $GPVTG,218.2,T,,M,009.3,N,017.2,K
2014-08-01T00:00:59.296000Z $GPZDA,000059,01,08,2014,7
2014-08-01T00:00:59.296000Z $GPGLL,2200.217,S,01756.450,W
2014-08-01T00:00:59.296000Z $GPVTG,218.4,T,,M,009.1,N,016.9,K
2014-08-01T00:01:00.321000Z $GPZDA,000100,01,08,2014,7
2014-08-01T00:01:00.321000Z $GPGLL,2200.219,S,01756.451,W
2014-08-01T00:01:00.321000Z $GPVTG,218.5,T,,M,008.9,N,016.4,K
2014-08-01T00:01:01.296000Z $GPZDA,000101,01,08,2014,7
2014-08-01T00:01:01.296000Z $GPGLL,2200.221,S,01756.453,W
2014-08-01T00:01:01.296000Z $GPVTG,218.6,T,,M,008.7,N,016.2,K
2014-08-01T00:01:02.301000Z $GPZDA,000102,01,08,2014,7
2014-08-01T00:01:02.301000Z $GPGLL,2200.223,S,01756.455,W
2014-08-01T00:01:02.301000Z $GPVTG,218.8,T,,M,008.8,N,016.3,K
2014-08-01T00:01:03.296000Z $GPZDA,000103,01,08,2014,7
2014-08-01T00:01:03.296000Z $GPGLL,2200.225,S,01756.456,W
2014-08-01T00:01:03.296000Z $GPVTG,219.4,T,,M,009.1,N,016.8,K
2014-08-01T00:01:04.301000Z $GPZDA,000104,01,08,2014,7
2014-08-01T00:01:04.301000Z $GPGLL,2200.227,S,01756.458,W
2014-08-01T00:01:04.301000Z $GPVTG,220.1,T,,M,009.4,N,017.4,K
2014-08-01T00:01:05.296000Z $GPZDA,000105,01,08,2014,7
2014-08-01T00:01:05.296000Z $GPGLL,2200.229,S,01756.460,W
2014-08-01T00:01:05.296000Z $GPVTG,220.5,T,,M,009.5,N,017.7,K
2014-08-01T00:01:06.301000Z $GPZDA,000106,01,08,2014,7
2014-08-01T00:01:06.301000Z $GPGLL,2200.231,S,01756.462,W
2014-08-01T00:01:06.301000Z $GPVTG,220.4,T,,M,009.4,N,017.5,K
2014-08-01T00:01:07.296000Z $GPZDA,000107,01,08,2014,7
2014-08-01T00:01:07.296000Z $GPGLL,2200.233,S,01756.464,W
2014-08-01T00:01:07.296000Z $GPVTG,219.8,T,,M,009.2,N,017.0,K
2014-08-01T00:01:08.301000Z $GPZDA,000108,01,08,2014,7
2014-08-01T00:01:08.301000Z $GPGLL,2200.235,S,01756.465,W
2014-08-01T00:01:08.301000Z $GPVTG,219.1,T,,M,009.0,N,016.7,K
2014-08-01T00:01:09.296000Z $GPZDA,000109,01,08,2014,7
2014-08-01T00:01:09.296000Z $GPGLL,2200.237,S,01756.467,W
2014-08-01T00:01:09.296000Z $GPVTG,218.5,T,,M,009.0,N,016.6,K
2014-08-01T00:01:10.321000Z $GPZDA,000110,01,08,2014,7
2014-08-01T00:01:10.321000Z $GPGLL,2200.239,S,01756.469,W
2014-08-01T00:01:10.321000Z $GPVTG,218.3,T,,M,009.0,N,016.7,K
2014-08-01T00:01:11.306000Z $GPZDA,000111,01,08,2014,7
2014-08-01T00:01:11.306000Z $GPGLL,2200.241,S,01756.470,W
2014-08-01T00:01:11.306000Z $GPVTG,218.4,T,,M,009.2,N,017.0,K
2014-08-01T00:01:12.301000Z $GPZDA,000112,01,08,2014,7
2014-08-01T00:01:12.301000Z $GPGLL,2200.243,S,01756.472,W
2014-08-01T00:01:12.301000Z $GPVTG,218.5,T,,M,009.2,N,017.1,K
2014-08-01T00:01:13.296000Z $GPZDA,000113,01,08,2014,7
2014-08-01T00:01:13.296000Z $GPGLL,2200.245,S,01756.474,W
2014-08-01T00:01:13.296000Z $GPVTG,218.7,T,,M,009.2,N,017.0,K
2014-08-01T00:01:14.301000Z $GPZDA,000114,01,08,2014,7
2014-08-01T00:01:14.301000Z $GPGLL,2200.247,S,01756.476,W
2014-08-01T00:01:14.301000Z $GPVTG,218.7,T,,M,009.1,N,016.9,K
2014-08-01T00:01:15.301000Z $GPZDA,000115,01,08,2014,7
2014-08-01T00:01:15.301000Z $GPGLL,2200.247,S,01756.476,W
2014-08-01T00:01:15.301000Z $GPVTG,218.7,T,,M,009.1,N,016.9,K
2014-08-01T00:01:16.296000Z $GPZDA,000116,01,08,2014,7
2014-08-01T00:01:16.296000Z $GPGLL,2200.249,S,01756.477,W
2014-08-01T00:01:16.296000Z $GPVTG,218.5,T,,M,009.2,N,017.1,K
2014-08-01T00:01:17.301000Z $GPZDA,000117,01,08,2014,7
2014-08-01T00:01:17.301000Z $GPGLL,2200.251,S,01756.479,W
2014-08-01T00:01:17.301000Z $GPVTG,218.3,T,,M,009.3,N,017.3,K
2014-08-01T00:01:18.296000Z $GPZDA,000118,01,08,2014,7
2014-08-01T00:01:18.296000Z $GPGLL,2200.253,S,01756.481,W
2014-08-01T00:01:18.296000Z $GPVTG,218.9,T,,M,009.2,N,017.0,K
2014-08-01T00:01:19.301000Z $GPZDA,000119,01,08,2014,7
2014-08-01T00:01:19.301000Z $GPGLL,2200.255,S,01756.483,W
2014-08-01T00:01:19.301000Z $GPVTG,219.4,T,,M,009.1,N,016.8,K
2014-08-01T00:01:20.316000Z $GPZDA,000120,01,08,2014,7
2014-08-01T00:01:20.316000Z $GPGLL,2200.257,S,01756.485,W
2014-08-01T00:01:20.316000Z $GPVTG,219.7,T,,M,009.1,N,016.8,K
2014-08-01T00:01:21.295000Z $GPZDA,000121,01,08,2014,7
2014-08-01T00:01:21.295000Z $GPGLL,2200.257,S,01756.485,W
2014-08-01T00:01:21.296000Z $GPVTG,219.7,T,,M,009.1,N,016.8,K
2014-08-01T00:01:22.301000Z $GPZDA,000122,01,08,2014,7
2014-08-01T00:01:22.301000Z $GPGLL,2200.259,S,01756.487,W
2014-08-01T00:01:22.301000Z $GPVTG,219.8,T,,M,009.2,N,017.1,K
2014-08-01T00:01:23.296000Z $GPZDA,000123,01,08,2014,7
2014-08-01T00:01:23.296000Z $GPGLL,2200.262,S,01756.489,W
2014-08-01T00:01:23.296000Z $GPVTG,219.9,T,,M,009.4,N,017.3,K
2014-08-01T00:01:24.301000Z $GPZDA,000124,01,08,2014,7
2014-08-01T00:01:24.301000Z $GPGLL,2200.264,S,01756.491,W
2014-08-01T00:01:24.301000Z $GPVTG,219.3,T,,M,009.4,N,017.3,K
2014-08-01T00:01:25.296000Z $GPZDA,000125,01,08,2014,7
2014-08-01T00:01:25.296000Z $GPGLL,2200.267,S,01756.493,W
2014-08-01T00:01:25.296000Z $GPVTG,219.2,T,,M,009.4,N,017.4,K
2014-08-01T00:01:26.301000Z $GPZDA,000126,01,08,2014,7
2014-08-01T00:01:26.301000Z $GPGLL,2200.269,S,01756.495,W
2014-08-01T00:01:26.301000Z $GPVTG,219.4,T,,M,009.3,N,017.3,K
2014-08-01T00:01:27.301000Z $GPZDA,000127,01,08,2014,7
2014-08-01T00:01:27.301000Z $GPGLL,2200.269,S,01756.495,W
2014-08-01T00:01:27.301000Z $GPVTG,219.4,T,,M,009.3,N,017.3,K
2014-08-01T00:01:28.296000Z $GPZDA,000128,01,08,2014,7
2014-08-01T00:01:28.296000Z $GPGLL,2200.271,S,01756.497,W
2014-08-01T00:01:28.296000Z $GPVTG,219.9,T,,M,009.1,N,016.9,K
2014-08-01T00:01:29.301000Z $GPZDA,000129,01,08,2014,7
2014-08-01T00:01:29.301000Z $GPGLL,2200.274,S,01756.499,W
2014-08-01T00:01:29.301000Z $GPVTG,220.3,T,,M,009.0,N,016.6,K
2014-08-01T00:01:30.316000Z $GPZDA,000130,01,08,2014,7
2014-08-01T00:01:30.316000Z $GPGLL,2200.276,S,01756.501,W
2014-08-01T00:01:30.316000Z $GPVTG,220.0,T,,M,009.3,N,017.2,K
2014-08-01T00:01:31.301000Z $GPZDA,000131,01,08,2014,7
2014-08-01T00:01:31.301000Z $GPGLL,2200.278,S,01756.503,W
2014-08-01T00:01:31.301000Z $GPVTG,219.4,T,,M,009.5,N,017.5,K
2014-08-01T00:01:32.295000Z $GPZDA,000132,01,08,2014,7
2014-08-01T00:01:32.296000Z $GPGLL,2200.281,S,01756.505,W
2014-08-01T00:01:32.296000Z $GPVTG,218.6,T,,M,009.3,N,017.2,K
2014-08-01T00:01:33.296000Z $GPZDA,000133,01,08,2014,7
2014-08-01T00:01:33.296000Z $GPGLL,2200.281,S,01756.505,W
2014-08-01T00:01:33.296000Z $GPVTG,218.6,T,,M,009.3,N,017.2,K
2014-08-01T00:01:34.301000Z $GPZDA,000134,01,08,2014,7
2014-08-01T00:01:34.301000Z $GPGLL,2200.283,S,01756.507,W
2014-08-01T00:01:34.301000Z $GPVTG,218.1,T,,M,009.0,N,016.6,K
2014-08-01T00:01:35.296000Z $GPZDA,000135,01,08,2014,7
2014-08-01T00:01:35.296000Z $GPGLL,2200.285,S,01756.509,W
2014-08-01T00:01:35.296000Z $GPVTG,217.6,T,,M,008.7,N,016.1,K
2014-08-01T00:01:36.302000Z $GPZDA,000136,01,08,2014,7
2014-08-01T00:01:36.302000Z $GPGLL,2200.288,S,01756.512,W
2014-08-01T00:01:36.302000Z $GPVTG,219.1,T,,M,009.1,N,016.9,K
2014-08-01T00:01:37.296000Z $GPZDA,000137,01,08,2014,7
2014-08-01T00:01:37.296000Z $GPGLL,2200.290,S,01756.514,W
2014-08-01T00:01:37.296000Z $GPVTG,220.3,T,,M,009.3,N,017.2,K
2014-08-01T00:01:38.301000Z $GPZDA,000138,01,08,2014,7
2014-08-01T00:01:38.301000Z $GPGLL,2200.293,S,01756.516,W
2014-08-01T00:01:38.301000Z $GPVTG,220.9,T,,M,009.1,N,016.8,K
2014-08-01T00:01:39.301000Z $GPZDA,000139,01,08,2014,7
2014-08-01T00:01:39.301000Z $GPGLL,2200.293,S,01756.516,W
2014-08-01T00:01:39.301000Z $GPVTG,220.9,T,,M,009.1,N,016.8,K
2014-08-01T00:01:40.316000Z $GPZDA,000140,01,08,2014,7
2014-08-01T00:01:40.316000Z $GPGLL,2200.295,S,01756.518,W
2014-08-01T00:01:40.316000Z $GPVTG,220.7,T,,M,008.7,N,016.1,K
2014-08-01T00:01:41.311000Z $GPZDA,000141,01,08,2014,7
2014-08-01T00:01:41.311000Z $GPGLL,2200.297,S,01756.520,W
2014-08-01T00:01:41.311000Z $GPVTG,220.4,T,,M,008.4,N,015.6,K
2014-08-01T00:01:42.296000Z $GPZDA,000142,01,08,2014,7
2014-08-01T00:01:42.296000Z $GPGLL,2200.300,S,01756.523,W
2014-08-01T00:01:42.296000Z $GPVTG,219.5,T,,M,008.8,N,016.3,K
2014-08-01T00:01:43.301000Z $GPZDA,000143,01,08,2014,7
2014-08-01T00:01:43.301000Z $GPGLL,2200.302,S,01756.525,W
2014-08-01T00:01:43.301000Z $GPVTG,219.0,T,,M,009.0,N,016.6,K
2014-08-01T00:01:44.296000Z $GPZDA,000144,01,08,2014,7
2014-08-01T00:01:44.296000Z $GPGLL,2200.304,S,01756.527,W
2014-08-01T00:01:44.296000Z $GPVTG,218.8,T,,M,008.9,N,016.4,K
2014-08-01T00:01:45.296000Z $GPZDA,000145,01,08,2014,7
2014-08-01T00:01:45.296000Z $GPGLL,2200.304,S,01756.527,W
2014-08-01T00:01:45.296000Z $GPVTG,218.8,T,,M,008.9,N,016.4,K
2014-08-01T00:01:46.301000Z $GPZDA,000146,01,08,2014,7
2014-08-01T00:01:46.301000Z $GPGLL,2200.307,S,01756.529,W
2014-08-01T00:01:46.301000Z $GPVTG,219.1,T,,M,008.6,N,015.9,K
2014-08-01T00:01:47.296000Z $GPZDA,000147,01,08,2014,7
2014-08-01T00:01:47.296000Z $GPGLL,2200.309,S,01756.531,W
2014-08-01T00:01:47.296000Z $GPVTG,219.3,T,,M,008.3,N,015.4,K
2014-08-01T00:01:48.301000Z $GPZDA,000148,01,08,2014,7
2014-08-01T00:01:48.301000Z $GPGLL,2200.312,S,01756.533,W
2014-08-01T00:01:48.301000Z $GPVTG,220.4,T,,M,008.7,N,016.1,K
2014-08-01T00:01:49.296000Z $GPZDA,000149,01,08,2014,7
2014-08-01T00:01:49.296000Z $GPGLL,2200.314,S,01756.535,W
2014-08-01T00:01:49.296000Z $GPVTG,221.1,T,,M,009.1,N,016.8,K
2014-08-01T00:01:50.321000Z $GPZDA,000150,01,08,2014,7
2014-08-01T00:01:50.321000Z $GPGLL,2200.316,S,01756.537,W
2014-08-01T00:01:50.321000Z $GPVTG,221.2,T,,M,009.1,N,016.9,K
2014-08-01T00:01:51.301000Z $GPZDA,000151,01,08,2014,7
2014-08-01T00:01:51.302000Z $GPGLL,2200.316,S,01756.537,W
2014-08-01T00:01:51.302000Z $GPVTG,221.2,T,,M,009.1,N,016.9,K
2014-08-01T00:01:52.296000Z $GPZDA,000152,01,08,2014,7
2014-08-01T00:01:52.296000Z $GPGLL,2200.318,S,01756.539,W
2014-08-01T00:01:52.296000Z $GPVTG,220.7,T,,M,008.9,N,016.5,K
2014-08-01T00:01:53.301000Z $GPZDA,000153,01,08,2014,7
2014-08-01T00:01:53.301000Z $GPGLL,2200.321,S,01756.541,W
2014-08-01T00:01:53.301000Z $GPVTG,220.2,T,,M,008.7,N,016.1,K
2014-08-01T00:01:54.296000Z $GPZDA,000154,01,08,2014,7
2014-08-01T00:01:54.296000Z $GPGLL,2200.323,S,01756.543,W
2014-08-01T00:01:54.296000Z $GPVTG,219.5,T,,M,008.8,N,016.4,K
2014-08-01T00:01:55.301000Z $GPZDA,000155,01,08,2014,7
2014-08-01T00:01:55.301000Z $GPGLL,2200.326,S,01756.545,W
2014-08-01T00:01:55.301000Z $GPVTG,218.6,T,,M,008.9,N,016.5,K
2014-08-01T00:01:56.296000Z $GPZDA,000156,01,08,2014,7
2014-08-01T00:01:56.296000Z $GPGLL,2200.328,S,01756.547,W
2014-08-01T00:01:56.296000Z $GPVTG,218.2,T,,M,008.8,N,016.4,K
2014-08-01T00:01:57.296000Z $GPZDA,000157,01,08,2014,7
2014-08-01T00:01:57.296000Z $GPGLL,2200.328,S,01756.547,W
2014-08-01T00:01:57.296000Z $GPVTG,218.2,T,,M,008.8,N,016.4,K
2014-08-01T00:01:58.301000Z $GPZDA,000158,01,08,2014,7
2014-08-01T00:01:58.301000Z $GPGLL,2200.330,S,01756.549,W
2014-08-01T00:01:58.301000Z $GPVTG,218.8,T,,M,008.8,N,016.2,K
2014-08-01T00:01:59.296000Z $GPZDA,000159,01,08,2014,7
2014-08-01T00:01:59.296000Z $GPGLL,2200.332,S,01756.551,W
2014-08-01T00:01:59.296000Z $GPVTG,219.3,T,,M,008.7,N,016.1,K
2014-08-01T00:02:00.322000Z $GPZDA,000200,01,08,2014,7
2014-08-01T00:02:00.322000Z $GPGLL,2200.335,S,01756.553,W
2014-08-01T00:02:00.322000Z $GPVTG,219.9,T,,M,008.9,N,016.5,K
2014-08-01T00:02:01.296000Z $GPZDA,000201,01,08,2014,7
2014-08-01T00:02:01.296000Z $GPGLL,2200.337,S,01756.555,W
2014-08-01T00:02:01.296000Z $GPVTG,219.7,T,,M,009.0,N,016.6,K
2014-08-01T00:02:02.301000Z $GPZDA,000202,01,08,2014,7
2014-08-01T00:02:02.301000Z $GPGLL,2200.339,S,01756.557,W
2014-08-01T00:02:02.302000Z $GPVTG,219.3,T,,M,008.7,N,016.2,K
2014-08-01T00:02:03.301000Z $GPZDA,000203,01,08,2014,7
2014-08-01T00:02:03.301000Z $GPGLL,2200.339,S,01756.557,W
2014-08-01T00:02:03.301000Z $GPVTG,219.3,T,,M,008.7,N,016.2,K
2014-08-01T00:02:04.296000Z $GPZDA,000204,01,08,2014,7
2014-08-01T00:02:04.296000Z $GPGLL,2200.342,S,01756.559,W
2014-08-01T00:02:04.296000Z $GPVTG,218.7,T,,M,008.4,N,015.6,K
2014-08-01T00:02:05.300000Z $GPZDA,000205,01,08,2014,7
2014-08-01T00:02:05.301000Z $GPGLL,2200.344,S,01756.561,W
2014-08-01T00:02:05.301000Z $GPVTG,218.1,T,,M,008.2,N,015.1,K
2014-08-01T00:02:06.296000Z $GPZDA,000206,01,08,2014,7
2014-08-01T00:02:06.296000Z $GPGLL,2200.346,S,01756.563,W
2014-08-01T00:02:06.296000Z $GPVTG,218.1,T,,M,008.5,N,015.7,K
2014-08-01T00:02:07.301000Z $GPZDA,000207,01,08,2014,7
2014-08-01T00:02:07.301000Z $GPGLL,2200.349,S,01756.565,W
2014-08-01T00:02:07.301000Z $GPVTG,218.6,T,,M,008.7,N,016.1,K
2014-08-01T00:02:08.296000Z $GPZDA,000208,01,08,2014,7
2014-08-01T00:02:08.296000Z $GPGLL,2200.351,S,01756.567,W
2014-08-01T00:02:08.296000Z $GPVTG,219.3,T,,M,008.8,N,016.2,K
2014-08-01T00:02:09.295000Z $GPZDA,000209,01,08,2014,7
2014-08-01T00:02:09.296000Z $GPGLL,2200.351,S,01756.567,W
2014-08-01T00:02:09.296000Z $GPVTG,219.3,T,,M,008.8,N,016.2,K
2014-08-01T00:02:10.321000Z $GPZDA,000210,01,08,2014,7
2014-08-01T00:02:10.321000Z $GPGLL,2200.353,S,01756.569,W
2014-08-01T00:02:10.321000Z $GPVTG,220.1,T,,M,008.8,N,016.2,K
2014-08-01T00:02:11.306000Z $GPZDA,000211,01,08,2014,7
2014-08-01T00:02:11.306000Z $GPGLL,2200.355,S,01756.571,W
2014-08-01T00:02:11.306000Z $GPVTG,220.8,T,,M,008.8,N,016.2,K
2014-08-01T00:02:12.301000Z $GPZDA,000212,01,08,2014,7
2014-08-01T00:02:12.301000Z $GPGLL,2200.358,S,01756.574,W
2014-08-01T00:02:12.301000Z $GPVTG,220.1,T,,M,008.7,N,016.2,K
2014-08-01T00:02:13.296000Z $GPZDA,000213,01,08,2014,7
2014-08-01T00:02:13.296000Z $GPGLL,2200.360,S,01756.576,W
2014-08-01T00:02:13.296000Z $GPVTG,219.1,T,,M,008.6,N,016.0,K
2014-08-01T00:02:14.301000Z $GPZDA,000214,01,08,2014,7
2014-08-01T00:02:14.301000Z $GPGLL,2200.362,S,01756.578,W
2014-08-01T00:02:14.301000Z $GPVTG,218.3,T,,M,008.6,N,015.9,K
2014-08-01T00:02:15.301000Z $GPZDA,000215,01,08,2014,7
2014-08-01T00:02:15.301000Z $GPGLL,2200.362,S,01756.578,W
2014-08-01T00:02:15.301000Z $GPVTG,218.3,T,,M,008.6,N,015.9,K
2014-08-01T00:02:16.296000Z $GPZDA,000216,01,08,2014,7
2014-08-01T00:02:16.296000Z $GPGLL,2200.365,S,01756.580,W
2014-08-01T00:02:16.296000Z $GPVTG,218.0,T,,M,008.7,N,016.1,K
2014-08-01T00:02:17.301000Z $GPZDA,000217,01,08,2014,7
2014-08-01T00:02:17.301000Z $GPGLL,2200.367,S,01756.582,W
2014-08-01T00:02:17.301000Z $GPVTG,217.8,T,,M,008.8,N,016.3,K
2014-08-01T00:02:18.296000Z $GPZDA,000218,01,08,2014,7
2014-08-01T00:02:18.296000Z $GPGLL,2200.369,S,01756.584,W
2014-08-01T00:02:18.296000Z $GPVTG,218.7,T,,M,008.8,N,016.3,K
2014-08-01T00:02:19.301000Z $GPZDA,000219,01,08,2014,7
2014-08-01T00:02:19.301000Z $GPGLL,2200.372,S,01756.586,W
2014-08-01T00:02:19.301000Z $GPVTG,219.5,T,,M,008.7,N,016.2,K
2014-08-01T00:02:20.316000Z $GPZDA,000220,01,08,2014,7
2014-08-01T00:02:20.316000Z $GPGLL,2200.374,S,01756.588,W
2014-08-01T00:02:20.316000Z $GPVTG,219.9,T,,M,008.8,N,016.3,K
2014-08-01T00:02:21.296000Z $GPZDA,000221,01,08,2014,7
2014-08-01T00:02:21.296000Z $GPGLL,2200.374,S,01756.588,W
2014-08-01T00:02:21.296000Z $GPVTG,219.9,T,,M,008.8,N,016.3,K
2014-08-01T00:02:22.301000Z $GPZDA,000222,01,08,2014,7
2014-08-01T00:02:22.301000Z $GPGLL,2200.376,S,01756.590,W
2014-08-01T00:02:22.301000Z $GPVTG,219.8,T,,M,009.0,N,016.6,K
2014-08-01T00:02:23.296000Z $GPZDA,000223,01,08,2014,7
2014-08-01T00:02:23.296000Z $GPGLL,2200.379,S,01756.592,W
2014-08-01T00:02:23.296000Z $GPVTG,219.7,T,,M,009.1,N,016.9,K
2014-08-01T00:02:24.301000Z $GPZDA,000224,01,08,2014,7
2014-08-01T00:02:24.301000Z $GPGLL,2200.381,S,01756.594,W
2014-08-01T00:02:24.301000Z $GPVTG,219.0,T,,M,009.1,N,016.8,K
2014-08-01T00:02:25.296000Z $GPZDA,000225,01,08,2014,7
2014-08-01T00:02:25.296000Z $GPGLL,2200.384,S,01756.596,W
2014-08-01T00:02:25.296000Z $GPVTG,218.5,T,,M,009.0,N,016.7,K
2014-08-01T00:02:26.301000Z $GPZDA,000226,01,08,2014,7
2014-08-01T00:02:26.301000Z $GPGLL,2200.386,S,01756.598,W
2014-08-01T00:02:26.301000Z $GPVTG,218.7,T,,M,009.0,N,016.6,K
2014-08-01T00:02:27.301000Z $GPZDA,000227,01,08,2014,7
2014-08-01T00:02:27.301000Z $GPGLL,2200.386,S,01756.598,W
2014-08-01T00:02:27.301000Z $GPVTG,218.7,T,,M,009.0,N,016.6,K
2014-08-01T00:02:28.296000Z $GPZDA,000228,01,08,2014,7
2014-08-01T00:02:28.296000Z $GPGLL,2200.388,S,01756.600,W
2014-08-01T00:02:28.296000Z $GPVTG,219.5,T,,M,009.0,N,016.6,K
2014-08-01T00:02:29.301000Z $GPZDA,000229,01,08,2014,7
2014-08-01T00:02:29.301000Z $GPGLL,2200.390,S,01756.603,W
2014-08-01T00:02:29.301000Z $GPVTG,220.2,T,,M,009.0,N,016.6,K
2014-08-01T00:02:30.316000Z $GPZDA,000230,01,08,2014,7
2014-08-01T00:02:30.316000Z $GPGLL,2200.393,S,01756.605,W
2014-08-01T00:02:30.316000Z $GPVTG,220.5,T,,M,009.1,N,016.9,K
2014-08-01T00:02:31.300000Z $GPZDA,000231,01,08,2014,7
2014-08-01T00:02:31.300000Z $GPGLL,2200.395,S,01756.607,W
2014-08-01T00:02:31.301000Z $GPVTG,220.0,T,,M,009.2,N,017.0,K
2014-08-01T00:02:32.296000Z $GPZDA,000232,01,08,2014,7
2014-08-01T00:02:32.296000Z $GPGLL,2200.398,S,01756.609,W
2014-08-01T00:02:32.296000Z $GPVTG,219.1,T,,M,009.2,N,017.0,K
2014-08-01T00:02:33.296000Z $GPZDA,000233,01,08,2014,7
2014-08-01T00:02:33.296000Z $GPGLL,2200.398,S,01756.609,W
2014-08-01T00:02:33.296000Z $GPVTG,219.1,T,,M,009.2,N,017.0,K
2014-08-01T00:02:34.301000Z $GPZDA,000234,01,08,2014,7
2014-08-01T00:02:34.301000Z $GPGLL,2200.400,S,01756.611,W
2014-08-01T00:02:34.301000Z $GPVTG,218.5,T,,M,009.1,N,016.8,K
2014-08-01T00:02:35.296000Z $GPZDA,000235,01,08,2014,7
2014-08-01T00:02:35.296000Z $GPGLL,2200.403,S,01756.613,W
2014-08-01T00:02:35.296000Z $GPVTG,217.8,T,,M,009.0,N,016.7,K
2014-08-01T00:02:36.301000Z $GPZDA,000236,01,08,2014,7
2014-08-01T00:02:36.301000Z $GPGLL,2200.405,S,01756.615,W
2014-08-01T00:02:36.301000Z $GPVTG,218.5,T,,M,009.1,N,016.9,K
2014-08-01T00:02:37.296000Z $GPZDA,000237,01,08,2014,7
2014-08-01T00:02:37.296000Z $GPGLL,2200.408,S,01756.617,W
2014-08-01T00:02:37.296000Z $GPVTG,219.3,T,,M,009.4,N,017.4,K
2014-08-01T00:02:38.301000Z $GPZDA,000238,01,08,2014,7
2014-08-01T00:02:38.301000Z $GPGLL,2200.410,S,01756.619,W
2014-08-01T00:02:38.301000Z $GPVTG,219.8,T,,M,009.5,N,017.7,K
2014-08-01T00:02:39.301000Z $GPZDA,000239,01,08,2014,7
2014-08-01T00:02:39.301000Z $GPGLL,2200.410,S,01756.619,W
2014-08-01T00:02:39.301000Z $GPVTG,219.8,T,,M,009.5,N,017.7,K
2014-08-01T00:02:40.316000Z $GPZDA,000240,01,08,2014,7
2014-08-01T00:02:40.316000Z $GPGLL,2200.412,S,01756.621,W
2014-08-01T00:02:40.316000Z $GPVTG,220.0,T,,M,009.5,N,017.6,K
2014-08-01T00:02:41.311000Z $GPZDA,000241,01,08,2014,7
2014-08-01T00:02:41.311000Z $GPGLL,2200.415,S,01756.624,W
2014-08-01T00:02:41.311000Z $GPVTG,220.2,T,,M,009.5,N,017.6,K
2014-08-01T00:02:42.296000Z $GPZDA,000242,01,08,2014,7
2014-08-01T00:02:42.296000Z $GPGLL,2200.417,S,01756.626,W
2014-08-01T00:02:42.296000Z $GPVTG,220.7,T,,M,009.6,N,017.7,K
2014-08-01T00:02:43.301000Z $GPZDA,000243,01,08,2014,7
2014-08-01T00:02:43.301000Z $GPGLL,2200.420,S,01756.628,W
2014-08-01T00:02:43.301000Z $GPVTG,220.6,T,,M,009.6,N,017.8,K
2014-08-01T00:02:44.296000Z $GPZDA,000244,01,08,2014,7
2014-08-01T00:02:44.296000Z $GPGLL,2200.422,S,01756.630,W
2014-08-01T00:02:44.296000Z $GPVTG,220.0,T,,M,009.5,N,017.6,K
2014-08-01T00:02:45.296000Z $GPZDA,000245,01,08,2014,7
2014-08-01T00:02:45.296000Z $GPGLL,2200.422,S,01756.630,W
2014-08-01T00:02:45.296000Z $GPVTG,220.0,T,,M,009.5,N,017.6,K
2014-08-01T00:02:46.301000Z $GPZDA,000246,01,08,2014,7
2014-08-01T00:02:46.301000Z $GPGLL,2200.424,S,01756.632,W
2014-08-01T00:02:46.301000Z $GPVTG,219.2,T,,M,009.3,N,017.2,K
2014-08-01T00:02:47.296000Z $GPZDA,000247,01,08,2014,7
2014-08-01T00:02:47.296000Z $GPGLL,2200.427,S,01756.635,W
2014-08-01T00:02:47.296000Z $GPVTG,218.5,T,,M,009.1,N,016.9,K
2014-08-01T00:02:48.301000Z $GPZDA,000248,01,08,2014,7
2014-08-01T00:02:48.301000Z $GPGLL,2200.429,S,01756.637,W
2014-08-01T00:02:48.301000Z $GPVTG,218.7,T,,M,009.3,N,017.1,K
2014-08-01T00:02:49.296000Z $GPZDA,000249,01,08,2014,7
2014-08-01T00:02:49.296000Z $GPGLL,2200.431,S,01756.639,W
2014-08-01T00:02:49.296000Z $GPVTG,218.9,T,,M,009.5,N,017.6,K
2014-08-01T00:02:50.321000Z $GPZDA,000250,01,08,2014,7
2014-08-01T00:02:50.321000Z $GPGLL,2200.434,S,01756.641,W
2014-08-01T00:02:50.321000Z $GPVTG,219.0,T,,M,009.7,N,018.0,K
2014-08-01T00:02:51.301000Z $GPZDA,000251,01,08,2014,7
2014-08-01T00:02:51.301000Z $GPGLL,2200.434,S,01756.641,W
2014-08-01T00:02:51.301000Z $GPVTG,219.0,T,,M,009.7,N,018.0,K
2014-08-01T00:02:52.296000Z $GPZDA,000252,01,08,2014,7
2014-08-01T00:02:52.296000Z $GPGLL,2200.436,S,01756.643,W
2014-08-01T00:02:52.296000Z $GPVTG,219.4,T,,M,009.8,N,018.1,K
2014-08-01T00:02:53.301000Z $GPZDA,000253,01,08,2014,7
2014-08-01T00:02:53.301000Z $GPGLL,2200.439,S,01756.646,W
2014-08-01T00:02:53.301000Z $GPVTG,219.6,T,,M,009.8,N,018.2,K
2014-08-01T00:02:54.296000Z $GPZDA,000254,01,08,2014,7
2014-08-01T00:02:54.296000Z $GPGLL,2200.441,S,01756.648,W
2014-08-01T00:02:54.296000Z $GPVTG,220.1,T,,M,009.7,N,017.9,K
2014-08-01T00:02:55.301000Z $GPZDA,000255,01,08,2014,7
2014-08-01T00:02:55.301000Z $GPGLL,2200.443,S,01756.650,W
2014-08-01T00:02:55.301000Z $GPVTG,220.5,T,,M,009.7,N,017.9,K
2014-08-01T00:02:56.296000Z $GPZDA,000256,01,08,2014,7
2014-08-01T00:02:56.296000Z $GPGLL,2200.446,S,01756.652,W
2014-08-01T00:02:56.296000Z $GPVTG,220.5,T,,M,009.7,N,018.0,K
2014-08-01T00:02:57.295000Z $GPZDA,000257,01,08,2014,7
2014-08-01T00:02:57.295000Z $GPGLL,2200.446,S,01756.652,W
2014-08-01T00:02:57.295000Z $GPVTG,220.5,T,,M,009.7,N,018.0,K
2014-08-01T00:02:58.301000Z $GPZDA,000258,01,08,2014,7
2014-08-01T00:02:58.301000Z $GPGLL,2200.448,S,01756.654,W
2014-08-01T00:02:58.301000Z $GPVTG,220.0,T,,M,009.7,N,017.9,K
2014-08-01T00:02:59.301000Z $GPZDA,000259,01,08,2014,7
2014-08-01T00:02:59.301000Z $GPGLL,2200.450,S,01756.656,W
2014-08-01T00:02:59.301000Z $GPVTG,219.7,T,,M,009.7,N,017.9,K
2014-08-01T00:03:00.316000Z $GPZDA,000300,01,08,2014,7
2014-08-01T00:03:00.316000Z $GPGLL,2200.453,S,01756.658,W
2014-08-01T00:03:00.316000Z $GPVTG,219.4,T,,M,009.6,N,017.9,K
2014-08-01T00:03:01.311000Z $GPZDA,000301,01,08,2014,7
2014-08-01T00:03:01.311000Z $GPGLL,2200.455,S,01756.660,W
2014-08-01T00:03:01.311000Z $GPVTG,219.2,T,,M,009.7,N,017.9,K
2014-08-01T00:03:02.296000Z $GPZDA,000302,01,08,2014,7
2014-08-01T00:03:02.296000Z $GPGLL,2200.458,S,01756.662,W
2014-08-01T00:03:02.296000Z $GPVTG,219.3,T,,M,009.7,N,018.0,K
2014-08-01T00:03:03.296000Z $GPZDA,000303,01,08,2014,7
2014-08-01T00:03:03.296000Z $GPGLL,2200.458,S,01756.662,W
2014-08-01T00:03:03.296000Z $GPVTG,219.3,T,,M,009.7,N,018.0,K
2014-08-01T00:03:04.301000Z $GPZDA,000304,01,08,2014,7
2014-08-01T00:03:04.301000Z $GPGLL,2200.460,S,01756.664,W
2014-08-01T00:03:04.301000Z $GPVTG,219.6,T,,M,009.8,N,018.2,K
2014-08-01T00:03:05.296000Z $GPZDA,000305,01,08,2014,7
2014-08-01T00:03:05.296000Z $GPGLL,2200.463,S,01756.667,W
2014-08-01T00:03:05.296000Z $GPVTG,219.9,T,,M,009.9,N,018.4,K
2014-08-01T00:03:06.300000Z $GPZDA,000306,01,08,2014,7
2014-08-01T00:03:06.301000Z $GPGLL,2200.466,S,01756.669,W
2014-08-01T00:03:06.301000Z $GPVTG,219.4,T,,M,009.6,N,017.9,K
2014-08-01T00:03:07.296000Z $GPZDA,000307,01,08,2014,7
2014-08-01T00:03:07.296000Z $GPGLL,2200.468,S,01756.671,W
2014-08-01T00:03:07.296000Z $GPVTG,219.2,T,,M,009.4,N,017.5,K
2014-08-01T00:03:08.300000Z $GPZDA,000308,01,08,2014,7
2014-08-01T00:03:08.301000Z $GPGLL,2200.470,S,01756.673,W
2014-08-01T00:03:08.301000Z $GPVTG,219.0,T,,M,009.4,N,017.4,K
2014-08-01T00:03:09.301000Z $GPZDA,000309,01,08,2014,7
2014-08-01T00:03:09.301000Z $GPGLL,2200.470,S,01756.673,W
2014-08-01T00:03:09.301000Z $GPVTG,219.0,T,,M,009.4,N,017.4,K
2014-08-01T00:03:10.316000Z $GPZDA,000310,01,08,2014,7
2014-08-01T00:03:10.316000Z $GPGLL,2200.472,S,01756.675,W
2014-08-01T00:03:10.316000Z $GPVTG,218.9,T,,M,009.5,N,017.7,K
2014-08-01T00:03:11.301000Z $GPZDA,000311,01,08,2014,7
2014-08-01T00:03:11.301000Z $GPGLL,2200.475,S,01756.677,W
2014-08-01T00:03:11.301000Z $GPVTG,218.8,T,,M,009.6,N,017.8,K
2014-08-01T00:03:12.296000Z $GPZDA,000312,01,08,2014,7
2014-08-01T00:03:12.296000Z $GPGLL,2200.478,S,01756.680,W
2014-08-01T00:03:12.296000Z $GPVTG,219.5,T,,M,009.6,N,017.9,K
2014-08-01T00:03:13.300000Z $GPZDA,000313,01,08,2014,7
2014-08-01T00:03:13.301000Z $GPGLL,2200.480,S,01756.682,W
2014-08-01T00:03:13.301000Z $GPVTG,220.0,T,,M,009.5,N,017.5,K
2014-08-01T00:03:14.296000Z $GPZDA,000314,01,08,2014,7
2014-08-01T00:03:14.296000Z $GPGLL,2200.483,S,01756.684,W
2014-08-01T00:03:14.296000Z $GPVTG,220.0,T,,M,009.3,N,017.2,K
2014-08-01T00:03:15.296000Z $GPZDA,000315,01,08,2014,7
2014-08-01T00:03:15.296000Z $GPGLL,2200.483,S,01756.684,W
2014-08-01T00:03:15.296000Z $GPVTG,220.0,T,,M,009.3,N,017.2,K
2014-08-01T00:03:16.301000Z $GPZDA,000316,01,08,2014,7
2014-08-01T00:03:16.301000Z $GPGLL,2200.485,S,01756.686,W
2014-08-01T00:03:16.301000Z $GPVTG,219.3,T,,M,009.2,N,017.0,K
2014-08-01T00:03:17.296000Z $GPZDA,000317,01,08,2014,7
2014-08-01T00:03:17.296000Z $GPGLL,2200.487,S,01756.689,W
2014-08-01T00:03:17.296000Z $GPVTG,218.7,T,,M,009.1,N,016.9,K
2014-08-01T00:03:18.300000Z $GPZDA,000318,01,08,2014,7
2014-08-01T00:03:18.301000Z $GPGLL,2200.490,S,01756.690,W
2014-08-01T00:03:18.301000Z $GPVTG,217.9,T,,M,009.3,N,017.2,K
2014-08-01T00:03:19.295000Z $GPZDA,000319,01,08,2014,7
2014-08-01T00:03:19.296000Z $GPGLL,2200.492,S,01756.692,W
2014-08-01T00:03:19.296000Z $GPVTG,217.5,T,,M,009.3,N,017.3,K
2014-08-01T00:03:20.321000Z $GPZDA,000320,01,08,2014,7
2014-08-01T00:03:20.321000Z $GPGLL,2200.495,S,01756.694,W
2014-08-01T00:03:20.321000Z $GPVTG,217.5,T,,M,009.3,N,017.2,K
2014-08-01T00:03:21.300000Z $GPZDA,000321,01,08,2014,7
2014-08-01T00:03:21.300000Z $GPGLL,2200.495,S,01756.694,W
2014-08-01T00:03:21.300000Z $GPVTG,217.5,T,,M,009.3,N,017.2,K
2014-08-01T00:03:22.296000Z $GPZDA,000322,01,08,2014,7
2014-08-01T00:03:22.296000Z $GPGLL,2200.497,S,01756.696,W
2014-08-01T00:03:22.296000Z $GPVTG,218.0,T,,M,009.3,N,017.3,K
2014-08-01T00:03:23.301000Z $GPZDA,000323,01,08,2014,7
2014-08-01T00:03:23.301000Z $GPGLL,2200.500,S,01756.699,W
2014-08-01T00:03:23.301000Z $GPVTG,218.5,T,,M,009.4,N,017.3,K
2014-08-01T00:03:24.296000Z $GPZDA,000324,01,08,2014,7
2014-08-01T00:03:24.296000Z $GPGLL,2200.503,S,01756.701,W
2014-08-01T00:03:24.296000Z $GPVTG,218.8,T,,M,009.5,N,017.6,K
2014-08-01T00:03:25.301000Z $GPZDA,000325,01,08,2014,7
2014-08-01T00:03:25.301000Z $GPGLL,2200.505,S,01756.703,W
2014-08-01T00:03:25.301000Z $GPVTG,219.0,T,,M,009.4,N,017.5,K
2014-08-01T00:03:26.295000Z $GPZDA,000326,01,08,2014,7
2014-08-01T00:03:26.296000Z $GPGLL,2200.508,S,01756.705,W
2014-08-01T00:03:26.296000Z $GPVTG,219.1,T,,M,009.1,N,016.9,K
2014-08-01T00:03:27.296000Z $GPZDA,000327,01,08,2014,7
2014-08-01T00:03:27.296000Z $GPGLL,2200.508,S,01756.705,W
2014-08-01T00:03:27.296000Z $GPVTG,219.1,T,,M,009.1,N,016.9,K
2014-08-01T00:03:28.301000Z $GPZDA,000328,01,08,2014,7
2014-08-01T00:03:28.301000Z $GPGLL,2200.510,S,01756.707,W
2014-08-01T00:03:28.301000Z $GPVTG,219.1,T,,M,008.9,N,016.4,K
2014-08-01T00:03:29.296000Z $GPZDA,000329,01,08,2014,7
2014-08-01T00:03:29.296000Z $GPGLL,2200.512,S,01756.709,W
2014-08-01T00:03:29.296000Z $GPVTG,219.0,T,,M,008.7,N,016.0,K
2014-08-01T00:03:30.321000Z $GPZDA,000330,01,08,2014,7
2014-08-01T00:03:30.321000Z $GPGLL,2200.515,S,01756.712,W
2014-08-01T00:03:30.321000Z $GPVTG,218.4,T,,M,009.0,N,016.7,K
2014-08-01T00:03:31.306000Z $GPZDA,000331,01,08,2014,7
2014-08-01T00:03:31.306000Z $GPGLL,2200.518,S,01756.714,W
2014-08-01T00:03:31.306000Z $GPVTG,217.9,T,,M,009.2,N,017.0,K
2014-08-01T00:03:32.301000Z $GPZDA,000332,01,08,2014,7
2014-08-01T00:03:32.301000Z $GPGLL,2200.520,S,01756.716,W
2014-08-01T00:03:32.301000Z $GPVTG,217.7,T,,M,009.2,N,017.0,K
2014-08-01T00:03:33.301000Z $GPZDA,000333,01,08,2014,7
2014-08-01T00:03:33.301000Z $GPGLL,2200.520,S,01756.716,W
2014-08-01T00:03:33.301000Z $GPVTG,217.7,T,,M,009.2,N,017.0,K
2014-08-01T00:03:34.295000Z $GPZDA,000334,01,08,2014,7
2014-08-01T00:03:34.295000Z $GPGLL,2200.522,S,01756.718,W
2014-08-01T00:03:34.295000Z $GPVTG,217.7,T,,M,009.1,N,016.9,K
2014-08-01T00:03:35.300000Z $GPZDA,000335,01,08,2014,7
2014-08-01T00:03:35.301000Z $GPGLL,2200.525,S,01756.720,W
2014-08-01T00:03:35.301000Z $GPVTG,217.7,T,,M,009.1,N,016.9,K
2014-08-01T00:03:36.296000Z $GPZDA,000336,01,08,2014,7
2014-08-01T00:03:36.296000Z $GPGLL,2200.527,S,01756.723,W
2014-08-01T00:03:36.296000Z $GPVTG,218.2,T,,M,009.2,N,017.1,K
2014-08-01T00:03:37.300000Z $GPZDA,000337,01,08,2014,7
2014-08-01T00:03:37.301000Z $GPGLL,2200.530,S,01756.725,W
2014-08-01T00:03:37.301000Z $GPVTG,218.4,T,,M,009.4,N,017.4,K
2014-08-01T00:03:38.296000Z $GPZDA,000338,01,08,2014,7
2014-08-01T00:03:38.296000Z $GPGLL,2200.532,S,01756.727,W
2014-08-01T00:03:38.296000Z $GPVTG,218.4,T,,M,009.4,N,017.5,K
2014-08-01T00:03:39.296000Z $GPZDA,000339,01,08,2014,7
2014-08-01T00:03:39.296000Z $GPGLL,2200.532,S,01756.727,W
2014-08-01T00:03:39.296000Z $GPVTG,218.4,T,,M,009.4,N,017.5,K
2014-08-01T00:03:40.320000Z $GPZDA,000340,01,08,2014,7
2014-08-01T00:03:40.321000Z $GPGLL,2200.534,S,01756.729,W
2014-08-01T00:03:40.321000Z $GPVTG,218.7,T,,M,009.3,N,017.3,K
2014-08-01T00:03:41.315000Z $GPZDA,000341,01,08,2014,7
2014-08-01T00:03:41.315000Z $GPGLL,2200.537,S,01756.731,W
2014-08-01T00:03:41.315000Z $GPVTG,218.9,T,,M,009.3,N,017.2,K
2014-08-01T00:03:42.301000Z $GPZDA,000342,01,08,2014,7
2014-08-01T00:03:42.301000Z $GPGLL,2200.539,S,01756.734,W
2014-08-01T00:03:42.301000Z $GPVTG,219.1,T,,M,009.4,N,017.4,K
2014-08-01T00:03:43.296000Z $GPZDA,000343,01,08,2014,7
2014-08-01T00:03:43.296000Z $GPGLL,2200.542,S,01756.736,W
2014-08-01T00:03:43.296000Z $GPVTG,219.0,T,,M,009.6,N,017.8,K
2014-08-01T00:03:44.300000Z $GPZDA,000344,01,08,2014,7
2014-08-01T00:03:44.301000Z $GPGLL,2200.544,S,01756.738,W
2014-08-01T00:03:44.301000Z $GPVTG,218.7,T,,M,009.7,N,018.0,K
2014-08-01T00:03:45.300000Z $GPZDA,000345,01,08,2014,7
2014-08-01T00:03:45.300000Z $GPGLL,2200.544,S,01756.738,W
2014-08-01T00:03:45.300000Z $GPVTG,218.7,T,,M,009.7,N,018.0,K
2014-08-01T00:03:46.295000Z $GPZDA,000346,01,08,2014,7
2014-08-01T00:03:46.296000Z $GPGLL,2200.547,S,01756.740,W
2014-08-01T00:03:46.296000Z $GPVTG,218.1,T,,M,009.6,N,017.8,K
2014-08-01T00:03:47.301000Z $GPZDA,000347,01,08,2014,7
2014-08-01T00:03:47.301000Z $GPGLL,2200.549,S,01756.742,W
2014-08-01T00:03:47.301000Z $GPVTG,217.5,T,,M,009.5,N,017.6,K
2014-08-01T00:03:48.295000Z $GPZDA,000348,01,08,2014,7
2014-08-01T00:03:48.295000Z $GPGLL,2200.552,S,01756.744,W
2014-08-01T00:03:48.296000Z $GPVTG,217.6,T,,M,009.5,N,017.7,K
2014-08-01T00:03:49.301000Z $GPZDA,000349,01,08,2014,7
2014-08-01T00:03:49.301000Z $GPGLL,2200.554,S,01756.746,W
2014-08-01T00:03:49.301000Z $GPVTG,218.1,T,,M,009.7,N,018.0,K
2014-08-01T00:03:50.315000Z $GPZDA,000350,01,08,2014,7
2014-08-01T00:03:50.315000Z $GPGLL,2200.557,S,01756.748,W
2014-08-01T00:03:50.315000Z $GPVTG,218.7,T,,M,009.9,N,018.4,K
2014-08-01T00:03:51.296000Z $GPZDA,000351,01,08,2014,7
2014-08-01T00:03:51.296000Z $GPGLL,2200.557,S,01756.748,W
2014-08-01T00:03:51.296000Z $GPVTG,218.7,T,,M,009.9,N,018.4,K
2014-08-01T00:03:52.300000Z $GPZDA,000352,01,08,2014,7
2014-08-01T00:03:52.300000Z $GPGLL,2200.559,S,01756.750,W
2014-08-01T00:03:52.301000Z $GPVTG,219.1,T,,M,010.0,N,018.5,K
2014-08-01T00:03:53.301000Z $GPZDA,000353,01,08,2014,7
2014-08-01T00:03:53.301000Z $GPGLL,2200.562,S,01756.753,W
2014-08-01T00:03:53.301000Z $GPVTG,219.5,T,,M,010.1,N,018.6,K
2014-08-01T00:03:54.296000Z $GPZDA,000354,01,08,2014,7
2014-08-01T00:03:54.296000Z $GPGLL,2200.565,S,01756.755,W
2014-08-01T00:03:54.296000Z $GPVTG,219.9,T,,M,009.8,N,018.1,K
2014-08-01T00:03:55.301000Z $GPZDA,000355,01,08,2014,7
2014-08-01T00:03:55.301000Z $GPGLL,2200.567,S,01756.757,W
2014-08-01T00:03:55.301000Z $GPVTG,219.9,T,,M,009.8,N,018.1,K
2014-08-01T00:03:56.295000Z $GPZDA,000356,01,08,2014,7
2014-08-01T00:03:56.295000Z $GPGLL,2200.569,S,01756.759,W
2014-08-01T00:03:56.295000Z $GPVTG,219.5,T,,M,009.9,N,018.4,K
2014-08-01T00:03:57.295000Z $GPZDA,000357,01,08,2014,7
2014-08-01T00:03:57.296000Z $GPGLL,2200.569,S,01756.759,W
2014-08-01T00:03:57.296000Z $GPVTG,219.5,T,,M,009.9,N,018.4,K
2014-08-01T00:03:58.301000Z $GPZDA,000358,01,08,2014,7
2014-08-01T00:03:58.301000Z $GPGLL,2200.572,S,01756.761,W
2014-08-01T00:03:58.301000Z $GPVTG,219.1,T,,M,010.1,N,018.7,K
2014-08-01T00:03:59.295000Z $GPZDA,000359,01,08,2014,7
2014-08-01T00:03:59.295000Z $GPGLL,2200.574,S,01756.763,W
2014-08-01T00:03:59.296000Z $GPVTG,218.8,T,,M,010.2,N,018.9,K
2014-08-01T00:04:00.321000Z $GPZDA,000400,01,08,2014,7
2014-08-01T00:04:00.321000Z $GPGLL,2200.577,S,01756.765,W
2014-08-01T00:04:00.321000Z $GPVTG,218.8,T,,M,009.9,N,018.4,K
2014-08-01T00:04:01.295000Z $GPZDA,000401,01,08,2014,7
2014-08-01T00:04:01.296000Z $GPGLL,2200.579,S,01756.767,W
2014-08-01T00:04:01.296000Z $GPVTG,218.7,T,,M,009.8,N,018.2,K
2014-08-01T00:04:02.301000Z $GPZDA,000402,01,08,2014,7
2014-08-01T00:04:02.301000Z $GPGLL,2200.582,S,01756.769,W
2014-08-01T00:04:02.301000Z $GPVTG,218.6,T,,M,009.9,N,018.4,K
2014-08-01T00:04:03.301000Z $GPZDA,000403,01,08,2014,7
2014-08-01T00:04:03.301000Z $GPGLL,2200.582,S,01756.769,W
2014-08-01T00:04:03.301000Z $GPVTG,218.6,T,,M,009.9,N,018.4,K
2014-08-01T00:04:04.296000Z $GPZDA,000404,01,08,2014,7
2014-08-01T00:04:04.296000Z $GPGLL,2200.584,S,01756.771,W
2014-08-01T00:04:04.296000Z $GPVTG,218.7,T,,M,010.0,N,018.5,K
2014-08-01T00:04:05.301000Z $GPZDA,000405,01,08,2014,7
2014-08-01T00:04:05.301000Z $GPGLL,2200.587,S,01756.774,W
2014-08-01T00:04:05.301000Z $GPVTG,218.8,T,,M,010.0,N,018.6,K
2014-08-01T00:04:06.296000Z $GPZDA,000406,01,08,2014,7
2014-08-01T00:04:06.296000Z $GPGLL,2200.589,S,01756.776,W
2014-08-01T00:04:06.296000Z $GPVTG,219.2,T,,M,010.0,N,018.5,K
2014-08-01T00:04:07.300000Z $GPZDA,000407,01,08,2014,7
2014-08-01T00:04:07.300000Z $GPGLL,2200.592,S,01756.778,W
2014-08-01T00:04:07.300000Z $GPVTG,219.6,T,,M,010.0,N,018.5,K
2014-08-01T00:04:08.296000Z $GPZDA,000408,01,08,2014,7
2014-08-01T00:04:08.296000Z $GPGLL,2200.594,S,01756.781,W
2014-08-01T00:04:08.296000Z $GPVTG,219.9,T,,M,009.9,N,018.4,K
2014-08-01T00:04:09.295000Z $GPZDA,000409,01,08,2014,7
2014-08-01T00:04:09.295000Z $GPGLL,2200.594,S,01756.781,W
2014-08-01T00:04:09.295000Z $GPVTG,219.9,T,,M,009.9,N,018.4,K
2014-08-01T00:04:10.321000Z $GPZDA,000410,01,08,2014,7
2014-08-01T00:04:10.321000Z $GPGLL,2200.596,S,01756.783,W
2014-08-01T00:04:10.321000Z $GPVTG,220.1,T,,M,009.8,N,018.2,K
2014-08-01T00:04:11.306000Z $GPZDA,000411,01,08,2014,7
2014-08-01T00:04:11.306000Z $GPGLL,2200.599,S,01756.785,W
2014-08-01T00:04:11.306000Z $GPVTG,220.3,T,,M,009.8,N,018.1,K
2014-08-01T00:04:12.301000Z $GPZDA,000412,01,08,2014,7
2014-08-01T00:04:12.301000Z $GPGLL,2200.602,S,01756.788,W
2014-08-01T00:04:12.301000Z $GPVTG,219.9,T,,M,009.8,N,018.2,K
2014-08-01T00:04:13.296000Z $GPZDA,000413,01,08,2014,7
2014-08-01T00:04:13.296000Z $GPGLL,2200.605,S,01756.790,W
2014-08-01T00:04:13.296000Z $GPVTG,219.5,T,,M,009.8,N,018.2,K
2014-08-01T00:04:14.301000Z $GPZDA,000414,01,08,2014,7
2014-08-01T00:04:14.301000Z $GPGLL,2200.607,S,01756.792,W
2014-08-01T00:04:14.301000Z $GPVTG,219.0,T,,M,009.7,N,018.0,K
2014-08-01T00:04:15.301000Z $GPZDA,000415,01,08,2014,7
2014-08-01T00:04:15.301000Z $GPGLL,2200.607,S,01756.792,W
2014-08-01T00:04:15.301000Z $GPVTG,219.0,T,,M,009.7,N,018.0,K
2014-08-01T00:04:16.296000Z $GPZDA,000416,01,08,2014,7
2014-08-01T00:04:16.296000Z $GPGLL,2200.610,S,01756.794,W
2014-08-01T00:04:16.296000Z $GPVTG,218.8,T,,M,009.6,N,017.8,K
2014-08-01T00:04:17.301000Z $GPZDA,000417,01,08,2014,7
2014-08-01T00:04:17.301000Z $GPGLL,2200.612,S,01756.797,W
2014-08-01T00:04:17.301000Z $GPVTG,218.5,T,,M,009.5,N,017.6,K
2014-08-01T00:04:18.296000Z $GPZDA,000418,01,08,2014,7
2014-08-01T00:04:18.296000Z $GPGLL,2200.615,S,01756.799,W
2014-08-01T00:04:18.296000Z $GPVTG,219.4,T,,M,009.7,N,017.9,K
2014-08-01T00:04:19.301000Z $GPZDA,000419,01,08,2014,7
2014-08-01T00:04:19.301000Z $GPGLL,2200.617,S,01756.801,W
2014-08-01T00:04:19.301000Z $GPVTG,220.0,T,,M,009.8,N,018.1,K
2014-08-01T00:04:20.316000Z $GPZDA,000420,01,08,2014,7
2014-08-01T00:04:20.316000Z $GPGLL,2200.620,S,01756.803,W
2014-08-01T00:04:20.316000Z $GPVTG,220.5,T,,M,009.8,N,018.1,K
2014-08-01T00:04:21.295000Z $GPZDA,000421,01,08,2014,7
2014-08-01T00:04:21.296000Z $GPGLL,2200.620,S,01756.803,W
2014-08-01T00:04:21.296000Z $GPVTG,220.5,T,,M,009.8,N,018.1,K
2014-08-01T00:04:22.301000Z $GPZDA,000422,01,08,2014,7
2014-08-01T00:04:22.301000Z $GPGLL,2200.622,S,01756.805,W
2014-08-01T00:04:22.301000Z $GPVTG,220.6,T,,M,009.8,N,018.1,K
2014-08-01T00:04:23.296000Z $GPZDA,000423,01,08,2014,7
2014-08-01T00:04:23.296000Z $GPGLL,2200.624,S,01756.808,W
2014-08-01T00:04:23.296000Z $GPVTG,220.7,T,,M,009.7,N,018.0,K
2014-08-01T00:04:24.301000Z $GPZDA,000424,01,08,2014,7
2014-08-01T00:04:24.301000Z $GPGLL,2200.627,S,01756.810,W
2014-08-01T00:04:24.301000Z $GPVTG,220.7,T,,M,009.7,N,017.9,K
2014-08-01T00:04:25.295000Z $GPZDA,000425,01,08,2014,7
2014-08-01T00:04:25.296000Z $GPGLL,2200.629,S,01756.812,W
2014-08-01T00:04:25.296000Z $GPVTG,220.4,T,,M,009.8,N,018.2,K
2014-08-01T00:04:26.301000Z $GPZDA,000426,01,08,2014,7
2014-08-01T00:04:26.301000Z $GPGLL,2200.632,S,01756.815,W
2014-08-01T00:04:26.301000Z $GPVTG,219.7,T,,M,010.0,N,018.6,K
2014-08-01T00:04:27.301000Z $GPZDA,000427,01,08,2014,7
2014-08-01T00:04:27.301000Z $GPGLL,2200.632,S,01756.815,W
2014-08-01T00:04:27.301000Z $GPVTG,219.7,T,,M,010.0,N,018.6,K
2014-08-01T00:04:28.296000Z $GPZDA,000428,01,08,2014,7
2014-08-01T00:04:28.296000Z $GPGLL,2200.634,S,01756.817,W
2014-08-01T00:04:28.296000Z $GPVTG,219.3,T,,M,010.0,N,018.6,K
2014-08-01T00:04:29.301000Z $GPZDA,000429,01,08,2014,7
2014-08-01T00:04:29.301000Z $GPGLL,2200.637,S,01756.819,W
2014-08-01T00:04:29.301000Z $GPVTG,218.9,T,,M,010.1,N,018.7,K
2014-08-01T00:04:30.316000Z $GPZDA,000430,01,08,2014,7
2014-08-01T00:04:30.316000Z $GPGLL,2200.639,S,01756.821,W
2014-08-01T00:04:30.316000Z $GPVTG,219.4,T,,M,009.9,N,018.4,K
2014-08-01T00:04:31.301000Z $GPZDA,000431,01,08,2014,7
2014-08-01T00:04:31.301000Z $GPGLL,2200.642,S,01756.823,W
2014-08-01T00:04:31.301000Z $GPVTG,219.9,T,,M,010.0,N,018.6,K
2014-08-01T00:04:32.295000Z $GPZDA,000432,01,08,2014,7
2014-08-01T00:04:32.295000Z $GPGLL,2200.644,S,01756.825,W
2014-08-01T00:04:32.295000Z $GPVTG,220.2,T,,M,010.2,N,018.9,K
2014-08-01T00:04:33.295000Z $GPZDA,000433,01,08,2014,7
2014-08-01T00:04:33.295000Z $GPGLL,2200.644,S,01756.825,W
2014-08-01T00:04:33.295000Z $GPVTG,220.2,T,,M,010.2,N,018.9,K
2014-08-01T00:04:34.301000Z $GPZDA,000434,01,08,2014,7
2014-08-01T00:04:34.301000Z $GPGLL,2200.647,S,01756.828,W
2014-08-01T00:04:34.301000Z $GPVTG,220.7,T,,M,010.3,N,019.0,K
2014-08-01T00:04:35.296000Z $GPZDA,000435,01,08,2014,7
2014-08-01T00:04:35.296000Z $GPGLL,2200.649,S,01756.830,W
2014-08-01T00:04:35.296000Z $GPVTG,221.1,T,,M,010.3,N,019.2,K
2014-08-01T00:04:36.301000Z $GPZDA,000436,01,08,2014,7
2014-08-01T00:04:36.301000Z $GPGLL,2200.652,S,01756.832,W
2014-08-01T00:04:36.301000Z $GPVTG,221.0,T,,M,010.1,N,018.8,K
2014-08-01T00:04:37.296000Z $GPZDA,000437,01,08,2014,7
2014-08-01T00:04:37.296000Z $GPGLL,2200.654,S,01756.835,W
2014-08-01T00:04:37.296000Z $GPVTG,220.6,T,,M,010.1,N,018.8,K
2014-08-01T00:04:38.300000Z $GPZDA,000438,01,08,2014,7
2014-08-01T00:04:38.300000Z $GPGLL,2200.657,S,01756.837,W
2014-08-01T00:04:38.301000Z $GPVTG,219.9,T,,M,010.2,N,018.9,K
2014-08-01T00:04:39.300000Z $GPZDA,000439,01,08,2014,7
2014-08-01T00:04:39.301000Z $GPGLL,2200.657,S,01756.837,W
2014-08-01T00:04:39.301000Z $GPVTG,219.9,T,,M,010.2,N,018.9,K
2014-08-01T00:04:40.316000Z $GPZDA,000440,01,08,2014,7
2014-08-01T00:04:40.316000Z $GPGLL,2200.659,S,01756.839,W
2014-08-01T00:04:40.316000Z $GPVTG,219.2,T,,M,010.2,N,018.9,K
2014-08-01T00:04:41.311000Z $GPZDA,000441,01,08,2014,7
2014-08-01T00:04:41.311000Z $GPGLL,2200.662,S,01756.841,W
2014-08-01T00:04:41.311000Z $GPVTG,218.5,T,,M,010.2,N,018.9,K
2014-08-01T00:04:42.295000Z $GPZDA,000442,01,08,2014,7
2014-08-01T00:04:42.295000Z $GPGLL,2200.664,S,01756.844,W
2014-08-01T00:04:42.295000Z $GPVTG,218.7,T,,M,010.0,N,018.5,K
2014-08-01T00:04:43.301000Z $GPZDA,000443,01,08,2014,7
2014-08-01T00:04:43.301000Z $GPGLL,2200.667,S,01756.846,W
2014-08-01T00:04:43.301000Z $GPVTG,219.2,T,,M,009.9,N,018.3,K
2014-08-01T00:04:44.295000Z $GPZDA,000444,01,08,2014,7
2014-08-01T00:04:44.295000Z $GPGLL,2200.669,S,01756.848,W
2014-08-01T00:04:44.295000Z $GPVTG,219.9,T,,M,009.9,N,018.3,K
2014-08-01T00:04:45.295000Z $GPZDA,000445,01,08,2014,7
2014-08-01T00:04:45.295000Z $GPGLL,2200.669,S,01756.848,W
2014-08-01T00:04:45.295000Z $GPVTG,219.9,T,,M,009.9,N,018.3,K
2014-08-01T00:04:46.301000Z $GPZDA,000446,01,08,2014,7
2014-08-01T00:04:46.301000Z $GPGLL,2200.671,S,01756.850,W
2014-08-01T00:04:46.301000Z $GPVTG,220.5,T,,M,010.1,N,018.6,K
2014-08-01T00:04:47.295000Z $GPZDA,000447,01,08,2014,7
2014-08-01T00:04:47.296000Z $GPGLL,2200.674,S,01756.852,W
2014-08-01T00:04:47.296000Z $GPVTG,220.9,T,,M,010.2,N,018.9,K
2014-08-01T00:04:48.301000Z $GPZDA,000448,01,08,2014,7
2014-08-01T00:04:48.301000Z $GPGLL,2200.677,S,01756.855,W
2014-08-01T00:04:48.301000Z $GPVTG,220.8,T,,M,009.9,N,018.4,K
2014-08-01T00:04:49.295000Z $GPZDA,000449,01,08,2014,7
2014-08-01T00:04:49.295000Z $GPGLL,2200.679,S,01756.857,W
2014-08-01T00:04:49.296000Z $GPVTG,220.4,T,,M,009.7,N,017.9,K
2014-08-01T00:04:50.321000Z $GPZDA,000450,01,08,2014,7
2014-08-01T00:04:50.321000Z $GPGLL,2200.681,S,01756.859,W
2014-08-01T00:04:50.321000Z $GPVTG,219.8,T,,M,009.7,N,017.9,K
2014-08-01T00:04:51.300000Z $GPZDA,000451,01,08,2014,7
2014-08-01T00:04:51.300000Z $GPGLL,2200.681,S,01756.859,W
2014-08-01T00:04:51.300000Z $GPVTG,219.8,T,,M,009.7,N,017.9,K
2014-08-01T00:04:52.296000Z $GPZDA,000452,01,08,2014,7
2014-08-01T00:04:52.296000Z $GPGLL,2200.684,S,01756.861,W
2014-08-01T00:04:52.296000Z $GPVTG,219.4,T,,M,009.8,N,018.2,K
2014-08-01T00:04:53.300000Z $GPZDA,000453,01,08,2014,7
2014-08-01T00:04:53.300000Z $GPGLL,2200.686,S,01756.864,W
2014-08-01T00:04:53.300000Z $GPVTG,218.9,T,,M,010.0,N,018.5,K
2014-08-01T00:04:54.296000Z $GPZDA,000454,01,08,2014,7
2014-08-01T00:04:54.296000Z $GPGLL,2200.689,S,01756.866,W
2014-08-01T00:04:54.296000Z $GPVTG,219.2,T,,M,009.8,N,018.1,K
2014-08-01T00:04:55.300000Z $GPZDA,000455,01,08,2014,7
2014-08-01T00:04:55.300000Z $GPGLL,2200.691,S,01756.868,W
2014-08-01T00:04:55.300000Z $GPVTG,219.6,T,,M,009.6,N,017.7,K
2014-08-01T00:04:56.296000Z $GPZDA,000456,01,08,2014,7
2014-08-01T00:04:56.296000Z $GPGLL,2200.694,S,01756.870,W
2014-08-01T00:04:56.296000Z $GPVTG,219.9,T,,M,009.5,N,017.6,K
2014-08-01T00:04:57.295000Z $GPZDA,000457,01,08,2014,7
2014-08-01T00:04:57.295000Z $GPGLL,2200.694,S,01756.870,W
2014-08-01T00:04:57.295000Z $GPVTG,219.9,T,,M,009.5,N,017.6,K
2014-08-01T00:04:58.301000Z $GPZDA,000458,01,08,2014,7
2014-08-01T00:04:58.301000Z $GPGLL,2200.696,S,01756.872,W
2014-08-01T00:04:58.301000Z $GPVTG,220.0,T,,M,009.6,N,017.9,K
2014-08-01T00:04:59.296000Z $GPZDA,000459,01,08,2014,7
2014-08-01T00:04:59.296000Z $GPGLL,2200.699,S,01756.875,W
2014-08-01T00:04:59.296000Z $GPVTG,220.0,T,,M,009.8,N,018.1,K
2014-08-01T00:05:00.321000Z $GPZDA,000500,01,08,2014,7
2014-08-01T00:05:00.321000Z $GPGLL,2200.701,S,01756.877,W
2014-08-01T00:05:00.321000Z $GPVTG,220.0,T,,M,009.7,N,017.9,K
2014-08-01T00:05:01.295000Z $GPZDA,000501,01,08,2014,7
2014-08-01T00:05:01.296000Z $GPGLL,2200.703,S,01756.879,W
2014-08-01T00:05:01.296000Z $GPVTG,220.2,T,,M,009.6,N,017.7,K
2014-08-01T00:05:02.301000Z $GPZDA,000502,01,08,2014,7
2014-08-01T00:05:02.301000Z $GPGLL,2200.706,S,01756.881,W
2014-08-01T00:05:02.301000Z $GPVTG,220.4,T,,M,009.5,N,017.6,K
2014-08-01T00:05:03.301000Z $GPZDA,000503,01,08,2014,7
2014-08-01T00:05:03.301000Z $GPGLL,2200.706,S,01756.881,W
2014-08-01T00:05:03.301000Z $GPVTG,220.4,T,,M,009.5,N,017.6,K
2014-08-01T00:05:04.295000Z $GPZDA,000504,01,08,2014,7
2014-08-01T00:05:04.296000Z $GPGLL,2200.708,S,01756.883,W
2014-08-01T00:05:04.296000Z $GPVTG,220.4,T,,M,009.4,N,017.5,K
2014-08-01T00:05:05.301000Z $GPZDA,000505,01,08,2014,7
2014-08-01T00:05:05.301000Z $GPGLL,2200.711,S,01756.885,W
2014-08-01T00:05:05.301000Z $GPVTG,220.4,T,,M,009.4,N,017.4,K
2014-08-01T00:05:06.295000Z $GPZDA,000506,01,08,2014,7
2014-08-01T00:05:06.295000Z $GPGLL,2200.713,S,01756.888,W
2014-08-01T00:05:06.296000Z $GPVTG,219.9,T,,M,009.6,N,017.7,K
2014-08-01T00:05:07.301000Z $GPZDA,000507,01,08,2014,7
2014-08-01T00:05:07.301000Z $GPGLL,2200.716,S,01756.890,W
2014-08-01T00:05:07.301000Z $GPVTG,219.5,T,,M,009.7,N,018.0,K
2014-08-01T00:05:08.295000Z $GPZDA,000508,01,08,2014,7
2014-08-01T00:05:08.295000Z $GPGLL,2200.718,S,01756.892,W
2014-08-01T00:05:08.295000Z $GPVTG,219.0,T,,M,009.7,N,018.0,K
2014-08-01T00:05:09.296000Z $GPZDA,000509,01,08,2014,7
2014-08-01T00:05:09.296000Z $GPGLL,2200.718,S,01756.892,W
2014-08-01T00:05:09.296000Z $GPVTG,219.0,T,,M,009.7,N,018.0,K
2014-08-01T00:05:10.321000Z $GPZDA,000510,01,08,2014,7
2014-08-01T00:05:10.321000Z $GPGLL,2200.720,S,01756.894,W
2014-08-01T00:05:10.321000Z $GPVTG,218.7,T,,M,009.6,N,017.8,K
2014-08-01T00:05:11.306000Z $GPZDA,000511,01,08,2014,7
2014-08-01T00:05:11.306000Z $GPGLL,2200.723,S,01756.897,W
2014-08-01T00:05:11.306000Z $GPVTG,218.4,T,,M,009.5,N,017.6,K
2014-08-01T00:05:12.301000Z $GPZDA,000512,01,08,2014,7
2014-08-01T00:05:12.301000Z $GPGLL,2200.726,S,01756.899,W
2014-08-01T00:05:12.301000Z $GPVTG,219.1,T,,M,009.6,N,017.7,K
2014-08-01T00:05:13.296000Z $GPZDA,000513,01,08,2014,7
2014-08-01T00:05:13.296000Z $GPGLL,2200.728,S,01756.901,W
2014-08-01T00:05:13.296000Z $GPVTG,219.5,T,,M,009.6,N,017.7,K
2014-08-01T00:05:14.301000Z $GPZDA,000514,01,08,2014,7
2014-08-01T00:05:14.301000Z $GPGLL,2200.731,S,01756.903,W
2014-08-01T00:05:14.301000Z $GPVTG,219.5,T,,M,009.6,N,017.7,K
2014-08-01T00:05:15.300000Z $GPZDA,000515,01,08,2014,7
2014-08-01T00:05:15.300000Z $GPGLL,2200.731,S,01756.903,W
2014-08-01T00:05:15.300000Z $GPVTG,219.5,T,,M,009.6,N,017.7,K
2014-08-01T00:05:16.295000Z $GPZDA,000516,01,08,2014,7
2014-08-01T00:05:16.295000Z $GPGLL,2200.733,S,01756.905,W
2014-08-01T00:05:16.295000Z $GPVTG,219.2,T,,M,009.6,N,017.8,K
2014-08-01T00:05:17.300000Z $GPZDA,000517,01,08,2014,7
2014-08-01T00:05:17.300000Z $GPGLL,2200.736,S,01756.907,W
2014-08-01T00:05:17.300000Z $GPVTG,219.0,T,,M,009.6,N,017.9,K
2014-08-01T00:05:18.296000Z $GPZDA,000518,01,08,2014,7
2014-08-01T00:05:18.296000Z $GPGLL,2200.738,S,01756.909,W
2014-08-01T00:05:18.296000Z $GPVTG,218.4,T,,M,009.6,N,017.8,K
2014-08-01T00:05:19.300000Z $GPZDA,000519,01,08,2014,7
2014-08-01T00:05:19.300000Z $GPGLL,2200.741,S,01756.912,W
2014-08-01T00:05:19.300000Z $GPVTG,218.3,T,,M,009.5,N,017.6,K
2014-08-01T00:05:20.316000Z $GPZDA,000520,01,08,2014,7
2014-08-01T00:05:20.316000Z $GPGLL,2200.743,S,01756.914,W
2014-08-01T00:05:20.316000Z $GPVTG,218.5,T,,M,009.4,N,017.3,K
2014-08-01T00:05:21.295000Z $GPZDA,000521,01,08,2014,7
2014-08-01T00:05:21.295000Z $GPGLL,2200.743,S,01756.914,W
2014-08-01T00:05:21.295000Z $GPVTG,218.5,T,,M,009.4,N,017.3,K
2014-08-01T00:05:22.300000Z $GPZDA,000522,01,08,2014,7
2014-08-01T00:05:22.301000Z $GPGLL,2200.746,S,01756.916,W
2014-08-01T00:05:22.301000Z $GPVTG,218.9,T,,M,009.3,N,017.3,K
2014-08-01T00:05:23.296000Z $GPZDA,000523,01,08,2014,7
2014-08-01T00:05:23.296000Z $GPGLL,2200.748,S,01756.918,W
2014-08-01T00:05:23.296000Z $GPVTG,219.2,T,,M,009.3,N,017.2,K
2014-08-01T00:05:24.301000Z $GPZDA,000524,01,08,2014,7
2014-08-01T00:05:24.301000Z $GPGLL,2200.751,S,01756.920,W
2014-08-01T00:05:24.301000Z $GPVTG,219.7,T,,M,009.6,N,017.9,K
2014-08-01T00:05:25.296000Z $GPZDA,000525,01,08,2014,7
2014-08-01T00:05:25.296000Z $GPGLL,2200.754,S,01756.923,W
2014-08-01T00:05:25.296000Z $GPVTG,219.8,T,,M,009.8,N,018.2,K
2014-08-01T00:05:26.301000Z $GPZDA,000526,01,08,2014,7
2014-08-01T00:05:26.301000Z $GPGLL,2200.756,S,01756.925,W
2014-08-01T00:05:26.301000Z $GPVTG,219.4,T,,M,009.6,N,017.8,K
2014-08-01T00:05:27.300000Z $GPZDA,000527,01,08,2014,7
2014-08-01T00:05:27.301000Z $GPGLL,2200.756,S,01756.925,W
2014-08-01T00:05:27.301000Z $GPVTG,219.4,T,,M,009.6,N,017.8,K
2014-08-01T00:05:28.296000Z $GPZDA,000528,01,08,2014,7
2014-08-01T00:05:28.296000Z $GPGLL,2200.759,S,01756.927,W
2014-08-01T00:05:28.296000Z $GPVTG,218.8,T,,M,009.2,N,016.9,K
2014-08-01T00:05:29.301000Z $GPZDA,000529,01,08,2014,7
2014-08-01T00:05:29.301000Z $GPGLL,2200.761,S,01756.929,W
2014-08-01T00:05:29.301000Z $GPVTG,218.3,T,,M,008.8,N,016.2,K
2014-08-01T00:05:30.316000Z $GPZDA,000530,01,08,2014,7
2014-08-01T00:05:30.316000Z $GPGLL,2200.764,S,01756.931,W
2014-08-01T00:05:30.316000Z $GPVTG,218.1,T,,M,009.2,N,017.0,K
2014-08-01T00:05:31.300000Z $GPZDA,000531,01,08,2014,7
2014-08-01T00:05:31.301000Z $GPGLL,2200.766,S,01756.933,W
2014-08-01T00:05:31.301000Z $GPVTG,217.6,T,,M,009.5,N,017.6,K
2014-08-01T00:05:32.295000Z $GPZDA,000532,01,08,2014,7
2014-08-01T00:05:32.295000Z $GPGLL,2200.769,S,01756.935,W
2014-08-01T00:05:32.295000Z $GPVTG,217.4,T,,M,009.6,N,017.8,K
2014-08-01T00:05:33.295000Z $GPZDA,000533,01,08,2014,7
2014-08-01T00:05:33.296000Z $GPGLL,2200.769,S,01756.935,W
2014-08-01T00:05:33.296000Z $GPVTG,217.4,T,,M,009.6,N,017.8,K
2014-08-01T00:05:34.301000Z $GPZDA,000534,01,08,2014,7
2014-08-01T00:05:34.302000Z $GPGLL,2200.771,S,01756.937,W
2014-08-01T00:05:34.302000Z $GPVTG,217.6,T,,M,009.5,N,017.7,K
2014-08-01T00:05:35.295000Z $GPZDA,000535,01,08,2014,7
2014-08-01T00:05:35.295000Z $GPGLL,2200.774,S,01756.940,W
2014-08-01T00:05:35.296000Z $GPVTG,217.7,T,,M,009.5,N,017.6,K
2014-08-01T00:05:36.301000Z $GPZDA,000536,01,08,2014,7
2014-08-01T00:05:36.301000Z $GPGLL,2200.776,S,01756.942,W
2014-08-01T00:05:36.301000Z $GPVTG,218.9,T,,M,009.3,N,017.2,K
2014-08-01T00:05:37.295000Z $GPZDA,000537,01,08,2014,7
2014-08-01T00:05:37.295000Z $GPGLL,2200.779,S,01756.944,W
2014-08-01T00:05:37.295000Z $GPVTG,219.7,T,,M,009.3,N,017.3,K
2014-08-01T00:05:38.300000Z $GPZDA,000538,01,08,2014,7
2014-08-01T00:05:38.301000Z $GPGLL,2200.781,S,01756.946,W
2014-08-01T00:05:38.301000Z $GPVTG,219.9,T,,M,009.5,N,017.6,K
2014-08-01T00:05:39.300000Z $GPZDA,000539,01,08,2014,7
2014-08-01T00:05:39.300000Z $GPGLL,2200.781,S,01756.946,W
2014-08-01T00:05:39.300000Z $GPVTG,219.9,T,,M,009.5,N,017.6,K
2014-08-01T00:05:40.315000Z $GPZDA,000540,01,08,2014,7
2014-08-01T00:05:40.315000Z $GPGLL,2200.783,S,01756.948,W
2014-08-01T00:05:40.315000Z $GPVTG,220.1,T,,M,009.7,N,018.0,K
2014-08-01T00:05:41.310000Z $GPZDA,000541,01,08,2014,7
2014-08-01T00:05:41.310000Z $GPGLL,2200.786,S,01756.951,W
2014-08-01T00:05:41.310000Z $GPVTG,220.2,T,,M,009.9,N,018.3,K
2014-08-01T00:05:42.295000Z $GPZDA,000542,01,08,2014,7
2014-08-01T00:05:42.295000Z $GPGLL,2200.788,S,01756.953,W
