2014-08-01T00:00:00.814000Z $GPZDA,000000.70,01,08,2014,,*6F
2014-08-01T00:00:00.814000Z $GPGGA,000000.70,2200.112071,S,01756.360200,W,1,10,0.9,1.04,M,,M,,*41
2014-08-01T00:00:00.931000Z $GPVTG,213.66,T,,M,9.4,N,,K,A*1E
2014-08-01T00:00:00.931000Z $GPHDT,218.83,T*05
2014-08-01T00:00:00.931000Z $PSXN,20,1,0,0,0*3A
2014-08-01T00:00:00.931000Z $PSXN,22,0.29,0.83*39
2014-08-01T00:00:00.951000Z $PSXN,23,0.58,-1.09,218.83,0.78*1F
2014-08-01T00:00:01.815000Z $GPZDA,000001.70,01,08,2014,,*6E
2014-08-01T00:00:01.815000Z $GPGGA,000001.70,2200.114266,S,01756.361766,W,1,10,0.9,1.08,M,,M,,*4A
2014-08-01T00:00:01.931000Z $GPVTG,214.31,T,,M,9.6,N,,K,A*19
2014-08-01T00:00:01.932000Z $GPHDT,218.65,T*0D
2014-08-01T00:00:01.932000Z $PSXN,20,1,0,0,0*3A
2014-08-01T00:00:01.932000Z $PSXN,22,0.29,0.83*39
2014-08-01T00:00:01.951000Z $PSXN,23,0.50,0.19,218.65,0.76*3C
2014-08-01T00:00:02.814000Z $GPZDA,000002.70,01,08,2014,,*6D
2014-08-01T00:00:02.814000Z $GPGGA,000002.70,2200.116443,S,01756.363445,W,1,10,0.9,1.43,M,,M,,*45
2014-08-01T00:00:02.931000Z $GPVTG,217.49,T,,M,9.7,N,,K,A*14
2014-08-01T00:00:02.931000Z $GPHDT,218.51,T*0A
2014-08-01T00:00:02.931000Z $PSXN,20,1,0,0,0*3A
2014-08-01T00:00:02.931000Z $PSXN,22,0.29,0.83*39
2014-08-01T00:00:02.950000Z $PSXN,23,0.36,0.76,218.51,0.44*33
2014-08-01T00:00:03.814000Z $GPZDA,000003.70,01,08,2014,,*6C
2014-08-01T00:00:03.814000Z $GPGGA,000003.70,2200.118568,S,01756.365285,W,1,10,0.9,1.65,M,,M,,*4A
2014-08-01T00:00:03.930000Z $GPVTG,220.35,T,,M,9.8,N,,K,A*14
2014-08-01T00:00:03.931000Z $GPHDT,218.37,T*0A
2014-08-01T00:00:03.931000Z $PSXN,20,1,0,0,0*3A
2014-08-01T00:00:03.931000Z $PSXN,22,0.29,0.83*39
2014-08-01T00:00:03.950000Z $PSXN,23,0.19,0.32,218.37,0.24*38
2014-08-01T00:00:04.813000Z $GPZDA,000004.70,01,08,2014,,*6B
2014-08-01T00:00:04.813000Z $GPGGA,000004.70,2200.120659,S,01756.367213,W,1,10,0.9,1.66,M,,M,,*49
2014-08-01T00:00:04.930000Z $GPVTG,220.72,T,,M,9.8,N,,K,A*17
2014-08-01T00:00:04.930000Z $GPHDT,218.21,T*0D
2014-08-01T00:00:04.930000Z $PSXN,20,1,0,0,0*3A
2014-08-01T00:00:04.930000Z $PSXN,22,0.29,0.83*39
2014-08-01T00:00:04.951000Z $PSXN,23,0.02,-0.26,218.21,0.24*1D
2014-08-01T00:00:05.814000Z $GPZDA,000005.70,01,08,2014,,*6A
2014-08-01T00:00:05.814000Z $GPGGA,000005.70,2200.122774,S,01756.369093,W,1,10,0.9,1.67,M,,M,,*41
2014-08-01T00:00:05.931000Z $GPVTG,218.46,T,,M,9.8,N,,K,A*1B
2014-08-01T00:00:05.931000Z $GPHDT,218.05,T*0B
2014-08-01T00:00:05.931000Z $PSXN,20,1,0,0,0*3A
2014-08-01T00:00:05.931000Z $PSXN,22,0.29,0.83*39
2014-08-01T00:00:05.952000Z $PSXN,23,-0.03,-0.17,218.05,0.24*35
2014-08-01T00:00:06.814000Z $GPZDA,000006.70,01,08,2014,,*69
2014-08-01T00:00:06.814000Z $GPGGA,000006.70,2200.124915,S,01756.370852,W,1,10,0.9,1.82,M,,M,,*4B
2014-08-01T00:00:06.930000Z $GPVTG,216.43,T,,M,9.6,N,,K,A*1E
2014-08-01T00:00:06.930000Z $GPHDT,218.06,T*08
2014-08-01T00:00:06.930000Z $PSXN,20,1,0,0,0*3A
2014-08-01T00:00:06.930000Z $PSXN,22,0.29,0.83*39
2014-08-01T00:00:06.951000Z $PSXN,23,-0.15,0.70,218.06,0.06*1D
2014-08-01T00:00:07.813000Z $GPZDA,000007.70,01,08,2014,,*68
2014-08-01T00:00:07.813000Z $GPGGA,000007.70,2200.126999,S,01756.372529,W,1,10,0.9,2.05,M,,M,,*43
2014-08-01T00:00:07.930000Z $GPVTG,216.58,T,,M,9.3,N,,K,A*11
2014-08-01T00:00:07.930000Z $GPHDT,218.33,T*0E
2014-08-01T00:00:07.930000Z $PSXN,20,1,0,0,0*3A
2014-08-01T00:00:07.930000Z $PSXN,22,0.29,0.83*39
2014-08-01T00:00:07.951000Z $PSXN,23,-0.39,1.76,218.33,-0.30*3A
2014-08-01T00:00:08.814000Z $GPZDA,000008.70,01,08,2014,,*67
2014-08-01T00:00:08.814000Z $GPGGA,000008.70,2200.128978,S,01756.374200,W,1,10,0.9,2.39,M,,M,,*48
2014-08-01T00:00:08.930000Z $GPVTG,219.22,T,,M,9.0,N,,K,A*10
2014-08-01T00:00:08.930000Z $GPHDT,218.76,T*0F
2014-08-01T00:00:08.930000Z $PSXN,20,1,0,0,0*3A
2014-08-01T00:00:08.930000Z $PSXN,22,0.29,0.83*39
2014-08-01T00:00:08.952000Z $PSXN,23,-0.46,2.00,218.76,-0.72*37
2014-08-01T00:00:09.814000Z $GPZDA,000009.70,01,08,2014,,*66
2014-08-01T00:00:09.814000Z $GPGGA,000009.70,2200.130883,S,01756.375938,W,1,10,0.9,2.64,M,,M,,*4C
2014-08-01T00:00:09.930000Z $GPVTG,222.00,T,,M,9.0,N,,K,A*18
2014-08-01T00:00:09.930000Z $GPHDT,218.99,T*0E
2014-08-01T00:00:09.930000Z $PSXN,20,1,0,0,0*3A
2014-08-01T00:00:09.930000Z $PSXN,22,0.29,0.83*39
2014-08-01T00:00:09.953000Z $PSXN,23,-0.16,0.75,218.99,-0.89*37
2014-08-01T00:00:10.813000Z $GPZDA,000010.70,01,08,2014,,*6E
2014-08-01T00:00:10.813000Z $GPGGA,000010.70,2200.132758,S,01756.377784,W,1,10,0.9,2.44,M,,M,,*46
2014-08-01T00:00:10.929000Z $GPVTG,223.35,T,,M,9.2,N,,K,A*1D
2014-08-01T00:00:10.929000Z $GPHDT,218.89,T*0F
2014-08-01T00:00:10.929000Z $PSXN,20,1,0,0,0*3A
2014-08-01T00:00:10.929000Z $PSXN,22,0.29,0.83*39
2014-08-01T00:00:10.951000Z $PSXN,23,0.39,-1.28,218.89,-0.64*31
2014-08-01T00:00:11.813000Z $GPZDA,000011.70,01,08,2014,,*6F
2014-08-01T00:00:11.813000Z $GPGGA,000011.70,2200.134678,S,01756.379684,W,1,10,0.9,1.97,M,,M,,*40
2014-08-01T00:00:11.930000Z $GPVTG,222.02,T,,M,9.5,N,,K,A*1F
2014-08-01T00:00:11.930000Z $GPHDT,218.59,T*02
2014-08-01T00:00:11.930000Z $PSXN,20,1,0,0,0*3A
2014-08-01T00:00:11.930000Z $PSXN,22,0.29,0.83*39
2014-08-01T00:00:11.952000Z $PSXN,23,0.86,-2.24,218.59,-0.12*36
2014-08-01T00:00:12.813000Z $GPZDA,000012.70,01,08,2014,,*6C
2014-08-01T00:00:12.813000Z $GPGGA,000012.70,2200.136696,S,01756.381543,W,1,10,0.9,1.59,M,,M,,*4C
2014-08-01T00:00:12.929000Z $GPVTG,219.19,T,,M,9.7,N,,K,A*1F
2014-08-01T00:00:12.929000Z $GPHDT,218.25,T*09
2014-08-01T00:00:12.929000Z $PSXN,20,1,0,0,0*3A
2014-08-01T00:00:12.929000Z $PSXN,22,0.29,0.83*39
2014-08-01T00:00:12.950000Z $PSXN,23,1.09,-1.18,218.25,0.30*1A
2014-08-01T00:00:13.813000Z $GPZDA,000013.70,01,08,2014,,*6D
2014-08-01T00:00:13.813000Z $GPGGA,000013.70,2200.138813,S,01756.383308,W,1,10,0.9,1.50,M,,M,,*42
2014-08-01T00:00:13.929000Z $GPVTG,216.61,T,,M,9.7,N,,K,A*1F
2014-08-01T00:00:13.929000Z $GPHDT,218.08,T*06
2014-08-01T00:00:13.929000Z $PSXN,20,1,0,0,0*3A
2014-08-01T00:00:13.929000Z $PSXN,22,0.29,0.83*39
2014-08-01T00:00:13.949000Z $PSXN,23,0.84,0.92,218.08,0.42*3A
2014-08-01T00:00:14.813000Z $GPZDA,000014.69,01,08,2014,,*62
2014-08-01T00:00:14.813000Z $GPGGA,000014.69,2200.140977,S,01756.384983,W,1,10,0.9,1.63,M,,M,,*4F
2014-08-01T00:00:14.930000Z $GPVTG,215.32,T,,M,9.6,N,,K,A*1B
2014-08-01T00:00:14.930000Z $GPHDT,218.06,T*08
2014-08-01T00:00:14.930000Z $PSXN,20,1,0,0,0*3A
2014-08-01T00:00:14.930000Z $PSXN,22,0.29,0.83*39
2014-08-01T00:00:14.949000Z $PSXN,23,0.13,2.10,218.06,0.30*37
2014-08-01T00:00:15.813000Z $GPZDA,000015.69,01,08,2014,,*63
2014-08-01T00:00:15.813000Z $GPGGA,000015.69,2200.143121,S,01756.386620,W,1,10,0.9,1.68,M,,M,,*49
2014-08-01T00:00:15.929000Z $GPVTG,215.04,T,,M,9.4,N,,K,A*1C
2014-08-01T00:00:15.929000Z $GPHDT,218.12,T*0D
2014-08-01T00:00:15.929000Z $PSXN,20,1,0,0,0*3A
2014-08-01T00:00:15.929000Z $PSXN,22,0.29,0.83*39
2014-08-01T00:00:15.950000Z $PSXN,23,-0.49,1.63,218.12,0.18*1D
2014-08-01T00:00:16.812000Z $GPZDA,000016.69,01,08,2014,,*60
2014-08-01T00:00:16.812000Z $GPGGA,000016.69,2200.145248,S,01756.388242,W,1,10,0.9,1.52,M,,M,,*47
2014-08-01T00:00:16.929000Z $GPVTG,215.24,T,,M,9.3,N,,K,A*19
2014-08-01T00:00:16.929000Z $GPHDT,218.18,T*07
2014-08-01T00:00:16.929000Z $PSXN,20,1,0,0,0*3A
2014-08-01T00:00:16.929000Z $PSXN,22,0.29,0.83*39
2014-08-01T00:00:16.949000Z $PSXN,23,-0.75,0.08,218.18,0.30*1E
2014-08-01T00:00:17.813000Z $GPZDA,000017.69,01,08,2014,,*61
2014-08-01T00:00:17.813000Z $GPGGA,000017.69,2200.147403,S,01756.389859,W,1,10,0.9,1.24,M,,M,,*4D
2014-08-01T00:00:17.929000Z $GPVTG,215.25,T,,M,9.4,N,,K,A*1F
2014-08-01T00:00:17.929000Z $GPHDT,218.19,T*06
2014-08-01T00:00:17.929000Z $PSXN,20,1,0,0,0*3A
2014-08-01T00:00:17.929000Z $PSXN,22,0.29,0.83*39
2014-08-01T00:00:17.951000Z $PSXN,23,-0.79,-1.18,218.19,0.61*3A
2014-08-01T00:00:18.812000Z $GPZDA,000018.69,01,08,2014,,*6E
2014-08-01T00:00:18.812000Z $GPGGA,000018.69,2200.149569,S,01756.391505,W,1,10,0.9,1.07,M,,M,,*4D
2014-08-01T00:00:18.929000Z $GPVTG,215.69,T,,M,9.6,N,,K,A*15
2014-08-01T00:00:18.929000Z $GPHDT,218.14,T*0B
2014-08-01T00:00:18.929000Z $PSXN,20,1,0,0,0*3A
2014-08-01T00:00:18.929000Z $PSXN,22,0.29,0.83*39
2014-08-01T00:00:18.951000Z $PSXN,23,-0.63,-1.13,218.14,0.79*3E
2014-08-01T00:00:19.812000Z $GPZDA,000019.69,01,08,2014,,*6F
2014-08-01T00:00:19.812000Z $GPGGA,000019.69,2200.151716,S,01756.393204,W,1,10,0.9,1.26,M,,M,,*48
2014-08-01T00:00:19.928000Z $GPVTG,216.83,T,,M,9.7,N,,K,A*13
2014-08-01T00:00:19.928000Z $GPHDT,218.14,T*0B
2014-08-01T00:00:19.928000Z $PSXN,20,1,0,0,0*3A
2014-08-01T00:00:19.928000Z $PSXN,22,0.29,0.83*39
2014-08-01T00:00:19.950000Z $PSXN,23,-0.29,-0.02,218.14,0.55*3F
2014-08-01T00:00:20.811000Z $GPZDA,000020.69,01,08,2014,,*65
2014-08-01T00:00:20.811000Z $GPGGA,000020.69,2200.153832,S,01756.394957,W,1,10,0.9,1.90,M,,M,,*4E
2014-08-01T00:00:20.928000Z $GPVTG,218.78,T,,M,9.6,N,,K,A*18
2014-08-01T00:00:20.928000Z $GPHDT,218.23,T*0F
2014-08-01T00:00:20.928000Z $PSXN,20,1,0,0,0*3A
2014-08-01T00:00:20.928000Z $PSXN,22,0.29,0.83*39
2014-08-01T00:00:20.949000Z $PSXN,23,0.09,1.08,218.23,-0.07*18
2014-08-01T00:00:21.812000Z $GPZDA,000021.69,01,08,2014,,*64
2014-08-01T00:00:21.812000Z $GPGGA,000021.69,2200.155871,S,01756.396795,W,1,10,0.9,2.59,M,,M,,*4A
2014-08-01T00:00:21.929000Z $GPVTG,221.91,T,,M,9.5,N,,K,A*16
2014-08-01T00:00:21.929000Z $GPHDT,218.45,T*0F
2014-08-01T00:00:21.929000Z $PSXN,20,1,0,0,0*3A
2014-08-01T00:00:21.929000Z $PSXN,22,0.29,0.83*39
2014-08-01T00:00:21.949000Z $PSXN,23,0.34,1.45,218.45,-0.74*1B
2014-08-01T00:00:22.811000Z $GPZDA,000022.69,01,08,2014,,*67
2014-08-01T00:00:22.812000Z $GPGGA,000022.69,2200.157772,S,01756.398719,W,1,10,0.9,3.05,M,,M,,*45
2014-08-01T00:00:22.928000Z $GPVTG,224.95,T,,M,9.2,N,,K,A*10
2014-08-01T00:00:22.928000Z $GPHDT,218.73,T*0A
2014-08-01T00:00:22.928000Z $PSXN,20,1,0,0,0*3A
2014-08-01T00:00:22.928000Z $PSXN,22,0.29,0.83*39
2014-08-01T00:00:22.949000Z $PSXN,23,0.57,1.21,218.73,-1.19*13
2014-08-01T00:00:23.811000Z $GPZDA,000023.69,01,08,2014,,*66
2014-08-01T00:00:23.811000Z $GPGGA,000023.69,2200.159573,S,01756.400672,W,1,10,0.9,3.19,M,,M,,*4E
2014-08-01T00:00:23.928000Z $GPVTG,225.51,T,,M,9.1,N,,K,A*1A
2014-08-01T00:00:23.928000Z $GPHDT,218.89,T*0F
2014-08-01T00:00:23.928000Z $PSXN,20,1,0,0,0*3A
2014-08-01T00:00:23.928000Z $PSXN,22,0.29,0.83*39
2014-08-01T00:00:23.948000Z $PSXN,23,0.76,0.66,218.89,-1.31*1D
2014-08-01T00:00:24.812000Z $GPZDA,000024.69,01,08,2014,,*61
2014-08-01T00:00:24.812000Z $GPGGA,000024.69,2200.161381,S,01756.402589,W,1,10,0.9,2.95,M,,M,,*49
2014-08-01T00:00:24.928000Z $GPVTG,223.37,T,,M,9.1,N,,K,A*1C
2014-08-01T00:00:24.928000Z $GPHDT,218.83,T*05
2014-08-01T00:00:24.928000Z $PSXN,20,1,0,0,0*3A
2014-08-01T00:00:24.928000Z $PSXN,22,0.29,0.83*39
2014-08-01T00:00:24.950000Z $PSXN,23,0.92,-0.07,218.83,-1.04*31
2014-08-01T00:00:25.811000Z $GPZDA,000025.69,01,08,2014,,*60
2014-08-01T00:00:25.811000Z $GPGGA,000025.69,2200.163301,S,01756.404405,W,1,10,0.9,2.39,M,,M,,*47
2014-08-01T00:00:25.928000Z $GPVTG,219.33,T,,M,9.2,N,,K,A*12
2014-08-01T00:00:25.928000Z $GPHDT,218.61,T*09
2014-08-01T00:00:25.928000Z $PSXN,20,1,0,0,0*3A
2014-08-01T00:00:25.928000Z $PSXN,22,0.29,0.83*39
2014-08-01T00:00:25.949000Z $PSXN,23,0.92,-0.72,218.61,-0.45*3B
2014-08-01T00:00:26.811000Z $GPZDA,000026.69,01,08,2014,,*63
2014-08-01T00:00:26.811000Z $GPGGA,000026.69,2200.165387,S,01756.406098,W,1,10,0.9,1.69,M,,M,,*48
2014-08-01T00:00:26.927000Z $GPVTG,215.11,T,,M,9.5,N,,K,A*19
2014-08-01T00:00:26.928000Z $GPHDT,218.32,T*0F
2014-08-01T00:00:26.928000Z $PSXN,20,1,0,0,0*3A
2014-08-01T00:00:26.928000Z $PSXN,22,0.29,0.83*39
2014-08-01T00:00:26.948000Z $PSXN,23,0.56,-0.94,218.32,0.27*14
2014-08-01T00:00:27.811000Z $GPZDA,000027.69,01,08,2014,,*62
2014-08-01T00:00:27.811000Z $GPGGA,000027.69,2200.167627,S,01756.407683,W,1,10,0.9,1.10,M,,M,,*47
2014-08-01T00:00:27.928000Z $GPVTG,212.30,T,,M,9.8,N,,K,A*10
2014-08-01T00:00:27.928000Z $GPHDT,218.15,T*0A
2014-08-01T00:00:27.928000Z $PSXN,20,1,0,0,0*3A
2014-08-01T00:00:27.928000Z $PSXN,22,0.29,0.83*39
2014-08-01T00:00:27.948000Z $PSXN,23,0.04,-0.65,218.15,0.88*1D
2014-08-01T00:00:28.811000Z $GPZDA,000028.69,01,08,2014,,*6D
2014-08-01T00:00:28.811000Z $GPGGA,000028.69,2200.169952,S,01756.409237,W,1,10,0.9,0.66,M,,M,,*4E
2014-08-01T00:00:28.927000Z $GPVTG,211.43,T,,M,10.0,N,,K,A*27
2014-08-01T00:00:28.927000Z $GPHDT,218.12,T*0D
2014-08-01T00:00:28.927000Z $PSXN,20,1,0,0,0*3A
2014-08-01T00:00:28.927000Z $PSXN,22,0.29,0.83*39
2014-08-01T00:00:28.950000Z $PSXN,23,-0.37,-0.13,218.12,1.25*30
2014-08-01T00:00:29.811000Z $GPZDA,000029.69,01,08,2014,,*6C
2014-08-01T00:00:29.811000Z $GPGGA,000029.69,2200.172324,S,01756.410807,W,1,10,0.9,0.62,M,,M,,*4B
2014-08-01T00:00:29.927000Z $GPVTG,212.68,T,,M,10.0,N,,K,A*2D
2014-08-01T00:00:29.927000Z $GPHDT,218.16,T*09
2014-08-01T00:00:29.927000Z $PSXN,20,1,0,0,0*3A
2014-08-01T00:00:29.927000Z $PSXN,22,0.29,0.83*39
2014-08-01T00:00:29.948000Z $PSXN,23,-0.56,0.32,218.16,1.30*19
2014-08-01T00:00:30.811000Z $GPZDA,000030.69,01,08,2014,,*64
2014-08-01T00:00:30.811000Z $GPGGA,000030.69,2200.174630,S,01756.412467,W,1,09,1.2,0.91,M,,M,,*43
2014-08-01T00:00:30.927000Z $GPVTG,215.28,T,,M,10.0,N,,K,A*2E
2014-08-01T00:00:30.928000Z $GPHDT,218.29,T*05
2014-08-01T00:00:30.928000Z $PSXN,20,1,0,0,0*3A
2014-08-01T00:00:30.928000Z $PSXN,22,0.29,0.83*39
2014-08-01T00:00:30.949000Z $PSXN,23,-0.50,0.50,218.29,1.02*16
2014-08-01T00:00:31.811000Z $GPZDA,000031.69,01,08,2014,,*65
2014-08-01T00:00:31.811000Z $GPGGA,000031.69,2200.176862,S,01756.414252,W,1,10,0.9,1.22,M,,M,,*44
2014-08-01T00:00:31.927000Z $GPVTG,217.86,T,,M,10.0,N,,K,A*28
2014-08-01T00:00:31.927000Z $GPHDT,218.54,T*0F
2014-08-01T00:00:31.927000Z $PSXN,20,1,0,0,0*3A
2014-08-01T00:00:31.927000Z $PSXN,22,0.29,0.83*39
2014-08-01T00:00:31.949000Z $PSXN,23,-0.27,0.23,218.54,0.65*18
2014-08-01T00:00:32.810000Z $GPZDA,000032.69,01,08,2014,,*66
2014-08-01T00:00:32.810000Z $GPGGA,000032.69,2200.179017,S,01756.416148,W,1,10,0.9,1.47,M,,M,,*4B
2014-08-01T00:00:32.927000Z $GPVTG,220.30,T,,M,10.0,N,,K,A*21
2014-08-01T00:00:32.927000Z $GPHDT,218.84,T*02
2014-08-01T00:00:32.927000Z $PSXN,20,1,0,0,0*3A
2014-08-01T00:00:32.927000Z $PSXN,22,0.29,0.83*39
2014-08-01T00:00:32.947000Z $PSXN,23,0.04,0.00,218.84,0.34*3C
2014-08-01T00:00:33.811000Z $GPZDA,000033.69,01,08,2014,,*67
2014-08-01T00:00:33.811000Z $GPGGA,000033.69,2200.181054,S,01756.418097,W,1,10,0.9,1.91,M,,M,,*4C
2014-08-01T00:00:33.927000Z $GPVTG,222.85,T,,M,9.6,N,,K,A*13
2014-08-01T00:00:33.927000Z $GPHDT,219.19,T*07
2014-08-01T00:00:33.927000Z $PSXN,20,1,0,0,0*3A
2014-08-01T00:00:33.927000Z $PSXN,22,0.29,0.83*39
2014-08-01T00:00:33.948000Z $PSXN,23,0.35,0.73,219.19,-0.16*12
2014-08-01T00:00:34.810000Z $GPZDA,000034.69,01,08,2014,,*60
2014-08-01T00:00:34.810000Z $GPGGA,000034.69,2200.182903,S,01756.420034,W,1,10,0.9,2.77,M,,M,,*4A
2014-08-01T00:00:34.927000Z $GPVTG,225.58,T,,M,9.0,N,,K,A*12
2014-08-01T00:00:34.927000Z $GPHDT,219.51,T*0B
2014-08-01T00:00:34.927000Z $PSXN,20,1,0,0,0*3A
2014-08-01T00:00:34.927000Z $PSXN,22,0.29,0.84*3E
2014-08-01T00:00:34.947000Z $PSXN,23,0.63,2.26,219.51,-1.06*1F
2014-08-01T00:00:35.810000Z $GPZDA,000035.69,01,08,2014,,*61
2014-08-01T00:00:35.810000Z $GPGGA,000035.69,2200.184596,S,01756.421906,W,1,10,0.9,3.85,M,,M,,*48
2014-08-01T00:00:35.926000Z $GPVTG,226.30,T,,M,8.5,N,,K,A*1B
2014-08-01T00:00:35.926000Z $GPHDT,219.61,T*08
2014-08-01T00:00:35.926000Z $PSXN,20,1,0,0,0*3A
2014-08-01T00:00:35.926000Z $PSXN,22,0.29,0.84*3E
2014-08-01T00:00:35.947000Z $PSXN,23,0.85,3.10,219.61,-2.09*1C
2014-08-01T00:00:36.809000Z $GPZDA,000036.69,01,08,2014,,*62
2014-08-01T00:00:36.809000Z $GPGGA,000036.69,2200.186255,S,01756.423677,W,1,10,0.9,4.33,M,,M,,*40
2014-08-01T00:00:36.926000Z $GPVTG,223.51,T,,M,8.4,N,,K,A*18
2014-08-01T00:00:36.926000Z $GPHDT,219.34,T*08
2014-08-01T00:00:36.926000Z $PSXN,20,1,0,0,0*3A
2014-08-01T00:00:36.926000Z $PSXN,22,0.29,0.84*3E
2014-08-01T00:00:36.947000Z $PSXN,23,0.97,1.95,219.34,-2.50*1C
2014-08-01T00:00:37.810000Z $GPZDA,000037.69,01,08,2014,,*63
2014-08-01T00:00:37.810000Z $GPGGA,000037.69,2200.188047,S,01756.425359,W,1,10,0.9,3.56,M,,M,,*45
2014-08-01T00:00:37.926000Z $GPVTG,219.38,T,,M,8.7,N,,K,A*1D
2014-08-01T00:00:37.926000Z $GPHDT,218.84,T*02
2014-08-01T00:00:37.926000Z $PSXN,20,1,0,0,0*3A
2014-08-01T00:00:37.926000Z $PSXN,22,0.29,0.84*3E
2014-08-01T00:00:37.948000Z $PSXN,23,0.98,-1.07,218.84,-1.68*37
2014-08-01T00:00:38.809000Z $GPZDA,000038.69,01,08,2014,,*6C
2014-08-01T00:00:38.809000Z $GPGGA,000038.69,2200.190076,S,01756.427023,W,1,10,0.9,1.72,M,,M,,*49
2014-08-01T00:00:38.926000Z $GPVTG,216.22,T,,M,9.5,N,,K,A*1A
2014-08-01T00:00:38.926000Z $GPHDT,218.49,T*03
2014-08-01T00:00:38.926000Z $PSXN,20,1,0,0,0*3A
2014-08-01T00:00:38.926000Z $PSXN,22,0.29,0.84*3E
2014-08-01T00:00:38.946000Z $PSXN,23,0.96,-4.31,218.49,0.21*19
2014-08-01T00:00:39.809000Z $GPZDA,000039.69,01,08,2014,,*6D
2014-08-01T00:00:39.809000Z $GPGGA,000039.69,2200.192328,S,01756.428756,W,1,09,1.2,-0.16,M,,M,,*64
2014-08-01T00:00:39.925000Z $GPVTG,215.56,T,,M,10.3,N,,K,A*24
2014-08-01T00:00:39.925000Z $GPHDT,218.50,T*0B
2014-08-01T00:00:39.925000Z $PSXN,20,1,0,0,0*3A
2014-08-01T00:00:39.925000Z $PSXN,22,0.29,0.84*3E
2014-08-01T00:00:39.948000Z $PSXN,23,0.69,-4.83,218.50,2.10*18
2014-08-01T00:00:40.809000Z $GPZDA,000040.69,01,08,2014,,*63
2014-08-01T00:00:40.809000Z $GPGGA,000040.69,2200.194708,S,01756.430574,W,1,09,1.2,-0.90,M,,M,,*6F
2014-08-01T00:00:40.926000Z $GPVTG,215.89,T,,M,10.7,N,,K,A*22
2014-08-01T00:00:40.926000Z $GPHDT,218.84,T*02
2014-08-01T00:00:40.926000Z $PSXN,20,1,0,0,0*3A
2014-08-01T00:00:40.926000Z $PSXN,22,0.29,0.84*3E
2014-08-01T00:00:40.948000Z $PSXN,23,0.08,-1.53,218.84,2.85*12
2014-08-01T00:00:41.809000Z $GPZDA,000041.69,01,08,2014,,*62
2014-08-01T00:00:41.809000Z $GPGGA,000041.69,2200.197024,S,01756.432405,W,1,10,0.9,-0.11,M,,M,,*6A
2014-08-01T00:00:41.925000Z $GPVTG,216.46,T,,M,10.2,N,,K,A*27
2014-08-01T00:00:41.925000Z $GPHDT,219.29,T*04
2014-08-01T00:00:41.926000Z $PSXN,20,1,0,0,0*3A
2014-08-01T00:00:41.926000Z $PSXN,22,0.29,0.84*3E
2014-08-01T00:00:41.948000Z $PSXN,23,-0.27,3.27,219.29,1.98*17
2014-08-01T00:00:42.808000Z $GPZDA,000042.69,01,08,2014,,*61
2014-08-01T00:00:42.808000Z $GPGGA,000042.69,2200.199156,S,01756.434144,W,1,10,0.9,1.69,M,,M,,*46
2014-08-01T00:00:42.925000Z $GPVTG,217.47,T,,M,9.2,N,,K,A*1F
2014-08-01T00:00:42.925000Z $GPHDT,219.69,T*00
2014-08-01T00:00:42.925000Z $PSXN,20,1,0,0,0*3A
2014-08-01T00:00:42.925000Z $PSXN,22,0.29,0.84*3E
2014-08-01T00:00:42.945000Z $PSXN,23,-0.07,6.17,219.69,0.14*12
2014-08-01T00:00:43.809000Z $GPZDA,000043.69,01,08,2014,,*60
2014-08-01T00:00:43.809000Z $GPGGA,000043.69,2200.201052,S,01756.435768,W,1,10,0.9,3.41,M,,M,,*41
2014-08-01T00:00:43.926000Z $GPVTG,219.60,T,,M,8.2,N,,K,A*15
2014-08-01T00:00:43.926000Z $GPHDT,219.91,T*07
2014-08-01T00:00:43.926000Z $PSXN,20,1,0,0,0*3A
2014-08-01T00:00:43.926000Z $PSXN,22,0.29,0.84*3E
2014-08-01T00:00:43.946000Z $PSXN,23,0.23,5.65,219.91,-1.59*1D
2014-08-01T00:00:44.808000Z $GPZDA,000044.69,01,08,2014,,*67
2014-08-01T00:00:44.808000Z $GPGGA,000044.69,2200.202737,S,01756.437311,W,1,10,0.9,4.26,M,,M,,*4F
2014-08-01T00:00:44.925000Z $GPVTG,221.70,T,,M,7.6,N,,K,A*14
2014-08-01T00:00:44.925000Z $GPHDT,219.73,T*0B
2014-08-01T00:00:44.925000Z $PSXN,20,1,0,0,0*3A
2014-08-01T00:00:44.925000Z $PSXN,22,0.29,0.84*3E
2014-08-01T00:00:44.946000Z $PSXN,23,0.57,2.43,219.73,-2.38*15
2014-08-01T00:00:45.808000Z $GPZDA,000045.69,01,08,2014,,*66
2014-08-01T00:00:45.808000Z $GPGGA,000045.69,2200.204346,S,01756.438858,W,1,10,0.9,3.85,M,,M,,*4D
2014-08-01T00:00:45.925000Z $GPVTG,222.37,T,,M,7.7,N,,K,A*15
2014-08-01T00:00:45.925000Z $GPHDT,219.30,T*0C
2014-08-01T00:00:45.925000Z $PSXN,20,1,0,0,0*3A
2014-08-01T00:00:45.925000Z $PSXN,22,0.29,0.84*3E
2014-08-01T00:00:45.947000Z $PSXN,23,1.11,-1.82,219.30,-1.90*33
2014-08-01T00:00:46.808000Z $GPZDA,000046.69,01,08,2014,,*65
2014-08-01T00:00:46.809000Z $GPGGA,000046.69,2200.206030,S,01756.440498,W,1,09,1.2,2.52,M,,M,,*48
2014-08-01T00:00:46.925000Z $GPVTG,222.28,T,,M,8.5,N,,K,A*16
2014-08-01T00:00:46.925000Z $GPHDT,218.87,T*01
2014-08-01T00:00:46.925000Z $PSXN,20,1,0,0,0*3A
2014-08-01T00:00:46.925000Z $PSXN,22,0.29,0.84*3E
2014-08-01T00:00:46.947000Z $PSXN,23,1.57,-4.80,218.87,-0.54*32
2014-08-01T00:00:47.808000Z $GPZDA,000047.69,01,08,2014,,*64
2014-08-01T00:00:47.808000Z $GPGGA,000047.69,2200.207902,S,01756.442289,W,1,09,1.2,1.07,M,,M,,*47
2014-08-01T00:00:47.925000Z $GPVTG,221.49,T,,M,9.5,N,,K,A*13
2014-08-01T00:00:47.925000Z $GPHDT,218.50,T*0B
2014-08-01T00:00:47.925000Z $PSXN,20,1,0,0,0*3A
2014-08-01T00:00:47.925000Z $PSXN,22,0.29,0.84*3E
2014-08-01T00:00:47.945000Z $PSXN,23,1.56,-4.84,218.50,0.93*1B
2014-08-01T00:00:48.808000Z $GPZDA,000048.69,01,08,2014,,*6B
2014-08-01T00:00:48.808000Z $GPGGA,000048.69,2200.209998,S,01756.444217,W,1,10,0.9,0.23,M,,M,,*41
2014-08-01T00:00:48.924000Z $GPVTG,219.79,T,,M,10.4,N,,K,A*22
2014-08-01T00:00:48.924000Z $GPHDT,218.22,T*0E
2014-08-01T00:00:48.925000Z $PSXN,20,1,0,0,0*3A
2014-08-01T00:00:48.925000Z $PSXN,22,0.29,0.84*3E
2014-08-01T00:00:48.947000Z $PSXN,23,1.20,-2.30,218.22,1.77*1D
2014-08-01T00:00:49.808000Z $GPZDA,000049.69,01,08,2014,,*6A
2014-08-01T00:00:49.808000Z $GPGGA,000049.69,2200.212247,S,01756.446179,W,1,10,0.9,0.28,M,,M,,*41
2014-08-01T00:00:49.925000Z $GPVTG,218.52,T,,M,10.5,N,,K,A*2B
2014-08-01T00:00:49.925000Z $GPHDT,218.03,T*0D
2014-08-01T00:00:49.925000Z $PSXN,20,1,0,0,0*3A
2014-08-01T00:00:49.925000Z $PSXN,22,0.29,0.84*3E
2014-08-01T00:00:49.945000Z $PSXN,23,0.83,1.09,218.03,1.70*35
2014-08-01T00:00:50.808000Z $GPZDA,000050.69,01,08,2014,,*62
2014-08-01T00:00:50.808000Z $GPGGA,000050.69,2200.214467,S,01756.448056,W,1,10,0.9,1.15,M,,M,,*46
2014-08-01T00:00:50.924000Z $GPVTG,218.23,T,,M,9.9,N,,K,A*19
2014-08-01T00:00:50.924000Z $GPHDT,218.11,T*0E
2014-08-01T00:00:50.924000Z $PSXN,20,1,0,0,0*3A
2014-08-01T00:00:50.924000Z $PSXN,22,0.29,0.84*3E
2014-08-01T00:00:50.944000Z $PSXN,23,0.52,3.75,218.11,0.82*3F
2014-08-01T00:00:51.807000Z $GPZDA,000051.69,01,08,2014,,*63
2014-08-01T00:00:51.807000Z $GPGGA,000051.69,2200.216521,S,01756.449792,W,1,10,0.9,2.42,M,,M,,*49
2014-08-01T00:00:51.924000Z $GPVTG,218.46,T,,M,8.9,N,,K,A*1B
2014-08-01T00:00:51.924000Z $GPHDT,218.44,T*0E
2014-08-01T00:00:51.924000Z $PSXN,20,1,0,0,0*3A
2014-08-01T00:00:51.924000Z $PSXN,22,0.29,0.84*3E
2014-08-01T00:00:51.944000Z $PSXN,23,0.07,4.70,218.44,-0.46*18
2014-08-01T00:00:52.807000Z $GPZDA,000052.69,01,08,2014,,*60
2014-08-01T00:00:52.807000Z $GPGGA,000052.69,2200.218374,S,01756.451372,W,1,10,0.9,3.50,M,,M,,*43
2014-08-01T00:00:52.923000Z $GPVTG,218.73,T,,M,8.1,N,,K,A*15
2014-08-01T00:00:52.923000Z $GPHDT,218.93,T*04
2014-08-01T00:00:52.923000Z $PSXN,20,1,0,0,0*3A
2014-08-01T00:00:52.924000Z $PSXN,22,0.29,0.84*3E
2014-08-01T00:00:52.945000Z $PSXN,23,-0.54,3.77,218.93,-1.53*3C
2014-08-01T00:00:53.807000Z $GPZDA,000053.69,01,08,2014,,*61
2014-08-01T00:00:53.807000Z $GPGGA,000053.69,2200.220089,S,01756.452845,W,1,10,0.9,3.90,M,,M,,*48
2014-08-01T00:00:53.924000Z $GPVTG,219.09,T,,M,7.6,N,,K,A*11
2014-08-01T00:00:53.924000Z $GPHDT,219.28,T*05
2014-08-01T00:00:53.924000Z $PSXN,20,1,0,0,0*3A
2014-08-01T00:00:53.924000Z $PSXN,22,0.29,0.84*3E
2014-08-01T00:00:53.946000Z $PSXN,23,-1.09,1.49,219.28,-1.91*35
2014-08-01T00:00:54.807000Z $GPZDA,000054.69,01,08,2014,,*66
2014-08-01T00:00:54.807000Z $GPGGA,000054.69,2200.221753,S,01756.454289,W,1,10,0.9,3.48,M,,M,,*47
2014-08-01T00:00:54.924000Z $GPVTG,219.28,T,,M,7.7,N,,K,A*13
2014-08-01T00:00:54.924000Z $GPHDT,219.48,T*03
2014-08-01T00:00:54.924000Z $PSXN,20,1,0,0,0*3A
2014-08-01T00:00:54.924000Z $PSXN,22,0.29,0.84*3E
2014-08-01T00:00:54.947000Z $PSXN,23,-1.30,-1.15,219.48,-1.47*16
2014-08-01T00:00:55.806000Z $GPZDA,000055.69,01,08,2014,,*67
2014-08-01T00:00:55.807000Z $GPGGA,000055.69,2200.223468,S,01756.455814,W,1,10,0.9,2.35,M,,M,,*4B
2014-08-01T00:00:55.923000Z $GPVTG,219.21,T,,M,8.3,N,,K,A*11
2014-08-01T00:00:55.923000Z $GPHDT,219.52,T*08
2014-08-01T00:00:55.923000Z $PSXN,20,1,0,0,0*3A
2014-08-01T00:00:55.923000Z $PSXN,22,0.29,0.84*3E
2014-08-01T00:00:55.946000Z $PSXN,23,-1.28,-3.17,219.52,-0.40*12
2014-08-01T00:00:56.807000Z $GPZDA,000056.69,01,08,2014,,*64
2014-08-01T00:00:56.807000Z $GPGGA,000056.69,2200.225379,S,01756.457477,W,1,09,1.2,1.10,M,,M,,*44
2014-08-01T00:00:56.924000Z $GPVTG,218.83,T,,M,9.3,N,,K,A*19
2014-08-01T00:00:56.924000Z $GPHDT,219.36,T*0A
2014-08-01T00:00:56.924000Z $PSXN,20,1,0,0,0*3A
2014-08-01T00:00:56.924000Z $PSXN,22,0.29,0.84*3E
2014-08-01T00:00:56.945000Z $PSXN,23,-1.16,-3.94,219.36,0.87*30
2014-08-01T00:00:57.806000Z $GPZDA,000057.69,01,08,2014,,*65
2014-08-01T00:00:57.807000Z $GPGGA,000057.69,2200.227509,S,01756.459284,W,1,09,1.2,0.15,M,,M,,*46
2014-08-01T00:00:57.923000Z $GPVTG,217.66,T,,M,10.2,N,,K,A*24
2014-08-01T00:00:57.923000Z $GPHDT,218.98,T*0F
2014-08-01T00:00:57.923000Z $PSXN,20,1,0,0,0*3A
2014-08-01T00:00:57.923000Z $PSXN,22,0.29,0.84*3E
2014-08-01T00:00:57.946000Z $PSXN,23,-0.91,-3.02,218.98,1.82*30
2014-08-01T00:00:58.806000Z $GPZDA,000058.69,01,08,2014,,*6A
2014-08-01T00:00:58.806000Z $GPGGA,000058.69,2200.229814,S,01756.461148,W,1,10,0.9,-0.12,M,,M,,*66
2014-08-01T00:00:58.923000Z $GPVTG,216.13,T,,M,10.6,N,,K,A*23
2014-08-01T00:00:58.923000Z $GPHDT,218.51,T*0A
2014-08-01T00:00:58.923000Z $PSXN,20,1,0,0,0*3A
2014-08-01T00:00:58.923000Z $PSXN,22,0.29,0.84*3E
2014-08-01T00:00:58.946000Z $PSXN,23,-0.49,-0.56,218.51,2.03*38
2014-08-01T00:00:59.807000Z $GPZDA,000059.69,01,08,2014,,*6B
2014-08-01T00:00:59.807000Z $GPGGA,000059.69,2200.232173,S,01756.462979,W,1,10,0.9,0.46,M,,M,,*40
2014-08-01T00:00:59.923000Z $GPVTG,215.93,T,,M,10.4,N,,K,A*2A
2014-08-01T00:00:59.923000Z $GPHDT,218.21,T*0D
2014-08-01T00:00:59.923000Z $PSXN,20,1,0,0,0*3A
2014-08-01T00:00:59.923000Z $PSXN,22,0.29,0.84*3E
2014-08-01T00:00:59.945000Z $PSXN,23,-0.04,2.19,218.21,1.39*18
2014-08-01T00:01:00.806000Z $GPZDA,000100.69,01,08,2014,,*66
2014-08-01T00:01:00.806000Z $GPGGA,000100.69,2200.234407,S,01756.464780,W,1,10,0.9,1.62,M,,M,,*44
2014-08-01T00:01:00.923000Z $GPVTG,218.17,T,,M,9.7,N,,K,A*10
2014-08-01T00:01:00.923000Z $GPHDT,218.26,T*0A
2014-08-01T00:01:00.923000Z $PSXN,20,1,0,0,0*3A
2014-08-01T00:01:00.923000Z $PSXN,22,0.29,0.84*3E
2014-08-01T00:01:00.942000Z $PSXN,23,0.31,3.77,218.26,0.19*3E
2014-08-01T00:01:01.806000Z $GPZDA,000101.69,01,08,2014,,*67
2014-08-01T00:01:01.806000Z $GPGGA,000101.69,2200.236427,S,01756.466576,W,1,10,0.9,2.76,M,,M,,*4A
2014-08-01T00:01:01.922000Z $GPVTG,221.17,T,,M,9.1,N,,K,A*1C
2014-08-01T00:01:01.922000Z $GPHDT,218.58,T*03
2014-08-01T00:01:01.922000Z $PSXN,20,1,0,0,0*3A
2014-08-01T00:01:01.923000Z $PSXN,22,0.29,0.84*3E
2014-08-01T00:01:01.943000Z $PSXN,23,0.59,3.48,218.58,-0.98*11
2014-08-01T00:01:02.806000Z $GPZDA,000102.69,01,08,2014,,*64
2014-08-01T00:01:02.806000Z $GPGGA,000102.69,2200.238278,S,01756.468360,W,1,10,0.9,3.35,M,,M,,*42
2014-08-01T00:01:02.923000Z $GPVTG,223.04,T,,M,8.7,N,,K,A*1B
2014-08-01T00:01:02.923000Z $GPHDT,218.93,T*04
2014-08-01T00:01:02.923000Z $PSXN,20,1,0,0,0*3A
2014-08-01T00:01:02.923000Z $PSXN,22,0.29,0.84*3E
2014-08-01T00:01:02.943000Z $PSXN,23,0.88,1.63,218.93,-1.54*10
2014-08-01T00:01:03.806000Z $GPZDA,000103.69,01,08,2014,,*65
2014-08-01T00:01:03.806000Z $GPGGA,000103.69,2200.240043,S,01756.470128,W,1,10,0.9,3.14,M,,M,,*42
2014-08-01T00:01:03.923000Z $GPVTG,223.18,T,,M,8.5,N,,K,A*14
2014-08-01T00:01:03.923000Z $GPHDT,219.27,T*0A
2014-08-01T00:01:03.923000Z $PSXN,20,1,0,0,0*3A
2014-08-01T00:01:03.923000Z $PSXN,22,0.29,0.84*3E
2014-08-01T00:01:03.945000Z $PSXN,23,1.05,-0.49,219.27,-1.30*3C
2014-08-01T00:01:04.805000Z $GPZDA,000104.69,01,08,2014,,*62
2014-08-01T00:01:04.805000Z $GPGGA,000104.69,2200.241813,S,01756.471865,W,1,10,0.9,2.37,M,,M,,*48
2014-08-01T00:01:04.922000Z $GPVTG,221.20,T,,M,8.6,N,,K,A*1E
2014-08-01T00:01:04.922000Z $GPHDT,219.49,T*02
2014-08-01T00:01:04.922000Z $PSXN,20,1,0,0,0*3A
2014-08-01T00:01:04.922000Z $PSXN,22,0.29,0.84*3E
2014-08-01T00:01:04.944000Z $PSXN,23,0.89,-1.49,219.49,-0.56*31
2014-08-01T00:01:05.806000Z $GPZDA,000105.69,01,08,2014,,*63
2014-08-01T00:01:05.806000Z $GPGGA,000105.69,2200.243689,S,01756.473528,W,1,10,0.9,1.67,M,,M,,*46
2014-08-01T00:01:05.923000Z $GPVTG,218.17,T,,M,8.9,N,,K,A*1F
2014-08-01T00:01:05.923000Z $GPHDT,219.53,T*09
2014-08-01T00:01:05.923000Z $PSXN,20,1,0,0,0*3A
2014-08-01T00:01:05.923000Z $PSXN,22,0.29,0.84*3E
2014-08-01T00:01:05.943000Z $PSXN,23,0.51,-1.13,219.53,0.15*1A
2014-08-01T00:01:06.805000Z $GPZDA,000106.69,01,08,2014,,*60
2014-08-01T00:01:06.806000Z $GPGGA,000106.69,2200.245670,S,01756.475143,W,1,10,0.9,1.35,M,,M,,*4D
2014-08-01T00:01:06.922000Z $GPVTG,216.68,T,,M,9.1,N,,K,A*10
2014-08-01T00:01:06.922000Z $GPHDT,219.46,T*0D
2014-08-01T00:01:06.922000Z $PSXN,20,1,0,0,0*3A
2014-08-01T00:01:06.922000Z $PSXN,22,0.29,0.84*3E
2014-08-01T00:01:06.943000Z $PSXN,23,0.16,-0.18,219.46,0.47*10
2014-08-01T00:01:07.805000Z $GPZDA,000107.69,01,08,2014,,*61
2014-08-01T00:01:07.805000Z $GPGGA,000107.69,2200.247711,S,01756.476778,W,1,10,0.9,1.40,M,,M,,*47
2014-08-01T00:01:07.922000Z $GPVTG,217.10,T,,M,9.2,N,,K,A*1D
2014-08-01T00:01:07.922000Z $GPHDT,219.41,T*0A
2014-08-01T00:01:07.922000Z $PSXN,20,1,0,0,0*3A
2014-08-01T00:01:07.922000Z $PSXN,22,0.29,0.84*3E
2014-08-01T00:01:07.942000Z $PSXN,23,-0.11,0.46,219.41,0.43*1F
2014-08-01T00:01:08.805000Z $GPZDA,000108.69,01,08,2014,,*6E
2014-08-01T00:01:08.805000Z $GPGGA,000108.69,2200.249745,S,01756.478464,W,1,10,0.9,1.61,M,,M,,*44
2014-08-01T00:01:08.922000Z $GPVTG,218.10,T,,M,9.2,N,,K,A*12
2014-08-01T00:01:08.922000Z $GPHDT,219.35,T*09
2014-08-01T00:01:08.922000Z $PSXN,20,1,0,0,0*3A
2014-08-01T00:01:08.922000Z $PSXN,22,0.29,0.84*3E
2014-08-01T00:01:08.942000Z $PSXN,23,-0.31,0.54,219.35,0.23*1B
2014-08-01T00:01:09.805000Z $GPZDA,000109.69,01,08,2014,,*6F
2014-08-01T00:01:09.805000Z $GPGGA,000109.69,2200.251775,S,01756.480201,W,1,10,0.9,1.78,M,,M,,*45
2014-08-01T00:01:09.922000Z $GPVTG,218.63,T,,M,9.3,N,,K,A*17
2014-08-01T00:01:09.922000Z $GPHDT,219.14,T*0A
2014-08-01T00:01:09.922000Z $PSXN,20,1,0,0,0*3A
2014-08-01T00:01:09.922000Z $PSXN,22,0.29,0.84*3E
2014-08-01T00:01:09.942000Z $PSXN,23,-0.35,0.16,219.14,0.04*1F
2014-08-01T00:01:10.805000Z $GPZDA,000110.69,01,08,2014,,*67
2014-08-01T00:01:10.805000Z $GPGGA,000110.69,2200.253807,S,01756.481950,W,1,10,0.9,1.95,M,,M,,*48
2014-08-01T00:01:10.921000Z $GPVTG,218.78,T,,M,9.3,N,,K,A*1D
2014-08-01T00:01:10.921000Z $GPHDT,218.79,T*00
2014-08-01T00:01:10.921000Z $PSXN,20,1,0,0,0*3A
2014-08-01T00:01:10.921000Z $PSXN,22,0.29,0.84*3E
2014-08-01T00:01:10.944000Z $PSXN,23,-0.22,-0.15,218.79,-0.14*11
2014-08-01T00:01:11.804000Z $GPZDA,000111.69,01,08,2014,,*66
2014-08-01T00:01:11.804000Z $GPGGA,000111.69,2200.255819,S,01756.483694,W,1,10,0.9,2.17,M,,M,,*4C
2014-08-01T00:01:11.921000Z $GPVTG,219.16,T,,M,9.2,N,,K,A*15
2014-08-01T00:01:11.921000Z $GPHDT,218.54,T*0F
2014-08-01T00:01:11.921000Z $PSXN,20,1,0,0,0*3A
2014-08-01T00:01:11.921000Z $PSXN,22,0.29,0.84*3E
2014-08-01T00:01:11.942000Z $PSXN,23,-0.08,0.12,218.54,-0.37*3D
2014-08-01T00:01:12.805000Z $GPZDA,000112.69,01,08,2014,,*65
2014-08-01T00:01:12.805000Z $GPGGA,000112.69,2200.257819,S,01756.485449,W,1,10,0.9,2.27,M,,M,,*4A
2014-08-01T00:01:12.921000Z $GPVTG,219.39,T,,M,9.3,N,,K,A*19
2014-08-01T00:01:12.921000Z $GPHDT,218.55,T*0E
2014-08-01T00:01:12.921000Z $PSXN,20,1,0,0,0*3A
2014-08-01T00:01:12.921000Z $PSXN,22,0.29,0.84*3E
2014-08-01T00:01:12.944000Z $PSXN,23,-0.10,0.58,218.55,-0.48*33
2014-08-01T00:01:13.804000Z $GPZDA,000113.69,01,08,2014,,*64
2014-08-01T00:01:13.804000Z $GPGGA,000113.69,2200.259853,S,01756.487210,W,1,10,0.9,2.00,M,,M,,*46
2014-08-01T00:01:13.921000Z $GPVTG,218.56,T,,M,9.5,N,,K,A*17
2014-08-01T00:01:13.921000Z $GPHDT,218.75,T*0C
2014-08-01T00:01:13.921000Z $PSXN,20,1,0,0,0*3A
2014-08-01T00:01:13.921000Z $PSXN,22,0.29,0.84*3E
2014-08-01T00:01:13.943000Z $PSXN,23,-0.31,0.36,218.75,-0.22*36
2014-08-01T00:01:14.804000Z $GPZDA,000114.69,01,08,2014,,*63
2014-08-01T00:01:14.805000Z $GPGGA,000114.69,2200.261972,S,01756.488970,W,1,10,0.9,1.39,M,,M,,*43
2014-08-01T00:01:14.921000Z $GPVTG,217.71,T,,M,9.6,N,,K,A*1E
2014-08-01T00:01:14.921000Z $GPHDT,218.88,T*0E
2014-08-01T00:01:14.921000Z $PSXN,20,1,0,0,0*3A
2014-08-01T00:01:14.921000Z $PSXN,22,0.29,0.84*3E
2014-08-01T00:01:14.942000Z $PSXN,23,-0.42,-0.56,218.88,0.40*32
2014-08-01T00:01:15.804000Z $GPZDA,000115.69,01,08,2014,,*62
2014-08-01T00:01:15.804000Z $GPGGA,000115.69,2200.264119,S,01756.490756,W,1,10,0.9,0.86,M,,M,,*44
2014-08-01T00:01:15.921000Z $GPVTG,218.11,T,,M,9.7,N,,K,A*16
2014-08-01T00:01:15.921000Z $GPHDT,218.91,T*06
2014-08-01T00:01:15.921000Z $PSXN,20,1,0,0,0*3A
2014-08-01T00:01:15.921000Z $PSXN,22,0.29,0.84*3E
2014-08-01T00:01:15.943000Z $PSXN,23,-0.14,-1.05,218.91,0.93*30
2014-08-01T00:01:16.804000Z $GPZDA,000116.69,01,08,2014,,*61
2014-08-01T00:01:16.804000Z $GPGGA,000116.69,2200.266240,S,01756.492576,W,1,09,1.2,0.83,M,,M,,*4F
2014-08-01T00:01:16.921000Z $GPVTG,219.14,T,,M,9.7,N,,K,A*12
2014-08-01T00:01:16.921000Z $GPHDT,219.03,T*0C
2014-08-01T00:01:16.921000Z $PSXN,20,1,0,0,0*3A
2014-08-01T00:01:16.921000Z $PSXN,22,0.29,0.84*3E
2014-08-01T00:01:16.941000Z $PSXN,23,0.40,-0.27,219.03,0.97*13
2014-08-01T00:01:17.804000Z $GPZDA,000117.69,01,08,2014,,*60
2014-08-01T00:01:17.804000Z $GPGGA,000117.69,2200.268301,S,01756.494410,W,1,09,1.2,1.32,M,,M,,*48
2014-08-01T00:01:17.920000Z $GPVTG,220.23,T,,M,9.5,N,,K,A*1E
2014-08-01T00:01:17.920000Z $GPHDT,219.33,T*0F
2014-08-01T00:01:17.920000Z $PSXN,20,1,0,0,0*3A
2014-08-01T00:01:17.920000Z $PSXN,22,0.29,0.84*3E
2014-08-01T00:01:17.940000Z $PSXN,23,0.81,1.27,219.33,0.48*33
2014-08-01T00:01:18.804000Z $GPZDA,000118.69,01,08,2014,,*6F
2014-08-01T00:01:18.804000Z $GPGGA,000118.69,2200.270284,S,01756.496254,W,1,10,0.9,1.90,M,,M,,*4C
2014-08-01T00:01:18.921000Z $GPVTG,221.09,T,,M,9.4,N,,K,A*16
2014-08-01T00:01:18.921000Z $GPHDT,219.56,T*0C
2014-08-01T00:01:18.921000Z $PSXN,20,1,0,0,0*3A
2014-08-01T00:01:18.921000Z $PSXN,22,0.29,0.84*3E
2014-08-01T00:01:18.942000Z $PSXN,23,0.94,2.15,219.56,-0.16*10
2014-08-01T00:01:19.804000Z $GPZDA,000119.69,01,08,2014,,*6E
2014-08-01T00:01:19.804000Z $GPGGA,000119.69,2200.272229,S,01756.498073,W,1,10,0.9,2.25,M,,M,,*4C
2014-08-01T00:01:19.920000Z $GPVTG,220.47,T,,M,9.1,N,,K,A*18
2014-08-01T00:01:19.920000Z $GPHDT,219.55,T*0F
2014-08-01T00:01:19.920000Z $PSXN,20,1,0,0,0*3A
2014-08-01T00:01:19.920000Z $PSXN,22,0.29,0.84*3E
2014-08-01T00:01:19.941000Z $PSXN,23,0.93,1.67,219.55,-0.55*15
2014-08-01T00:01:20.803000Z $GPZDA,000120.69,01,08,2014,,*64
2014-08-01T00:01:20.803000Z $GPGGA,000120.69,2200.274155,S,01756.499782,W,1,10,0.9,2.38,M,,M,,*4C
2014-08-01T00:01:20.920000Z $GPVTG,218.44,T,,M,8.8,N,,K,A*18
2014-08-01T00:01:20.920000Z $GPHDT,219.35,T*09
2014-08-01T00:01:20.920000Z $PSXN,20,1,0,0,0*3A
2014-08-01T00:01:20.920000Z $PSXN,22,0.29,0.84*3E
2014-08-01T00:01:20.940000Z $PSXN,23,0.78,0.69,219.35,-0.70*1E
2014-08-01T00:01:21.804000Z $GPZDA,000121.69,01,08,2014,,*65
2014-08-01T00:01:21.804000Z $GPGGA,000121.69,2200.276090,S,01756.501353,W,1,10,0.9,2.51,M,,M,,*40
2014-08-01T00:01:21.921000Z $GPVTG,216.83,T,,M,8.6,N,,K,A*13
2014-08-01T00:01:21.921000Z $GPHDT,219.27,T*0A
2014-08-01T00:01:21.921000Z $PSXN,20,1,0,0,0*3A
2014-08-01T00:01:21.921000Z $PSXN,22,0.29,0.84*3E
2014-08-01T00:01:21.941000Z $PSXN,23,0.48,0.07,219.27,-0.78*1E
2014-08-01T00:01:22.803000Z $GPZDA,000122.69,01,08,2014,,*66
2014-08-01T00:01:22.803000Z $GPGGA,000122.69,2200.278029,S,01756.502914,W,1,10,0.9,2.58,M,,M,,*4C
2014-08-01T00:01:22.920000Z $GPVTG,217.69,T,,M,8.8,N,,K,A*18
2014-08-01T00:01:22.920000Z $GPHDT,219.36,T*0A
2014-08-01T00:01:22.920000Z $PSXN,20,1,0,0,0*3A
2014-08-01T00:01:22.920000Z $PSXN,22,0.29,0.84*3E
2014-08-01T00:01:22.942000Z $PSXN,23,0.18,-0.33,219.36,-0.82*34
2014-08-01T00:01:23.803000Z $GPZDA,000123.69,01,08,2014,,*67
2014-08-01T00:01:23.803000Z $GPGGA,000123.69,2200.279986,S,01756.504591,W,1,10,0.9,2.47,M,,M,,*49
2014-08-01T00:01:23.920000Z $GPVTG,219.77,T,,M,9.1,N,,K,A*11
2014-08-01T00:01:23.920000Z $GPHDT,219.49,T*02
2014-08-01T00:01:23.920000Z $PSXN,20,1,0,0,0*3A
2014-08-01T00:01:23.920000Z $PSXN,22,0.29,0.84*3E
2014-08-01T00:01:23.941000Z $PSXN,23,0.00,-0.96,219.49,-0.67*31
2014-08-01T00:01:24.804000Z $GPZDA,000124.69,01,08,2014,,*60
2014-08-01T00:01:24.804000Z $GPGGA,000124.69,2200.281959,S,01756.506393,W,1,10,0.9,2.25,M,,M,,*49
2014-08-01T00:01:24.920000Z $GPVTG,221.43,T,,M,9.3,N,,K,A*1F
2014-08-01T00:01:24.920000Z $GPHDT,219.69,T*00
2014-08-01T00:01:24.920000Z $PSXN,20,1,0,0,0*3A
2014-08-01T00:01:24.920000Z $PSXN,22,0.29,0.84*3E
2014-08-01T00:01:24.943000Z $PSXN,23,-0.02,-1.14,219.69,-0.41*13
2014-08-01T00:01:25.803000Z $GPZDA,000125.69,01,08,2014,,*61
2014-08-01T00:01:25.803000Z $GPGGA,000125.69,2200.283900,S,01756.508262,W,1,10,0.9,2.07,M,,M,,*47
2014-08-01T00:01:25.920000Z $GPVTG,222.53,T,,M,9.4,N,,K,A*1A
2014-08-01T00:01:25.920000Z $GPHDT,219.89,T*0E
2014-08-01T00:01:25.920000Z $PSXN,20,1,0,0,0*3A
2014-08-01T00:01:25.920000Z $PSXN,22,0.29,0.84*3E
2014-08-01T00:01:25.942000Z $PSXN,23,-0.01,-0.20,219.89,-0.21*1E
2014-08-01T00:01:26.803000Z $GPZDA,000126.69,01,08,2014,,*62
2014-08-01T00:01:26.803000Z $GPGGA,000126.69,2200.285823,S,01756.510159,W,1,10,0.9,1.94,M,,M,,*49
2014-08-01T00:01:26.923000Z $GPVTG,222.64,T,,M,9.4,N,,K,A*1E
2014-08-01T00:01:26.923000Z $GPHDT,219.95,T*03
2014-08-01T00:01:26.923000Z $PSXN,20,1,0,0,0*3A
2014-08-01T00:01:26.923000Z $PSXN,22,0.29,0.84*3E
2014-08-01T00:01:26.940000Z $PSXN,23,0.00,1.00,219.95,-0.05*17
2014-08-01T00:01:27.802000Z $GPZDA,000127.68,01,08,2014,,*62
2014-08-01T00:01:27.802000Z $GPGGA,000127.68,2200.287776,S,01756.512054,W,1,10,0.9,1.66,M,,M,,*47
2014-08-01T00:01:27.919000Z $GPVTG,221.31,T,,M,9.5,N,,K,A*1C
2014-08-01T00:01:27.919000Z $GPHDT,219.73,T*0B
2014-08-01T00:01:27.919000Z $PSXN,20,1,0,0,0*3A
2014-08-01T00:01:27.919000Z $PSXN,22,0.29,0.84*3E
2014-08-01T00:01:27.939000Z $PSXN,23,-0.04,1.01,219.73,0.25*18
2014-08-01T00:01:28.803000Z $GPZDA,000128.69,01,08,2014,,*6C
2014-08-01T00:01:28.803000Z $GPGGA,000128.69,2200.289845,S,01756.513921,W,1,10,0.9,1.04,M,,M,,*46
2014-08-01T00:01:28.919000Z $GPVTG,218.54,T,,M,9.8,N,,K,A*18
2014-08-01T00:01:28.919000Z $GPHDT,219.25,T*08
2014-08-01T00:01:28.919000Z $PSXN,20,1,0,0,0*3A
2014-08-01T00:01:28.919000Z $PSXN,22,0.29,0.84*3E
2014-08-01T00:01:28.941000Z $PSXN,23,-0.04,-0.45,219.25,0.87*3F
2014-08-01T00:01:29.802000Z $GPZDA,000129.69,01,08,2014,,*6D
2014-08-01T00:01:29.802000Z $GPGGA,000129.69,2200.292056,S,01756.515723,W,1,09,1.2,0.40,M,,M,,*4E
2014-08-01T00:01:29.919000Z $GPVTG,216.19,T,,M,10.0,N,,K,A*2F
2014-08-01T00:01:29.919000Z $GPHDT,218.91,T*06
2014-08-01T00:01:29.919000Z $PSXN,20,1,0,0,0*3A
2014-08-01T00:01:29.919000Z $PSXN,22,0.29,0.84*3E
2014-08-01T00:01:29.941000Z $PSXN,23,-0.00,-1.72,218.91,1.51*3A
2014-08-01T00:01:30.802000Z $GPZDA,000130.69,01,08,2014,,*65
2014-08-01T00:01:30.802000Z $GPGGA,000130.69,2200.294335,S,01756.517453,W,1,09,1.2,0.28,M,,M,,*4E
2014-08-01T00:01:30.918000Z $GPVTG,215.19,T,,M,10.0,N,,K,A*2C
2014-08-01T00:01:30.918000Z $GPHDT,218.94,T*03
2014-08-01T00:01:30.918000Z $PSXN,20,1,0,0,0*3A
2014-08-01T00:01:30.918000Z $PSXN,22,0.29,0.84*3E
2014-08-01T00:01:30.941000Z $PSXN,23,-0.14,-0.93,218.94,1.62*34
2014-08-01T00:01:31.802000Z $GPZDA,000131.69,01,08,2014,,*64
2014-08-01T00:01:31.802000Z $GPGGA,000131.69,2200.296568,S,01756.519121,W,1,10,0.9,0.97,M,,M,,*4B
2014-08-01T00:01:31.919000Z $GPVTG,215.61,T,,M,9.6,N,,K,A*1D
2014-08-01T00:01:31.919000Z $GPHDT,219.26,T*0B
2014-08-01T00:01:31.919000Z $PSXN,20,1,0,0,0*3A
2014-08-01T00:01:31.919000Z $PSXN,22,0.29,0.84*3E
2014-08-01T00:01:31.939000Z $PSXN,23,-0.33,1.56,219.26,0.92*12
2014-08-01T00:01:32.802000Z $GPZDA,000132.69,01,08,2014,,*67
2014-08-01T00:01:32.802000Z $GPGGA,000132.69,2200.298636,S,01756.520799,W,1,10,0.9,2.18,M,,M,,*44
2014-08-01T00:01:32.919000Z $GPVTG,218.97,T,,M,9.1,N,,K,A*1E
2014-08-01T00:01:32.919000Z $GPHDT,219.78,T*00
2014-08-01T00:01:32.919000Z $PSXN,20,1,0,0,0*3A
2014-08-01T00:01:32.919000Z $PSXN,22,0.29,0.84*3E
2014-08-01T00:01:32.941000Z $PSXN,23,-0.12,3.58,219.78,-0.31*32
2014-08-01T00:01:33.801000Z $GPZDA,000133.69,01,08,2014,,*66
2014-08-01T00:01:33.801000Z $GPGGA,000133.69,2200.300498,S,01756.522545,W,1,10,0.9,3.25,M,,M,,*4D
2014-08-01T00:01:33.918000Z $GPVTG,223.41,T,,M,8.7,N,,K,A*1A
2014-08-01T00:01:33.918000Z $GPHDT,220.31,T*07
2014-08-01T00:01:33.918000Z $PSXN,20,1,0,0,0*3A
2014-08-01T00:01:33.918000Z $PSXN,22,0.29,0.84*3E
2014-08-01T00:01:33.939000Z $PSXN,23,0.35,3.32,220.31,-1.37*16
2014-08-01T00:01:34.802000Z $GPZDA,000134.68,01,08,2014,,*60
2014-08-01T00:01:34.802000Z $GPGGA,000134.68,2200.302196,S,01756.524394,W,1,10,0.9,3.55,M,,M,,*49
2014-08-01T00:01:34.919000Z $GPVTG,226.47,T,,M,8.6,N,,K,A*18
2014-08-01T00:01:34.919000Z $GPHDT,220.64,T*07
2014-08-01T00:01:34.919000Z $PSXN,20,1,0,0,0*3A
2014-08-01T00:01:34.919000Z $PSXN,22,0.29,0.84*3E
2014-08-01T00:01:34.939000Z $PSXN,23,0.74,0.91,220.64,-1.68*13
2014-08-01T00:01:35.802000Z $GPZDA,000135.68,01,08,2014,,*61
2014-08-01T00:01:35.802000Z $GPGGA,000135.68,2200.303839,S,01756.526256,W,1,10,0.9,3.27,M,,M,,*4D
2014-08-01T00:01:35.918000Z $GPVTG,226.27,T,,M,8.5,N,,K,A*1D
2014-08-01T00:01:35.918000Z $GPHDT,220.46,T*07
2014-08-01T00:01:35.918000Z $PSXN,20,1,0,0,0*3A
2014-08-01T00:01:35.918000Z $PSXN,22,0.29,0.84*3E
2014-08-01T00:01:35.940000Z $PSXN,23,0.98,-1.44,220.46,-1.41*3E
2014-08-01T00:01:36.801000Z $GPZDA,000136.68,01,08,2014,,*62
2014-08-01T00:01:36.801000Z $GPGGA,000136.68,2200.305504,S,01756.528062,W,1,10,0.9,2.82,M,,M,,*4E
2014-08-01T00:01:36.918000Z $GPVTG,223.40,T,,M,8.5,N,,K,A*19
2014-08-01T00:01:36.918000Z $GPHDT,219.91,T*07
2014-08-01T00:01:36.918000Z $PSXN,20,1,0,0,0*3A
2014-08-01T00:01:36.918000Z $PSXN,22,0.29,0.84*3E
2014-08-01T00:01:36.939000Z $PSXN,23,1.16,-1.81,219.91,-0.95*38
2014-08-01T00:01:37.802000Z $GPZDA,000137.68,01,08,2014,,*63
2014-08-01T00:01:37.802000Z $GPGGA,000137.68,2200.307287,S,01756.529745,W,1,10,0.9,2.51,M,,M,,*4C
2014-08-01T00:01:37.918000Z $GPVTG,219.67,T,,M,8.6,N,,K,A*16
2014-08-01T00:01:37.918000Z $GPHDT,219.29,T*04
2014-08-01T00:01:37.918000Z $PSXN,20,1,0,0,0*3A
2014-08-01T00:01:37.918000Z $PSXN,22,0.29,0.84*3E
2014-08-01T00:01:37.941000Z $PSXN,23,1.11,-0.30,219.29,-0.60*3D
2014-08-01T00:01:38.801000Z $GPZDA,000138.68,01,08,2014,,*6C
2014-08-01T00:01:38.801000Z $GPGGA,000138.68,2200.309173,S,01756.531358,W,1,10,0.9,2.27,M,,M,,*45
2014-08-01T00:01:38.918000Z $GPVTG,218.02,T,,M,8.8,N,,K,A*1A
2014-08-01T00:01:38.918000Z $GPHDT,218.92,T*05
2014-08-01T00:01:38.918000Z $PSXN,20,1,0,0,0*3A
2014-08-01T00:01:38.918000Z $PSXN,22,0.29,0.84*3E
2014-08-01T00:01:38.938000Z $PSXN,23,0.63,1.10,218.92,-0.32*11
2014-08-01T00:01:39.801000Z $GPZDA,000139.68,01,08,2014,,*6D
2014-08-01T00:01:39.801000Z $GPGGA,000139.68,2200.311148,S,01756.532987,W,1,10,0.9,1.80,M,,M,,*40
2014-08-01T00:01:39.917000Z $GPVTG,217.65,T,,M,9.0,N,,K,A*1D
2014-08-01T00:01:39.918000Z $GPHDT,218.77,T*0E
2014-08-01T00:01:39.918000Z $PSXN,20,1,0,0,0*3A
2014-08-01T00:01:39.918000Z $PSXN,22,0.29,0.84*3E
2014-08-01T00:01:39.938000Z $PSXN,23,-0.17,0.74,218.77,0.19*13
2014-08-01T00:01:40.803000Z $GPZDA,000140.68,01,08,2014,,*63
2014-08-01T00:01:40.803000Z $GPGGA,000140.68,2200.313218,S,01756.534660,W,1,10,0.9,0.99,M,,M,,*43
2014-08-01T00:01:40.918000Z $GPVTG,216.37,T,,M,9.4,N,,K,A*1F
2014-08-01T00:01:40.918000Z $GPHDT,218.55,T*0E
2014-08-01T00:01:40.918000Z $PSXN,20,1,0,0,0*3A
2014-08-01T00:01:40.918000Z $PSXN,22,0.29,0.84*3E
2014-08-01T00:01:40.940000Z $PSXN,23,-0.64,-1.11,218.55,1.04*35
2014-08-01T00:01:41.801000Z $GPZDA,000141.68,01,08,2014,,*62
2014-08-01T00:01:41.801000Z $GPGGA,000141.68,2200.315414,S,01756.536359,W,1,10,0.9,0.15,M,,M,,*47
2014-08-01T00:01:41.918000Z $GPVTG,215.42,T,,M,9.8,N,,K,A*12
2014-08-01T00:01:41.918000Z $GPHDT,218.24,T*08
2014-08-01T00:01:41.918000Z $PSXN,20,1,0,0,0*3A
2014-08-01T00:01:41.918000Z $PSXN,22,0.29,0.84*3E
2014-08-01T00:01:41.939000Z $PSXN,23,-0.60,-2.50,218.24,1.88*35
2014-08-01T00:01:42.800000Z $GPZDA,000142.68,01,08,2014,,*61
2014-08-01T00:01:42.800000Z $GPGGA,000142.68,2200.317675,S,01756.538106,W,1,10,0.9,-0.11,M,,M,,*6C
2014-08-01T00:01:42.917000Z $GPVTG,216.55,T,,M,10.1,N,,K,A*26
2014-08-01T00:01:42.917000Z $GPHDT,218.26,T*0A
2014-08-01T00:01:42.917000Z $PSXN,20,1,0,0,0*3A
2014-08-01T00:01:42.917000Z $PSXN,22,0.29,0.84*3E
2014-08-01T00:01:42.941000Z $PSXN,23,-0.32,-1.61,218.26,2.13*30
2014-08-01T00:01:43.800000Z $GPZDA,000143.68,01,08,2014,,*60
2014-08-01T00:01:43.800000Z $GPGGA,000143.68,2200.319850,S,01756.539925,W,1,10,0.9,0.57,M,,M,,*4D
2014-08-01T00:01:43.917000Z $GPVTG,219.34,T,,M,9.8,N,,K,A*1F
2014-08-01T00:01:43.917000Z $GPHDT,218.84,T*02
2014-08-01T00:01:43.917000Z $PSXN,20,1,0,0,0*3A
2014-08-01T00:01:43.917000Z $PSXN,22,0.29,0.84*3E
2014-08-01T00:01:43.937000Z $PSXN,23,-0.09,1.26,218.84,1.40*1B
2014-08-01T00:01:44.801000Z $GPZDA,000144.68,01,08,2014,,*67
2014-08-01T00:01:44.801000Z $GPGGA,000144.68,2200.321836,S,01756.541758,W,1,10,0.9,2.06,M,,M,,*4C
2014-08-01T00:01:44.917000Z $GPVTG,222.36,T,,M,9.1,N,,K,A*1C
2014-08-01T00:01:44.917000Z $GPHDT,219.64,T*0D
2014-08-01T00:01:44.917000Z $PSXN,20,1,0,0,0*3A
2014-08-01T00:01:44.917000Z $PSXN,22,0.29,0.84*3E
2014-08-01T00:01:44.939000Z $PSXN,23,-0.01,4.10,219.64,-0.10*35
2014-08-01T00:01:45.800000Z $GPZDA,000145.68,01,08,2014,,*66
2014-08-01T00:01:45.800000Z $GPGGA,000145.68,2200.323581,S,01756.543542,W,1,10,0.9,3.58,M,,M,,*4F
2014-08-01T00:01:45.917000Z $GPVTG,224.61,T,,M,8.3,N,,K,A*1B
2014-08-01T00:01:45.917000Z $GPHDT,220.10,T*04
2014-08-01T00:01:45.917000Z $PSXN,20,1,0,0,0*3A
2014-08-01T00:01:45.917000Z $PSXN,22,0.29,0.84*3E
2014-08-01T00:01:45.937000Z $PSXN,23,0.09,4.96,220.10,-1.62*13
2014-08-01T00:01:46.800000Z $GPZDA,000146.68,01,08,2014,,*65
2014-08-01T00:01:46.800000Z $GPGGA,000146.68,2200.325171,S,01756.545239,W,1,10,0.9,4.27,M,,M,,*43
2014-08-01T00:01:46.916000Z $GPVTG,224.41,T,,M,7.8,N,,K,A*1D
2014-08-01T00:01:46.916000Z $GPHDT,220.07,T*02
2014-08-01T00:01:46.916000Z $PSXN,20,1,0,0,0*3A
2014-08-01T00:01:46.916000Z $PSXN,22,0.29,0.84*3E
2014-08-01T00:01:46.937000Z $PSXN,23,0.40,3.20,220.07,-2.33*15
2014-08-01T00:01:47.800000Z $GPZDA,000147.68,01,08,2014,,*64
2014-08-01T00:01:47.800000Z $GPGGA,000147.68,2200.326752,S,01756.546833,W,1,10,0.9,3.84,M,,M,,*4B
2014-08-01T00:01:47.917000Z $GPVTG,222.25,T,,M,7.7,N,,K,A*16
2014-08-01T00:01:47.917000Z $GPHDT,219.84,T*03
2014-08-01T00:01:47.917000Z $PSXN,20,1,0,0,0*3A
2014-08-01T00:01:47.917000Z $PSXN,22,0.29,0.84*3E
2014-08-01T00:01:47.940000Z $PSXN,23,0.87,-0.22,219.84,-1.86*3E
2014-08-01T00:01:48.800000Z $GPZDA,000148.68,01,08,2014,,*6B
2014-08-01T00:01:48.800000Z $GPGGA,000148.68,2200.328405,S,01756.548385,W,1,10,0.9,2.67,M,,M,,*4F
2014-08-01T00:01:48.916000Z $GPVTG,220.76,T,,M,8.0,N,,K,A*1A
2014-08-01T00:01:48.916000Z $GPHDT,219.67,T*0E
2014-08-01T00:01:48.916000Z $PSXN,20,1,0,0,0*3A
2014-08-01T00:01:48.916000Z $PSXN,22,0.29,0.84*3E
2014-08-01T00:01:48.938000Z $PSXN,23,1.20,-3.00,219.67,-0.66*33
2014-08-01T00:01:49.799000Z $GPZDA,000149.68,01,08,2014,,*6A
2014-08-01T00:01:49.799000Z $GPGGA,000149.68,2200.330166,S,01756.549983,W,1,10,0.9,1.54,M,,M,,*49
2014-08-01T00:01:49.916000Z $GPVTG,220.22,T,,M,8.6,N,,K,A*1D
2014-08-01T00:01:49.916000Z $GPHDT,219.52,T*08
2014-08-01T00:01:49.916000Z $PSXN,20,1,0,0,0*3A
2014-08-01T00:01:49.916000Z $PSXN,22,0.29,0.84*3E
2014-08-01T00:01:49.936000Z $PSXN,23,1.01,-3.45,219.52,0.49*17
2014-08-01T00:01:50.800000Z $GPZDA,000150.68,01,08,2014,,*62
2014-08-01T00:01:50.800000Z $GPGGA,000150.68,2200.332064,S,01756.551677,W,1,10,0.9,0.95,M,,M,,*41
2014-08-01T00:01:50.916000Z $GPVTG,219.25,T,,M,9.3,N,,K,A*14
2014-08-01T00:01:50.916000Z $GPHDT,219.14,T*0A
2014-08-01T00:01:50.917000Z $PSXN,20,1,0,0,0*3A
2014-08-01T00:01:50.917000Z $PSXN,22,0.29,0.84*3E
2014-08-01T00:01:50.937000Z $PSXN,23,0.50,-1.88,219.14,1.10*1E
2014-08-01T00:01:51.800000Z $GPZDA,000151.68,01,08,2014,,*63
2014-08-01T00:01:51.800000Z $GPGGA,000151.68,2200.334145,S,01756.553439,W,1,10,0.9,0.80,M,,M,,*4A
2014-08-01T00:01:51.916000Z $GPVTG,217.09,T,,M,9.8,N,,K,A*1F
2014-08-01T00:01:51.916000Z $GPHDT,218.49,T*03
2014-08-01T00:01:51.916000Z $PSXN,20,1,0,0,0*3A
2014-08-01T00:01:51.916000Z $PSXN,22,0.29,0.84*3E
2014-08-01T00:01:51.936000Z $PSXN,23,0.24,-0.15,218.49,1.26*14
2014-08-01T00:01:52.799000Z $GPZDA,000152.68,01,08,2014,,*60
2014-08-01T00:01:52.799000Z $GPGGA,000152.68,2200.336402,S,01756.555194,W,1,10,0.9,0.76,M,,M,,*40
2014-08-01T00:01:52.916000Z $GPVTG,214.94,T,,M,10.1,N,,K,A*29
2014-08-01T00:01:52.916000Z $GPHDT,217.99,T*01
2014-08-01T00:01:52.916000Z $PSXN,20,1,0,0,0*3A
2014-08-01T00:01:52.916000Z $PSXN,22,0.29,0.84*3E
2014-08-01T00:01:52.937000Z $PSXN,23,0.26,0.51,217.99,1.30*3E
2014-08-01T00:01:53.799000Z $GPZDA,000153.68,01,08,2014,,*61
2014-08-01T00:01:53.799000Z $GPGGA,000153.68,2200.338691,S,01756.556922,W,1,10,0.9,0.89,M,,M,,*41
2014-08-01T00:01:53.916000Z $GPVTG,215.72,T,,M,9.8,N,,K,A*11
2014-08-01T00:01:53.916000Z $GPHDT,218.11,T*0E
2014-08-01T00:01:53.916000Z $PSXN,20,1,0,0,0*3A
2014-08-01T00:01:53.916000Z $PSXN,22,0.29,0.84*3E
2014-08-01T00:01:53.936000Z $PSXN,23,0.09,0.85,218.11,1.16*31
2014-08-01T00:01:54.799000Z $GPZDA,000154.68,01,08,2014,,*66
2014-08-01T00:01:54.799000Z $GPGGA,000154.68,2200.340818,S,01756.558647,W,1,10,0.9,1.46,M,,M,,*46
2014-08-01T00:01:54.916000Z $GPVTG,219.20,T,,M,9.3,N,,K,A*11
2014-08-01T00:01:54.916000Z $GPHDT,218.68,T*00
2014-08-01T00:01:54.916000Z $PSXN,20,1,0,0,0*3A
2014-08-01T00:01:54.916000Z $PSXN,22,0.29,0.84*3E
2014-08-01T00:01:54.936000Z $PSXN,23,-0.31,1.84,218.68,0.56*1C
2014-08-01T00:01:55.798000Z $GPZDA,000155.68,01,08,2014,,*67
2014-08-01T00:01:55.799000Z $GPGGA,000155.68,2200.342681,S,01756.560394,W,1,10,0.9,2.52,M,,M,,*4D
2014-08-01T00:01:55.915000Z $GPVTG,223.11,T,,M,8.6,N,,K,A*1E
2014-08-01T00:01:55.915000Z $GPHDT,219.19,T*07
2014-08-01T00:01:55.915000Z $PSXN,20,1,0,0,0*3A
2014-08-01T00:01:55.915000Z $PSXN,22,0.29,0.84*3E
2014-08-01T00:01:55.937000Z $PSXN,23,-0.50,2.97,219.19,-0.50*36
2014-08-01T00:01:56.799000Z $GPZDA,000156.68,01,08,2014,,*64
2014-08-01T00:01:56.799000Z $GPGGA,000156.68,2200.344328,S,01756.562128,W,1,10,0.9,3.57,M,,M,,*4D
2014-08-01T00:01:56.916000Z $GPVTG,225.11,T,,M,8.1,N,,K,A*1F
2014-08-01T00:01:56.916000Z $GPHDT,219.36,T*0A
2014-08-01T00:01:56.916000Z $PSXN,20,1,0,0,0*3A
2014-08-01T00:01:56.916000Z $PSXN,22,0.29,0.84*3E
2014-08-01T00:01:56.938000Z $PSXN,23,-0.17,2.99,219.36,-1.55*32
2014-08-01T00:01:57.799000Z $GPZDA,000157.68,01,08,2014,,*65
2014-08-01T00:01:57.799000Z $GPGGA,000157.68,2200.345906,S,01756.563820,W,1,10,0.9,3.93,M,,M,,*43
2014-08-01T00:01:57.915000Z $GPVTG,224.64,T,,M,7.9,N,,K,A*1B
2014-08-01T00:01:57.915000Z $GPHDT,219.34,T*08
2014-08-01T00:01:57.915000Z $PSXN,20,1,0,0,0*3A
2014-08-01T00:01:57.915000Z $PSXN,22,0.29,0.84*3E
2014-08-01T00:01:57.936000Z $PSXN,23,0.36,1.37,219.34,-1.89*18
2014-08-01T00:01:58.798000Z $GPZDA,000158.68,01,08,2014,,*6A
2014-08-01T00:01:58.798000Z $GPGGA,000158.68,2200.347536,S,01756.565472,W,1,10,0.9,3.25,M,,M,,*41
2014-08-01T00:01:58.915000Z $GPVTG,222.11,T,,M,8.1,N,,K,A*18
2014-08-01T00:01:58.915000Z $GPHDT,219.18,T*06
2014-08-01T00:01:58.915000Z $PSXN,20,1,0,0,0*3A
2014-08-01T00:01:58.915000Z $PSXN,22,0.29,0.84*3E
2014-08-01T00:01:58.937000Z $PSXN,23,0.69,-1.21,219.18,-1.19*3F
2014-08-01T00:01:59.798000Z $GPZDA,000159.68,01,08,2014,,*6B
2014-08-01T00:01:59.798000Z $GPGGA,000159.68,2200.349315,S,01756.567093,W,1,10,0.9,1.90,M,,M,,*4C
2014-08-01T00:01:59.915000Z $GPVTG,218.78,T,,M,8.6,N,,K,A*19
2014-08-01T00:01:59.915000Z $GPHDT,218.75,T*0C
2014-08-01T00:01:59.915000Z $PSXN,20,1,0,0,0*3A
2014-08-01T00:01:59.915000Z $PSXN,22,0.29,0.84*3E
2014-08-01T00:01:59.935000Z $PSXN,23,0.75,-3.11,218.75,0.17*1B
2014-08-01T00:02:00.798000Z $GPZDA,000200.68,01,08,2014,,*64
2014-08-01T00:02:00.798000Z $GPGGA,000200.68,2200.351282,S,01756.568703,W,1,10,0.9,0.70,M,,M,,*4B
2014-08-01T00:02:00.915000Z $GPVTG,216.18,T,,M,9.2,N,,K,A*14
2014-08-01T00:02:00.915000Z $GPHDT,218.27,T*0B
2014-08-01T00:02:00.915000Z $PSXN,20,1,0,0,0*3A
2014-08-01T00:02:00.915000Z $PSXN,22,0.29,0.84*3E
2014-08-01T00:02:00.935000Z $PSXN,23,0.76,-2.79,218.27,1.37*13
2014-08-01T00:02:01.798000Z $GPZDA,000201.68,01,08,2014,,*65
2014-08-01T00:02:01.798000Z $GPGGA,000201.68,2200.353386,S,01756.570318,W,1,10,0.9,0.27,M,,M,,*48
2014-08-01T00:02:01.915000Z $GPVTG,215.21,T,,M,9.5,N,,K,A*1A
2014-08-01T00:02:01.915000Z $GPHDT,218.19,T*06
2014-08-01T00:02:01.915000Z $PSXN,20,1,0,0,0*3A
2014-08-01T00:02:01.915000Z $PSXN,22,0.29,0.84*3E
2014-08-01T00:02:01.935000Z $PSXN,23,0.79,-0.58,218.19,1.80*1C
2014-08-01T00:02:02.797000Z $GPZDA,000202.68,01,08,2014,,*66
2014-08-01T00:02:02.797000Z $GPGGA,000202.68,2200.355544,S,01756.571947,W,1,10,0.9,0.61,M,,M,,*46
2014-08-01T00:02:02.914000Z $GPVTG,215.54,T,,M,9.5,N,,K,A*18
2014-08-01T00:02:02.914000Z $GPHDT,218.48,T*02
2014-08-01T00:02:02.914000Z $PSXN,20,1,0,0,0*3A
2014-08-01T00:02:02.914000Z $PSXN,22,0.29,0.84*3E
2014-08-01T00:02:02.934000Z $PSXN,23,0.56,1.60,218.48,1.44*3A
2014-08-01T00:02:03.798000Z $GPZDA,000203.68,01,08,2014,,*67
2014-08-01T00:02:03.798000Z $GPGGA,000203.68,2200.357679,S,01756.573601,W,1,10,0.9,1.29,M,,M,,*4A
2014-08-01T00:02:03.915000Z $GPVTG,216.30,T,,M,9.4,N,,K,A*18
2014-08-01T00:02:03.915000Z $GPHDT,218.63,T*0B
2014-08-01T00:02:03.915000Z $PSXN,20,1,0,0,0*3A
2014-08-01T00:02:03.915000Z $PSXN,22,0.29,0.84*3E
2014-08-01T00:02:03.934000Z $PSXN,23,0.27,2.19,218.63,0.75*3B
2014-08-01T00:02:04.797000Z $GPZDA,000204.68,01,08,2014,,*60
2014-08-01T00:02:04.797000Z $GPGGA,000204.68,2200.359744,S,01756.575269,W,1,10,0.9,1.87,M,,M,,*44
2014-08-01T00:02:04.914000Z $GPVTG,217.34,T,,M,9.1,N,,K,A*18
2014-08-01T00:02:04.914000Z $GPHDT,218.56,T*0D
2014-08-01T00:02:04.914000Z $PSXN,20,1,0,0,0*3A
2014-08-01T00:02:04.914000Z $PSXN,22,0.29,0.84*3E
2014-08-01T00:02:04.934000Z $PSXN,23,0.31,1.42,218.56,0.11*35
2014-08-01T00:02:05.797000Z $GPZDA,000205.68,01,08,2014,,*61
2014-08-01T00:02:05.797000Z $GPGGA,000205.68,2200.361697,S,01756.576956,W,1,10,0.9,2.37,M,,M,,*4D
2014-08-01T00:02:05.914000Z $GPVTG,220.04,T,,M,8.8,N,,K,A*17
2014-08-01T00:02:05.914000Z $GPHDT,218.58,T*03
2014-08-01T00:02:05.914000Z $PSXN,20,1,0,0,0*3A
2014-08-01T00:02:05.914000Z $PSXN,22,0.29,0.84*3E
2014-08-01T00:02:05.934000Z $PSXN,23,0.56,0.49,218.58,-0.44*1D
2014-08-01T00:02:06.797000Z $GPZDA,000206.68,01,08,2014,,*62
2014-08-01T00:02:06.798000Z $GPGGA,000206.68,2200.363508,S,01756.578710,W,1,10,0.9,2.86,M,,M,,*41
2014-08-01T00:02:06.914000Z $GPVTG,223.77,T,,M,8.7,N,,K,A*1F
2014-08-01T00:02:06.914000Z $GPHDT,218.77,T*0E
2014-08-01T00:02:06.914000Z $PSXN,20,1,0,0,0*3A
2014-08-01T00:02:06.914000Z $PSXN,22,0.29,0.84*3E
2014-08-01T00:02:06.935000Z $PSXN,23,0.66,0.13,218.77,-0.97*12
2014-08-01T00:02:07.797000Z $GPZDA,000207.68,01,08,2014,,*63
2014-08-01T00:02:07.797000Z $GPGGA,000207.68,2200.365221,S,01756.580555,W,1,10,0.9,3.20,M,,M,,*43
2014-08-01T00:02:07.914000Z $GPVTG,225.65,T,,M,8.8,N,,K,A*15
2014-08-01T00:02:07.914000Z $GPHDT,218.91,T*06
2014-08-01T00:02:07.914000Z $PSXN,20,1,0,0,0*3A
2014-08-01T00:02:07.914000Z $PSXN,22,0.29,0.84*3E
2014-08-01T00:02:07.934000Z $PSXN,23,0.61,0.15,218.91,-1.34*13
2014-08-01T00:02:08.797000Z $GPZDA,000208.68,01,08,2014,,*6C
2014-08-01T00:02:08.797000Z $GPGGA,000208.68,2200.366944,S,01756.582425,W,1,10,0.9,3.06,M,,M,,*47
2014-08-01T00:02:08.913000Z $GPVTG,224.82,T,,M,8.9,N,,K,A*1C
2014-08-01T00:02:08.913000Z $GPHDT,218.93,T*04
2014-08-01T00:02:08.913000Z $PSXN,20,1,0,0,0*3A
2014-08-01T00:02:08.913000Z $PSXN,22,0.29,0.84*3E
2014-08-01T00:02:08.935000Z $PSXN,23,0.57,-0.04,218.93,-1.20*3C
2014-08-01T00:02:09.797000Z $GPZDA,000209.68,01,08,2014,,*6D
2014-08-01T00:02:09.797000Z $GPGGA,000209.68,2200.368809,S,01756.584286,W,1,10,0.9,2.24,M,,M,,*48
2014-08-01T00:02:09.914000Z $GPVTG,221.47,T,,M,9.2,N,,K,A*1A
2014-08-01T00:02:09.914000Z $GPHDT,218.88,T*0E
2014-08-01T00:02:09.914000Z $PSXN,20,1,0,0,0*3A
2014-08-01T00:02:09.914000Z $PSXN,22,0.29,0.84*3E
2014-08-01T00:02:09.936000Z $PSXN,23,0.44,-0.58,218.88,-0.39*34
2014-08-01T00:02:10.798000Z $GPZDA,000210.68,01,08,2014,,*65
2014-08-01T00:02:10.798000Z $GPGGA,000210.68,2200.370799,S,01756.586036,W,1,09,1.2,1.22,M,,M,,*43
2014-08-01T00:02:10.913000Z $GPVTG,217.56,T,,M,9.3,N,,K,A*1E
2014-08-01T00:02:10.913000Z $GPHDT,218.82,T*04
2014-08-01T00:02:10.913000Z $PSXN,20,1,0,0,0*3A
2014-08-01T00:02:10.913000Z $PSXN,22,0.29,0.84*3E
2014-08-01T00:02:10.934000Z $PSXN,23,0.17,-0.66,218.82,0.64*10
2014-08-01T00:02:11.797000Z $GPZDA,000211.68,01,08,2014,,*64
2014-08-01T00:02:11.797000Z $GPGGA,000211.68,2200.372886,S,01756.587653,W,1,09,1.2,0.56,M,,M,,*47
2014-08-01T00:02:11.913000Z $GPVTG,214.85,T,,M,9.2,N,,K,A*12
2014-08-01T00:02:11.913000Z $GPHDT,218.82,T*04
2014-08-01T00:02:11.913000Z $PSXN,20,1,0,0,0*3A
2014-08-01T00:02:11.913000Z $PSXN,22,0.29,0.84*3E
2014-08-01T00:02:11.934000Z $PSXN,23,-0.09,0.09,218.82,1.30*16
2014-08-01T00:02:12.797000Z $GPZDA,000212.68,01,08,2014,,*67
2014-08-01T00:02:12.797000Z $GPGGA,000212.68,2200.375000,S,01756.589199,W,1,10,0.9,0.60,M,,M,,*4D
2014-08-01T00:02:12.914000Z $GPVTG,214.78,T,,M,9.1,N,,K,A*13
2014-08-01T00:02:12.914000Z $GPHDT,218.92,T*05
2014-08-01T00:02:12.914000Z $PSXN,20,1,0,0,0*3A
2014-08-01T00:02:12.914000Z $PSXN,22,0.29,0.84*3E
2014-08-01T00:02:12.934000Z $PSXN,23,-0.30,1.07,218.92,1.30*12
2014-08-01T00:02:13.797000Z $GPZDA,000213.68,01,08,2014,,*66
2014-08-01T00:02:13.797000Z $GPGGA,000213.68,2200.377067,S,01756.590764,W,1,10,0.9,1.11,M,,M,,*44
2014-08-01T00:02:13.913000Z $GPVTG,216.25,T,,M,9.0,N,,K,A*18
2014-08-01T00:02:13.913000Z $GPHDT,219.09,T*06
2014-08-01T00:02:13.913000Z $PSXN,20,1,0,0,0*3A
2014-08-01T00:02:13.913000Z $PSXN,22,0.29,0.84*3E
2014-08-01T00:02:13.934000Z $PSXN,23,-0.33,1.28,219.09,0.80*15
2014-08-01T00:02:14.796000Z $GPZDA,000214.68,01,08,2014,,*61
2014-08-01T00:02:14.796000Z $GPGGA,000214.68,2200.379067,S,01756.592397,W,1,10,0.9,1.68,M,,M,,*49
2014-08-01T00:02:14.913000Z $GPVTG,218.33,T,,M,9.0,N,,K,A*11
2014-08-01T00:02:14.913000Z $GPHDT,219.13,T*0D
2014-08-01T00:02:14.913000Z $PSXN,20,1,0,0,0*3A
2014-08-01T00:02:14.913000Z $PSXN,22,0.29,0.84*3E
2014-08-01T00:02:14.933000Z $PSXN,23,-0.14,0.52,219.13,0.22*1F
2014-08-01T00:02:15.796000Z $GPZDA,000215.68,01,08,2014,,*60
2014-08-01T00:02:15.796000Z $GPGGA,000215.68,2200.381015,S,01756.594097,W,1,10,0.9,2.12,M,,M,,*41
2014-08-01T00:02:15.912000Z $GPVTG,220.57,T,,M,9.0,N,,K,A*18
2014-08-01T00:02:15.912000Z $GPHDT,219.10,T*0E
2014-08-01T00:02:15.912000Z $PSXN,20,1,0,0,0*3A
2014-08-01T00:02:15.912000Z $PSXN,22,0.29,0.84*3E
2014-08-01T00:02:15.934000Z $PSXN,23,0.12,-0.35,219.10,-0.21*35
2014-08-01T00:02:16.797000Z $GPZDA,000216.68,01,08,2014,,*63
2014-08-01T00:02:16.797000Z $GPGGA,000216.68,2200.382889,S,01756.595881,W,1,10,0.9,2.38,M,,M,,*4A
2014-08-01T00:02:16.913000Z $GPVTG,222.48,T,,M,9.0,N,,K,A*14
2014-08-01T00:02:16.913000Z $GPHDT,219.07,T*08
2014-08-01T00:02:16.913000Z $PSXN,20,1,0,0,0*3A
2014-08-01T00:02:16.913000Z $PSXN,22,0.29,0.84*3E
2014-08-01T00:02:16.935000Z $PSXN,23,0.39,-0.37,219.07,-0.50*3E
2014-08-01T00:02:17.796000Z $GPZDA,000217.68,01,08,2014,,*62
2014-08-01T00:02:17.796000Z $GPGGA,000217.68,2200.384719,S,01756.597712,W,1,10,0.9,2.57,M,,M,,*45
2014-08-01T00:02:17.912000Z $GPVTG,223.13,T,,M,9.0,N,,K,A*1B
2014-08-01T00:02:17.912000Z $GPHDT,218.99,T*0E
2014-08-01T00:02:17.912000Z $PSXN,20,1,0,0,0*3A
2014-08-01T00:02:17.912000Z $PSXN,22,0.29,0.84*3E
2014-08-01T00:02:17.933000Z $PSXN,23,0.60,0.26,218.99,-0.71*1A
2014-08-01T00:02:18.795000Z $GPZDA,000218.68,01,08,2014,,*6D
2014-08-01T00:02:18.795000Z $GPGGA,000218.68,2200.386583,S,01756.599553,W,1,10,0.9,2.58,M,,M,,*4F
2014-08-01T00:02:18.912000Z $GPVTG,221.86,T,,M,9.2,N,,K,A*17
2014-08-01T00:02:18.912000Z $GPHDT,218.88,T*0E
2014-08-01T00:02:18.912000Z $PSXN,20,1,0,0,0*3A
2014-08-01T00:02:18.912000Z $PSXN,22,0.29,0.84*3E
2014-08-01T00:02:18.932000Z $PSXN,23,0.63,0.47,218.88,-0.75*1A
2014-08-01T00:02:19.796000Z $GPZDA,000219.68,01,08,2014,,*6C
2014-08-01T00:02:19.796000Z $GPGGA,000219.68,2200.388534,S,01756.601384,W,1,10,0.9,2.21,M,,M,,*4C
2014-08-01T00:02:19.912000Z $GPVTG,220.36,T,,M,9.4,N,,K,A*1B
2014-08-01T00:02:19.912000Z $GPHDT,218.81,T*07
2014-08-01T00:02:19.912000Z $PSXN,20,1,0,0,0*3A
2014-08-01T00:02:19.912000Z $PSXN,22,0.29,0.84*3E
2014-08-01T00:02:19.935000Z $PSXN,23,0.51,-0.17,218.81,-0.40*3C
