19+085:10:05:54.522 1,09,0.8,25.6,M,12.5,M,,*7A
19+085:10:05:54.522 $GPGSA,A,3,09,12,05,26,31,25,02,29,23,,,,1.4,0.8,1.2*3A
19+085:10:05:54.737 $GPGSV,3,1,10,51,19,134,00,09,00,166,45,12,24,056,48,05,22,089,44*77
19+085:10:05:54.876 $GPGSV,3,2,10,26,20,240,44,31,45,269,50,25,60,044,46,02,26,129,43*7A
19+085:10:05:54.876 $GPGSV,3,3,10,29,86,141,47,23,05,199,41*7A
19+085:10:05:55.299 $GPRMC,100555,A,5307.0082,S,06724.6187,W,012.2,133.6,260319,010.7,E*76
19+085:10:05:55.513 $GPGGA,100555,5307.0082,S,06724.6187,W,1,09,0.8,25.3,M,12.5,M,,*7E
19+085:10:05:55.513 $GPGSA,A,3,09,12,05,26,31,25,02,29,23,,,,1.4,0.8,1.2*3A
19+085:10:05:55.730 $GPGSV,3,1,10,44,04,251,00,09,00,166,44,12,24,056,48,05,22,089,44*7E
19+085:10:05:55.884 $GPGSV,3,2,10,26,20,240,44,31,45,269,50,25,60,044,46,02,26,129,44*7D
19+085:10:05:55.884 $GPGSV,3,3,10,29,86,141,47,23,05,199,40*7B
19+085:10:05:56.312 $GPRMC,100556,A,5307.0104,S,06724.6145,W,012.3,134.0,260319,010.7,E*74
19+085:10:05:56.528 $GPGGA,100556,5307.0104,S,06724.6145,W,1,09,0.8,25.1,M,12.5,M,,*7E
19+085:10:05:56.528 $GPGSA,A,3,09,12,05,26,31,25,02,29,23,,,,1.4,0.8,1.2*3A
19+085:10:05:56.745 $GPGSV,3,1,10,46,04,251,00,09,00,166,44,12,24,056,48,05,22,089,44*7C
19+085:10:05:56.900 $GPGSV,3,2,10,26,20,240,44,31,45,269,50,25,60,044,46,02,26,129,43*7A
19+085:10:05:56.900 $GPGSV,3,3,10,29,86,141,48,23,05,199,40*74
19+085:10:05:57.317 $GPRMC,100557,A,5307.0130,S,06724.6103,W,012.5,134.8,260319,010.7,E*7E
19+085:10:05:57.532 $GPGGA,100557,5307.0130,S,06724.6103,W,1,09,0.8,25.4,M,12.5,M,,*7F
19+085:10:05:57.532 $GPGSA,A,3,09,12,05,26,31,25,02,29,23,,,,1.4,0.8,1.2*3A
19+085:10:05:57.749 $GPGSV,3,1,10,51,19,134,00,09,00,166,43,12,24,056,48,05,22,089,44*71
19+085:10:05:57.904 $GPGSV,3,2,10,26,20,240,44,31,45,269,50,25,60,044,46,02,25,130,43*71
19+085:10:05:57.904 $GPGSV,3,3,10,29,86,141,48,23,05,199,40*74
19+085:10:05:58.323 $GPRMC,100558,A,5307.0153,S,06724.6066,W,012.6,135.2,260319,010.7,E*7E
19+085:10:05:58.539 $GPGGA,100558,5307.0153,S,06724.6066,W,1,09,0.8,25.3,M,12.5,M,,*70
19+085:10:05:58.539 $GPGSA,A,3,09,12,05,26,31,25,02,29,23,,,,1.4,0.8,1.2*3A
19+085:10:05:58.756 $GPGSV,3,1,10,51,19,134,00,09,00,166,43,12,24,056,47,05,22,089,45*7F
19+085:10:05:58.911 $GPGSV,3,2,10,26,20,240,44,31,45,269,50,25,60,044,46,02,25,130,44*76
19+085:10:05:58.911 $GPGSV,3,3,10,29,86,141,48,23,05,199,41*75
19+085:10:05:59.329 $GPRMC,100559,A,5307.0178,S,06724.6029,W,012.4,136.0,260319,010.7,E*7E
19+085:10:05:59.547 $GPGGA,100559,5307.0178,S,06724.6029,W,1,09,0.8,25.3,M,12.5,M,,*73
19+085:10:05:59.547 $GPGSA,A,3,09,12,05,26,31,25,02,29,23,,,,1.4,0.8,1.2*3A
19+085:10:05:59.762 $GPGSV,3,1,10,44,04,251,00,09,00,166,43,12,24,056,47,05,22,089,45*77
19+085:10:05:59.916 $GPGSV,3,2,10,26,20,240,44,31,45,269,50,25,60,044,46,02,25,130,44*76
19+085:10:05:59.916 $GPGSV,3,3,10,29,86,141,48,23,05,199,41*75
19+085:10:06:00.285 $GPRMC,100600,A,5307.0205,S,06724.5989,W,012.3,136.1,260319,010.7,E*7E
19+085:10:06:00.501 $GPGGA,100600,5307.0205,S,06724.5989,W,1,09,0.8,24.8,M,12.5,M,,*7F
19+085:10:06:00.501 $GPGSA,A,3,09,12,05,26,31,25,02,29,23,,,,1.4,0.8,1.2*3A
19+085:10:06:00.717 $GPGSV,3,1,10,46,04,251,00,09,00,166,42,12,24,056,48,05,22,089,45*7B
19+085:10:06:00.934 $GPGSV,3,2,10,26,20,240,44,31,45,269,50,25,60,044,46,02,25,130,44*76
19+085:10:06:00.934 $GPGSV,3,3,10,29,86,141,48,23,05,199,41*75
19+085:10:06:00.980 $PGRMT,GPS19x-HVS Software Version 2.60,,,,,,,,*6B
19+085:10:06:01.301 $GPRMC,100601,A,5307.0230,S,06724.5949,W,012.3,135.0,260319,010.7,E*77
19+085:10:06:01.518 $GPGGA,100601,5307.0230,S,06724.5949,W,1,09,0.8,24.2,M,12.5,M,,*7E
19+085:10:06:01.518 $GPGSA,A,3,09,12,05,26,31,25,02,29,23,,,,1.4,0.8,1.2*3A
19+085:10:06:01.734 $GPGSV,3,1,10,51,19,134,00,09,00,166,42,12,24,056,48,05,22,089,44*70
19+085:10:06:01.888 $GPGSV,3,2,10,26,20,240,44,31,45,269,50,25,60,044,47,02,25,130,43*70
19+085:10:06:01.888 $GPGSV,3,3,10,29,86,141,48,23,05,199,41*75
19+085:10:06:02.297 $GPRMC,100602,A,5307.0254,S,06724.5912,W,012.6,134.5,260319,010.7,E*79
19+085:10:06:02.512 $GPGGA,100602,5307.0254,S,06724.5912,W,1,09,0.8,23.9,M,12.5,M,,*7D
19+085:10:06:02.512 $GPGSA,A,3,09,12,05,26,31,25,02,29,23,,,,1.4,0.8,1.2*3A
19+085:10:06:02.729 $GPGSV,3,1,10,51,19,134,00,09,00,166,42,12,24,056,48,05,22,089,45*71
19+085:10:06:02.883 $GPGSV,3,2,10,26,20,240,43,31,45,269,50,25,60,044,47,02,25,130,44*70
19+085:10:06:02.883 $GPGSV,3,3,10,29,86,141,48,23,05,199,41*75
19+085:10:06:03.302 $GPRMC,100603,A,5307.0277,S,06724.5875,W,012.4,134.6,260319,010.7,E*78
19+085:10:06:03.519 $GPGGA,100603,5307.0277,S,06724.5875,W,1,09,0.8,23.7,M,12.5,M,,*73
19+085:10:06:03.519 $GPGSA,A,3,09,12,05,26,31,25,02,29,23,,,,1.4,0.8,1.2*3A
19+085:10:06:03.736 $GPGSV,3,1,10,44,04,251,00,09,00,166,41,12,24,056,48,05,22,090,45*72
19+085:10:06:03.889 $GPGSV,3,2,10,26,20,240,43,31,45,269,50,25,60,044,47,02,25,130,44*70
19+085:10:06:03.889 $GPGSV,3,3,10,29,86,141,48,23,05,199,41*75
19+085:10:06:04.303 $GPRMC,100604,A,5307.0300,S,06724.5833,W,012.4,134.7,260319,010.7,E*7D
19+085:10:06:04.520 $GPGGA,100604,5307.0300,S,06724.5833,W,1,09,0.8,23.7,M,12.5,M,,*77
19+085:10:06:04.520 $GPGSA,A,3,09,12,05,26,31,25,02,29,23,,,,1.4,0.8,1.2*3A
19+085:10:06:04.737 $GPGSV,3,1,10,46,04,251,00,09,00,166,41,12,24,056,48,05,22,090,45*70
19+085:10:06:04.890 $GPGSV,3,2,10,26,20,240,43,31,45,269,50,25,60,044,47,02,25,130,44*70
19+085:10:06:04.890 $GPGSV,3,3,10,29,86,141,48,23,05,199,41*75
19+085:10:06:05.316 $GPRMC,100605,A,5307.0322,S,06724.5790,W,012.3,134.8,260319,010.7,E*72
19+085:10:06:05.532 $GPGGA,100605,5307.0322,S,06724.5790,W,1,09,0.8,24.3,M,12.5,M,,*73
19+085:10:06:05.532 $GPGSA,A,3,09,12,05,26,31,25,02,29,23,,,,1.4,0.8,1.2*3A
19+085:10:06:05.748 $GPGSV,3,1,10,51,19,134,00,09,00,166,40,12,24,056,48,05,22,090,45*7B
19+085:10:06:05.902 $GPGSV,3,2,10,26,20,240,43,31,45,269,50,25,60,044,46,02,25,130,44*71
19+085:10:06:05.902 $GPGSV,3,3,10,29,86,141,48,23,05,199,41*75
19+085:10:06:06.331 $GPRMC,100606,A,5307.0344,S,06724.5745,W,012.4,134.7,260319,010.7,E*71
19+085:10:06:06.548 $GPGGA,100606,5307.0344,S,06724.5745,W,1,09,0.8,24.6,M,12.5,M,,*7D
19+085:10:06:06.548 $GPGSA,A,3,09,12,05,26,31,25,02,29,23,,,,1.4,0.8,1.2*3A
19+085:10:06:06.764 $GPGSV,3,1,10,51,19,134,00,09,00,166,40,12,24,056,47,05,22,090,43*72
19+085:10:06:06.919 $GPGSV,3,2,10,26,20,240,43,31,45,269,50,25,60,044,46,02,25,130,44*71
19+085:10:06:06.919 $GPGSV,3,3,10,29,86,141,48,23,05,199,41*75
19+085:10:06:07.326 $GPRMC,100607,A,5307.0368,S,06724.5700,W,012.9,135.3,260319,010.7,E*77
19+085:10:06:07.542 $GPGGA,100607,5307.0368,S,06724.5700,W,1,09,0.8,24.5,M,12.5,M,,*70
19+085:10:06:07.542 $GPGSA,A,3,09,12,05,26,31,25,02,29,23,,,,1.4,0.8,1.2*3A
19+085:10:06:07.760 $GPGSV,3,1,10,44,04,251,00,09,00,166,39,12,24,056,47,05,22,090,43*74
19+085:10:06:07.913 $GPGSV,3,2,10,26,20,240,44,31,45,269,50,25,60,044,46,02,25,130,43*71
19+085:10:06:07.913 $GPGSV,3,3,10,29,86,141,48,23,05,199,42*76
19+085:10:06:08.332 $GPRMC,100608,A,5307.0394,S,06724.5659,W,012.6,134.9,260319,010.7,E*72
19+085:10:06:08.548 $GPGGA,100608,5307.0394,S,06724.5659,W,1,09,0.8,24.4,M,12.5,M,,*70
19+085:10:06:08.548 $GPGSA,A,3,09,12,05,26,31,25,02,29,23,,,,1.4,0.8,1.2*3A
19+085:10:06:08.766 $GPGSV,3,1,10,46,04,251,00,09,00,166,39,12,24,056,48,05,22,090,43*79
19+085:10:06:08.919 $GPGSV,3,2,10,26,20,240,44,31,45,269,50,25,60,044,46,02,25,130,44*76
19+085:10:06:08.919 $GPGSV,3,3,10,29,86,141,48,23,05,199,42*76
19+085:10:06:09.287 $GPRMC,100609,A,5307.0420,S,06724.5617,W,012.5,134.7,260319,010.7,E*7C
19+085:10:06:09.504 $GPGGA,100609,5307.0420,S,06724.5617,W,1,09,0.8,24.4,M,12.5,M,,*73
19+085:10:06:09.504 $GPGSA,A,3,09,12,05,26,31,25,02,29,23,,,,1.4,0.8,1.2*3A
19+085:10:06:09.720 $GPGSV,3,1,10,51,19,134,00,09,00,166,38,12,24,056,48,05,22,090,43*72
19+085:10:06:09.874 $GPGSV,3,2,10,26,20,240,44,31,45,269,50,25,60,044,46,02,25,130,43*71
19+085:10:06:09.874 $GPGSV,3,3,10,29,86,141,48,23,05,199,41*75
19+085:10:06:10.293 $GPRMC,100610,A,5307.0444,S,06724.5573,W,012.2,134.5,260319,010.7,E*72
19+085:10:06:10.510 $GPGGA,100610,5307.0444,S,06724.5573,W,1,09,0.8,24.6,M,12.5,M,,*7A
19+085:10:06:10.510 $GPGSA,A,3,09,12,05,26,31,25,02,29,23,,,,1.4,0.8,1.2*3A
19+085:10:06:10.726 $GPGSV,3,1,10,51,19,134,00,09,00,166,38,12,24,056,48,05,22,090,43*72
19+085:10:06:10.881 $GPGSV,3,2,10,26,20,240,44,31,45,269,50,25,60,044,46,02,25,130,43*71
19+085:10:06:10.881 $GPGSV,3,3,10,29,86,141,48,23,05,199,41*75
19+085:10:06:11.299 $GPRMC,100611,A,5307.0469,S,06724.5534,W,012.4,133.5,260319,010.7,E*7E
19+085:10:06:11.516 $GPGGA,100611,5307.0469,S,06724.5534,W,1,09,0.8,24.4,M,12.5,M,,*75
19+085:10:06:11.516 $GPGSA,A,3,09,12,05,26,31,25,02,29,23,,,,1.4,0.8,1.2*3A
19+085:10:06:11.732 $GPGSV,3,1,10,44,04,251,00,09,00,167,37,12,24,056,48,05,22,090,43*74
19+085:10:06:11.886 $GPGSV,3,2,10,26,20,240,44,31,45,269,50,25,60,044,46,02,25,130,43*71
19+085:10:06:11.886 $GPGSV,3,3,10,29,86,141,48,23,05,199,41*75
19+085:10:06:12.305 $GPRMC,100612,A,5307.0493,S,06724.5493,W,012.3,132.7,260319,010.7,E*70
19+085:10:06:12.522 $GPGGA,100612,5307.0493,S,06724.5493,W,1,09,0.8,24.0,M,12.5,M,,*7B
19+085:10:06:12.522 $GPGSA,A,3,09,12,05,26,31,25,02,29,23,,,,1.4,0.8,1.2*3A
19+085:10:06:12.738 $GPGSV,3,1,10,46,04,251,00,09,00,167,36,12,24,056,48,05,22,090,44*70
19+085:10:06:12.892 $GPGSV,3,2,10,26,20,240,44,31,45,269,50,25,60,044,46,02,25,130,43*71
19+085:10:06:12.892 $GPGSV,3,3,10,29,86,141,48,23,05,199,41*75
19+085:10:06:13.306 $GPRMC,100613,A,5307.0517,S,06724.5453,W,012.3,132.7,260319,010.7,E*70
19+085:10:06:13.523 $GPGGA,100613,5307.0517,S,06724.5453,W,1,09,0.8,23.9,M,12.5,M,,*75
19+085:10:06:13.523 $GPGSA,A,3,09,12,05,26,31,25,02,29,23,,,,1.4,0.8,1.2*3A
19+085:10:06:13.739 $GPGSV,3,1,10,51,19,134,00,09,00,167,35,12,24,056,48,05,22,090,44*79
19+085:10:06:13.893 $GPGSV,3,2,10,26,20,240,44,31,45,269,50,25,60,044,46,02,25,130,43*71
19+085:10:06:13.893 $GPGSV,3,3,10,29,86,141,48,23,05,199,41*75
19+085:10:06:14.312 $GPRMC,100614,A,5307.0539,S,06724.5410,W,012.5,133.5,260319,010.7,E*79
19+085:10:06:14.529 $GPGGA,100614,5307.0539,S,06724.5410,W,1,09,0.8,23.9,M,12.5,M,,*79
19+085:10:06:14.529 $GPGSA,A,3,09,12,05,26,31,25,02,29,23,,,,1.4,0.8,1.2*3A
19+085:10:06:14.745 $GPGSV,3,1,10,51,19,134,00,09,00,167,34,12,24,056,48,05,22,090,45*79
19+085:10:06:14.900 $GPGSV,3,2,10,26,20,240,44,31,45,269,50,25,60,044,46,02,25,130,43*71
19+085:10:06:14.900 $GPGSV,3,3,10,29,86,141,48,23,05,199,42*76
19+085:10:06:15.318 $GPRMC,100615,A,5307.0563,S,06724.5369,W,012.6,134.6,260319,010.7,E*79
19+085:10:06:15.535 $GPGGA,100615,5307.0563,S,06724.5369,W,1,09,0.8,23.7,M,12.5,M,,*70
19+085:10:06:15.535 $GPGSA,A,3,09,12,05,26,31,25,02,29,23,,,,1.4,0.8,1.2*3A
19+085:10:06:15.751 $GPGSV,3,1,10,44,04,251,00,09,00,167,32,12,24,056,48,05,22,090,45*77
19+085:10:06:15.905 $GPGSV,3,2,10,26,20,240,44,31,45,269,50,25,60,044,46,02,25,130,43*71
19+085:10:06:15.905 $GPGSV,3,3,10,29,86,141,48,23,05,199,42*76
19+085:10:06:16.324 $GPRMC,100616,A,5307.0586,S,06724.5327,W,012.4,135.3,260319,010.7,E*7D
19+085:10:06:16.540 $GPGGA,100616,5307.0586,S,06724.5327,W,1,09,0.8,23.8,M,12.5,M,,*7D
19+085:10:06:16.540 $GPGSA,A,3,09,12,05,26,31,25,02,29,23,,,,1.4,0.8,1.2*3A
19+085:10:06:16.757 $GPGSV,3,1,10,46,04,251,00,09,00,167,32,12,24,056,48,05,22,090,45*75
19+085:10:06:16.911 $GPGSV,3,2,10,26,20,240,44,31,45,269,50,25,60,044,46,02,25,130,43*71
19+085:10:06:16.911 $GPGSV,3,3,10,29,86,141,48,23,05,199,41*75
19+085:10:06:17.279 $GPRMC,100617,A,5307.0610,S,06724.5288,W,012.2,136.1,260319,010.7,E*73
19+085:10:06:17.496 $GPGGA,100617,5307.0610,S,06724.5288,W,1,09,0.8,23.8,M,12.5,M,,*74
19+085:10:06:17.496 $GPGSA,A,3,09,12,05,26,31,25,02,29,23,,,,1.4,0.8,1.2*3A
19+085:10:06:17.712 $GPGSV,3,1,10,51,19,134,00,09,00,167,31,12,23,055,48,05,22,090,45*78
19+085:10:06:17.866 $GPGSV,3,2,10,26,20,240,44,31,45,269,50,25,60,044,46,02,25,130,43*71
19+085:10:06:17.866 $GPGSV,3,3,10,29,86,141,48,23,05,199,42*76
19+085:10:06:18.290 $GPRMC,100618,A,5307.0637,S,06724.5252,W,012.1,135.9,260319,010.7,E*76
19+085:10:06:18.507 $GPGGA,100618,5307.0637,S,06724.5252,W,1,09,0.8,24.2,M,12.5,M,,*74
19+085:10:06:18.507 $GPGSA,A,3,09,12,05,26,31,25,02,29,23,,,,1.4,0.8,1.2*3A
19+085:10:06:18.724 $GPGSV,3,1,10,51,19,134,00,09,00,167,31,12,23,055,48,05,22,090,45*78
19+085:10:06:18.876 $GPGSV,3,2,10,26,20,240,44,31,45,269,50,25,60,044,46,02,25,130,43*71
19+085:10:06:18.877 $GPGSV,3,3,10,29,86,141,48,23,05,199,41*75
19+085:10:06:19.296 $GPRMC,100619,A,5307.0665,S,06724.5212,W,012.3,135.9,260319,010.7,E*76
19+085:10:06:19.513 $GPGGA,100619,5307.0665,S,06724.5212,W,1,09,0.8,24.2,M,12.5,M,,*76
19+085:10:06:19.513 $GPGSA,A,3,09,12,05,26,31,25,02,29,23,,,,1.4,0.8,1.2*3A
19+085:10:06:19.730 $GPGSV,3,1,10,44,04,251,00,09,00,167,30,12,23,055,48,05,22,090,45*71
19+085:10:06:19.883 $GPGSV,3,2,10,26,20,240,44,31,45,269,50,25,60,044,46,02,25,130,43*71
19+085:10:06:19.883 $GPGSV,3,3,10,29,86,141,48,23,05,199,41*75
19+085:10:06:20.297 $GPRMC,100620,A,5307.0690,S,06724.5173,W,012.6,136.3,260319,010.7,E*7E
19+085:10:06:20.514 $GPGGA,100620,5307.0690,S,06724.5173,W,1,09,0.8,24.4,M,12.5,M,,*74
19+085:10:06:20.514 $GPGSA,A,3,09,12,05,26,31,25,02,29,23,,,,1.4,0.8,1.2*3A
19+085:10:06:20.731 $GPGSV,3,1,10,46,04,251,00,09,00,167,28,12,23,055,48,05,22,090,44*7B
19+085:10:06:20.884 $GPGSV,3,2,10,26,20,240,44,31,45,269,50,25,60,044,46,02,25,130,43*71
19+085:10:06:20.884 $GPGSV,3,3,10,29,86,141,48,23,05,199,42*76
19+085:10:06:21.303 $GPRMC,100621,A,5307.0715,S,06724.5132,W,012.7,136.5,260319,010.7,E*71
19+085:10:06:21.520 $GPGGA,100621,5307.0715,S,06724.5132,W,1,09,0.8,24.4,M,12.5,M,,*7C
19+085:10:06:21.520 $GPGSA,A,3,09,12,05,26,31,25,02,29,23,,,,1.4,0.8,1.2*3A
19+085:10:06:21.738 $GPGSV,3,1,10,51,19,134,00,09,00,167,28,12,23,055,48,05,22,090,44*71
19+085:10:06:21.890 $GPGSV,3,2,10,26,20,240,44,31,45,269,50,25,60,044,46,02,25,130,44*76
19+085:10:06:21.890 $GPGSV,3,3,10,29,86,141,48,23,05,199,42*76
19+085:10:06:22.314 $GPRMC,100622,A,5307.0740,S,06724.5091,W,012.5,135.1,260319,010.7,E*7F
19+085:10:06:22.531 $GPGGA,100622,5307.0740,S,06724.5091,W,1,09,0.8,24.7,M,12.5,M,,*74
19+085:10:06:22.531 $GPGSA,A,3,09,12,05,26,31,25,02,29,23,,,,1.4,0.8,1.2*3A
19+085:10:06:22.748 $GPGSV,3,1,10,51,19,134,00,09,00,167,27,12,23,055,48,05,22,090,44*7E
19+085:10:06:22.901 $GPGSV,3,2,10,26,20,240,44,31,45,269,50,25,60,044,46,02,25,130,43*71
19+085:10:06:22.901 $GPGSV,3,3,10,29,86,141,48,23,05,199,42*76
19+085:10:06:23.321 $GPRMC,100623,A,5307.0764,S,06724.5048,W,012.5,134.0,260319,010.7,E*7C
19+085:10:06:23.537 $GPGGA,100623,5307.0764,S,06724.5048,W,1,09,0.8,24.5,M,12.5,M,,*75
19+085:10:06:23.537 $GPGSA,A,3,09,12,05,26,31,25,02,29,23,,,,1.4,0.8,1.2*3A
19+085:10:06:23.754 $GPGSV,3,1,10,44,04,251,00,09,00,167,23,12,23,055,48,05,22,090,44*72
19+085:10:06:23.907 $GPGSV,3,2,10,26,20,240,44,31,45,269,50,25,60,044,46,02,25,130,43*71
19+085:10:06:23.907 $GPGSV,3,3,10,29,86,141,48,23,05,199,42*76
19+085:10:06:24.320 $GPRMC,100624,A,5307.0789,S,06724.5015,W,012.4,133.4,260319,010.7,E*72
19+085:10:06:24.537 $GPGGA,100624,5307.0789,S,06724.5015,W,1,08,0.9,24.2,M,12.5,M,,*7E
19+085:10:06:24.537 $GPGSA,A,3,12,05,26,31,25,02,29,23,,,,,1.5,0.9,1.3*32
19+085:10:06:24.753 $GPGSV,3,1,09,46,04,251,00,12,23,055,48,05,22,090,46,26,20,240,44*72
19+085:10:06:24.876 $GPGSV,3,2,09,31,45,269,50,25,60,044,46,02,25,130,43,29,86,141,49*75
19+085:10:06:24.877 $GPGSV,3,3,09,23,05,199,41*40
19+085:10:06:25.326 $GPRMC,100625,A,5307.0814,S,06724.4970,W,012.4,133.1,260319,010.7,E*76
19+085:10:06:25.543 $GPGGA,100625,5307.0814,S,06724.4970,W,1,08,0.9,23.9,M,12.5,M,,*73
19+085:10:06:25.543 $GPGSA,A,3,12,05,26,31,25,02,29,23,,,,,1.5,0.9,1.3*32
19+085:10:06:25.760 $GPGSV,3,1,09,51,19,134,00,12,23,055,48,05,22,090,46,26,20,240,44*78
19+085:10:06:25.882 $GPGSV,3,2,09,31,45,269,50,25,60,044,46,02,25,130,43,29,86,141,49*75
19+085:10:06:25.882 $GPGSV,3,3,09,23,05,199,41*40
19+085:10:06:26.282 $GPRMC,100626,A,5307.0836,S,06724.4926,W,012.4,133.8,260319,010.7,E*7F
19+085:10:06:26.498 $GPGGA,100626,5307.0836,S,06724.4926,W,1,08,0.9,23.8,M,12.5,M,,*72
19+085:10:06:26.498 $GPGSA,A,3,12,05,26,31,25,02,29,23,,,,,1.5,0.9,1.3*32
19+085:10:06:26.715 $GPGSV,3,1,09,51,19,134,00,12,23,055,47,05,22,090,45,26,20,240,44*74
19+085:10:06:26.837 $GPGSV,3,2,09,31,45,269,50,25,60,044,46,02,25,130,43,29,86,141,49*75
19+085:10:06:26.838 $GPGSV,3,3,09,23,05,199,41*40
19+085:10:06:27.287 $GPRMC,100627,A,5307.0857,S,06724.4883,W,012.5,135.1,260319,010.7,E*79
19+085:10:06:27.504 $GPGGA,100627,5307.0857,S,06724.4883,W,1,08,0.9,23.7,M,12.5,M,,*75
19+085:10:06:27.504 $GPGSA,A,3,12,05,26,31,25,02,29,23,,,,,1.5,0.9,1.3*32
19+085:10:06:27.721 $GPGSV,3,1,09,44,04,251,00,12,23,055,47,05,22,090,45,26,20,240,44*7C
19+085:10:06:27.843 $GPGSV,3,2,09,31,45,269,50,25,60,044,46,02,25,130,43,29,86,141,49*75
19+085:10:06:27.843 $GPGSV,3,3,09,23,05,199,41*40
19+085:10:06:28.293 $GPRMC,100628,A,5307.0879,S,06724.4842,W,012.6,136.0,260319,010.7,E*76
19+085:10:06:28.510 $GPGGA,100628,5307.0879,S,06724.4842,W,1,08,0.9,23.9,M,12.5,M,,*75
19+085:10:06:28.510 $GPGSA,A,3,12,05,26,31,25,02,29,23,,,,,1.5,0.9,1.3*32
19+085:10:06:28.727 $GPGSV,3,1,09,46,04,251,00,12,23,055,47,05,22,090,46,26,20,240,44*7D
19+085:10:06:28.849 $GPGSV,3,2,09,31,45,269,50,25,60,044,46,02,25,130,43,29,86,141,48*74
19+085:10:06:28.849 $GPGSV,3,3,09,23,05,199,41*40
19+085:10:06:29.299 $GPRMC,100629,A,5307.0904,S,06724.4802,W,012.4,135.7,260319,010.7,E*7E
19+085:10:06:29.517 $GPGGA,100629,5307.0904,S,06724.4802,W,1,08,0.9,23.5,M,12.5,M,,*77
19+085:10:06:29.517 $GPGSA,A,3,12,05,26,31,25,02,29,23,,,,,1.5,0.9,1.3*32
19+085:10:06:29.733 $GPGSV,3,1,09,51,19,134,00,12,23,055,47,05,22,090,46,26,20,240,44*77
19+085:10:06:29.854 $GPGSV,3,2,09,31,45,269,50,25,60,044,46,02,25,130,42,29,86,141,49*74
19+085:10:06:29.854 $GPGSV,3,3,09,23,05,199,41*40
19+085:10:06:30.305 $GPRMC,100630,A,5307.0930,S,06724.4760,W,012.1,135.9,260319,010.7,E*71
19+085:10:06:30.522 $GPGGA,100630,5307.0930,S,06724.4760,W,1,08,0.9,23.4,M,12.5,M,,*72
19+085:10:06:30.522 $GPGSA,A,3,12,05,26,31,25,02,29,23,,,,,1.5,0.9,1.3*32
19+085:10:06:30.738 $GPGSV,3,1,09,51,19,134,00,12,23,055,47,05,22,090,45,26,20,240,44*74
19+085:10:06:30.861 $GPGSV,3,2,09,31,45,269,50,25,60,044,46,02,25,130,42,29,86,141,48*75
19+085:10:06:30.861 $GPGSV,3,3,09,23,05,199,41*40
19+085:10:06:31.311 $GPRMC,100631,A,5307.0955,S,06724.4725,W,012.4,136.3,260319,010.7,E*7E
19+085:10:06:31.528 $GPGGA,100631,5307.0955,S,06724.4725,W,1,08,0.9,23.5,M,12.5,M,,*70
19+085:10:06:31.528 $GPGSA,A,3,12,05,26,31,25,02,29,23,,,,,1.5,0.9,1.3*32
19+085:10:06:31.746 $GPGSV,3,1,09,44,04,251,00,12,23,055,47,05,22,090,45,26,20,240,43*7B
19+085:10:06:31.867 $GPGSV,3,2,09,31,45,269,51,25,60,044,46,02,25,130,44,29,86,141,48*72
19+085:10:06:31.867 $GPGSV,3,3,09,23,05,199,41*40
19+085:10:06:32.324 $GPRMC,100632,A,5307.0980,S,06724.4687,W,012.5,135.9,260319,010.7,E*74
19+085:10:06:32.541 $GPGGA,100632,5307.0980,S,06724.4687,W,1,08,0.9,23.4,M,12.5,M,,*73
19+085:10:06:32.541 $GPGSA,A,3,12,05,26,31,25,02,29,23,,,,,1.5,0.9,1.3*32
19+085:10:06:32.758 $GPGSV,3,1,09,46,04,251,00,12,23,055,48,05,22,090,45,26,20,240,43*76
19+085:10:06:32.881 $GPGSV,3,2,09,31,45,269,51,25,60,044,46,02,25,130,44,29,86,141,49*73
19+085:10:06:32.881 $GPGSV,3,3,09,23,05,199,41*40
19+085:10:06:33.282 $GPRMC,100633,A,5307.1005,S,06724.4645,W,012.4,135.9,260319,010.7,E*7F
19+085:10:06:33.498 $GPGGA,100633,5307.1005,S,06724.4645,W,1,09,0.8,23.1,M,12.5,M,,*7C
19+085:10:06:33.498 $GPGSA,A,3,09,12,05,26,31,25,02,29,23,,,,1.4,0.8,1.2*3A
19+085:10:06:33.715 $GPGSV,3,1,10,51,19,134,00,09,00,167,32,12,23,055,48,05,22,090,46*78
19+085:10:06:33.869 $GPGSV,3,2,10,26,20,240,44,31,45,269,51,25,60,044,47,02,25,130,44*76
19+085:10:06:33.869 $GPGSV,3,3,10,29,86,141,49,23,05,199,41*74
19+085:10:06:34.288 $GPRMC,100634,A,5307.1029,S,06724.4603,W,012.4,135.8,260319,010.7,E*75
19+085:10:06:34.504 $GPGGA,100634,5307.1029,S,06724.4603,W,1,09,0.8,22.7,M,12.5,M,,*70
19+085:10:06:34.505 $GPGSA,A,3,09,12,05,26,31,25,02,29,23,,,,1.4,0.8,1.2*3A
19+085:10:06:34.721 $GPGSV,3,1,10,51,19,134,00,09,00,167,32,12,23,055,48,05,22,090,46*78
19+085:10:06:34.874 $GPGSV,3,2,10,26,20,240,44,31,45,269,51,25,60,044,47,02,25,130,43*71
19+085:10:06:34.875 $GPGSV,3,3,10,29,86,141,48,23,05,199,41*75
19+085:10:06:35.294 $GPRMC,100635,A,5307.1053,S,06724.4563,W,012.3,135.2,260319,010.7,E*71
19+085:10:06:35.510 $GPGGA,100635,5307.1053,S,06724.4563,W,1,09,0.8,22.6,M,12.5,M,,*78
19+085:10:06:35.510 $GPGSA,A,3,09,12,05,26,31,25,02,29,23,,,,1.4,0.8,1.2*3A
19+085:10:06:35.727 $GPGSV,3,1,10,44,04,251,00,09,00,167,32,12,23,055,48,05,22,090,46*70
19+085:10:06:35.880 $GPGSV,3,2,10,26,20,240,44,31,45,269,51,25,60,044,46,02,25,130,43*70
19+085:10:06:36.061 $GPGSV,3,3,10,29,86,141,48,23,05,199,41*75
19+085:10:06:36.302 $GPRMC,100636,A,5307.1078,S,06724.4522,W,012.4,134.6,260319,010.7,E*7C
19+085:10:06:36.519 $GPGGA,100636,5307.1078,S,06724.4522,W,1,09,0.8,22.5,M,12.5,M,,*74
19+085:10:06:36.519 $GPGSA,A,3,09,12,05,26,31,25,02,29,23,,,,1.4,0.8,1.2*3A
19+085:10:06:36.735 $GPGSV,3,1,10,46,04,251,00,09,00,167,32,12,23,055,47,05,22,090,46*7D
19+085:10:06:36.888 $GPGSV,3,2,10,26,20,240,44,31,45,269,51,25,60,044,47,02,25,130,43*71
19+085:10:06:36.888 $GPGSV,3,3,10,29,86,141,48,23,05,199,41*75
19+085:10:06:37.304 $GPRMC,100637,A,5307.1101,S,06724.4484,W,012.5,135.1,260319,010.7,E*78
19+085:10:06:37.522 $GPGGA,100637,5307.1101,S,06724.4484,W,1,09,0.8,22.7,M,12.5,M,,*75
19+085:10:06:37.522 $GPGSA,A,3,09,12,05,26,31,25,02,29,23,,,,1.4,0.8,1.2*3A
19+085:10:06:37.739 $GPGSV,3,1,10,51,19,134,00,09,00,167,32,12,23,055,47,05,22,090,46*77
19+085:10:06:37.892 $GPGSV,3,2,10,26,20,240,43,31,45,269,51,25,60,044,47,02,25,130,43*76
19+085:10:06:37.892 $GPGSV,3,3,10,29,86,141,48,23,05,199,42*76
19+085:10:06:38.316 $GPRMC,100638,A,5307.1127,S,06724.4445,W,012.5,135.5,260319,010.7,E*7A
19+085:10:06:38.533 $GPGGA,100638,5307.1127,S,06724.4445,W,1,09,0.8,22.6,M,12.5,M,,*72
19+085:10:06:38.533 $GPGSA,A,3,09,12,05,26,31,25,02,29,23,,,,1.4,0.8,1.2*3A
19+085:10:06:38.750 $GPGSV,3,1,10,51,19,134,00,09,00,167,33,12,23,055,48,05,22,090,45*7A
19+085:10:06:38.902 $GPGSV,3,2,10,26,20,240,44,31,45,269,50,25,60,044,47,02,25,130,43*70
19+085:10:06:38.902 $GPGSV,3,3,10,29,86,141,48,23,05,199,41*75
19+085:10:06:39.318 $GPRMC,100639,A,5307.1151,S,06724.4407,W,012.6,135.5,260319,010.7,E*7F
19+085:10:06:39.534 $GPGGA,100639,5307.1151,S,06724.4407,W,1,09,0.8,22.9,M,12.5,M,,*7B
19+085:10:06:39.534 $GPGSA,A,3,09,12,05,26,31,25,02,29,23,,,,1.4,0.8,1.2*3A
19+085:10:06:39.750 $GPGSV,3,1,10,44,04,251,00,09,00,167,33,12,23,055,48,05,22,090,45*72
19+085:10:06:39.904 $GPGSV,3,2,10,26,20,240,44,31,45,269,50,25,60,044,47,02,25,130,43*70
19+085:10:06:39.905 $GPGSV,3,3,10,29,86,141,48,23,05,199,41*75
19+085:10:06:40.322 $GPRMC,100640,A,5307.1175,S,06724.4367,W,012.4,135.3,260319,010.7,E*72
19+085:10:06:40.540 $GPGGA,100640,5307.1175,S,06724.4367,W,1,09,0.8,22.9,M,12.5,M,,*72
19+085:10:06:40.540 $GPGSA,A,3,09,12,05,26,31,25,02,29,23,,,,1.4,0.8,1.2*3A
19+085:10:06:40.755 $GPGSV,3,1,10,46,04,251,00,09,00,167,33,12,23,055,48,05,22,090,45*70
19+085:10:06:40.910 $GPGSV,3,2,10,26,20,240,44,31,45,269,50,25,60,044,47,02,25,130,44*77
19+085:10:06:40.910 $GPGSV,3,3,10,29,86,141,48,23,05,199,41*75
19+085:10:06:41.279 $GPRMC,100641,A,5307.1200,S,06724.4327,W,012.3,135.5,260319,010.7,E*77
19+085:10:06:41.496 $GPGGA,100641,5307.1200,S,06724.4327,W,1,09,0.8,22.8,M,12.5,M,,*77
19+085:10:06:41.496 $GPGSA,A,3,09,12,05,26,31,25,02,29,23,,,,1.4,0.8,1.2*3A
19+085:10:06:41.713 $GPGSV,3,1,10,51,19,134,00,09,00,167,33,12,23,055,48,05,22,090,45*7A
19+085:10:06:41.865 $GPGSV,3,2,10,26,20,240,44,31,45,269,50,25,60,044,46,02,25,130,44*76
19+085:10:06:41.865 $GPGSV,3,3,10,29,86,141,48,23,05,199,40*74
19+085:10:06:42.285 $GPRMC,100642,A,5307.1225,S,06724.4285,W,012.2,135.4,260319,010.7,E*7A
19+085:10:06:42.502 $GPGGA,100642,5307.1225,S,06724.4285,W,1,09,0.8,22.6,M,12.5,M,,*74
19+085:10:06:42.502 $GPGSA,A,3,09,12,05,26,31,25,02,29,23,,,,1.4,0.8,1.2*3A
19+085:10:06:42.718 $GPGSV,3,1,10,51,19,134,00,09,00,167,33,12,23,055,48,05,22,090,45*7A
19+085:10:06:42.871 $GPGSV,3,2,10,26,20,240,44,31,45,269,50,25,60,044,47,02,25,130,44*77
19+085:10:06:42.871 $GPGSV,3,3,10,29,86,141,48,23,05,199,41*75
19+085:10:06:43.290 $GPRMC,100643,A,5307.1248,S,06724.4243,W,012.4,135.8,260319,010.7,E*70
19+085:10:06:43.508 $GPGGA,100643,5307.1248,S,06724.4243,W,1,09,0.8,22.6,M,12.5,M,,*74
19+085:10:06:43.508 $GPGSA,A,3,09,12,05,26,31,25,02,29,23,,,,1.4,0.8,1.2*3A
19+085:10:06:43.724 $GPGSV,3,1,10,44,04,251,00,09,00,167,33,12,23,055,48,05,22,090,45*72
19+085:10:06:43.877 $GPGSV,3,2,10,26,20,240,44,31,45,269,50,25,59,044,47,02,25,130,43*7A
19+085:10:06:43.877 $GPGSV,3,3,10,29,86,141,48,23,05,199,41*75
19+085:10:06:44.297 $GPRMC,100644,A,5307.1273,S,06724.4203,W,012.6,137.1,260319,010.7,E*72
19+085:10:06:44.512 $GPGGA,100644,5307.1273,S,06724.4203,W,1,09,0.8,22.8,M,12.5,M,,*71
19+085:10:06:44.512 $GPGSA,A,3,09,12,05,26,31,25,02,29,23,,,,1.4,0.8,1.2*3A
19+085:10:06:44.730 $GPGSV,3,1,10,46,04,251,00,09,00,167,33,12,23,055,48,05,22,090,45*70
19+085:10:06:44.884 $GPGSV,3,2,10,26,20,240,44,31,45,269,50,25,59,044,46,02,25,130,44*7C
19+085:10:06:44.884 $GPGSV,3,3,10,29,86,141,48,23,05,199,41*75
19+085:10:06:45.303 $GPRMC,100645,A,5307.1299,S,06724.4160,W,012.4,137.2,260319,010.7,E*70
19+085:10:06:45.518 $GPGGA,100645,5307.1299,S,06724.4160,W,1,09,0.8,22.7,M,12.5,M,,*7D
19+085:10:06:45.518 $GPGSA,A,3,09,12,05,26,31,25,02,29,23,,,,1.4,0.8,1.2*3A
19+085:10:06:45.735 $GPGSV,3,1,10,51,19,134,00,09,00,167,33,12,23,055,48,05,22,090,45*7A
19+085:10:06:45.889 $GPGSV,3,2,10,26,21,240,44,31,45,269,51,25,59,044,46,02,25,130,43*7B
19+085:10:06:45.889 $GPGSV,3,3,10,29,86,141,48,23,05,199,41*75
19+085:10:06:46.314 $GPRMC,100646,A,5307.1326,S,06724.4122,W,012.3,136.8,260319,010.7,E*7C
19+085:10:06:46.530 $GPGGA,100646,5307.1326,S,06724.4122,W,1,09,0.8,22.4,M,12.5,M,,*7E
19+085:10:06:46.530 $GPGSA,A,3,09,12,05,26,31,25,02,29,23,,,,1.4,0.8,1.2*3A
19+085:10:06:46.747 $GPGSV,3,1,10,51,19,134,00,09,00,167,34,12,23,055,47,05,22,090,45*72
19+085:10:06:46.901 $GPGSV,3,2,10,26,21,240,44,31,45,269,51,25,59,044,47,02,25,130,43*7A
19+085:10:06:46.901 $GPGSV,3,3,10,29,86,141,49,23,05,199,41*74
19+085:10:06:47.319 $GPRMC,100647,A,5307.1351,S,06724.4085,W,012.2,135.7,260319,010.7,E*7C
19+085:10:06:47.536 $GPGGA,100647,5307.1351,S,06724.4085,W,1,09,0.8,21.9,M,12.5,M,,*7D
19+085:10:06:47.536 $GPGSA,A,3,09,12,05,26,31,25,02,29,23,,,,1.4,0.8,1.2*3A
19+085:10:06:47.752 $GPGSV,3,1,10,44,04,251,00,09,00,167,34,12,23,055,47,05,22,090,44*7B
19+085:10:06:47.905 $GPGSV,3,2,10,26,21,240,43,31,45,269,51,25,59,044,47,02,25,130,43*7D
19+085:10:06:47.905 $GPGSV,3,3,10,29,86,141,49,23,05,199,41*74
19+085:10:06:48.320 $GPRMC,100648,A,5307.1375,S,06724.4044,W,012.3,134.1,260319,010.7,E*7E
19+085:10:06:48.536 $GPGGA,100648,5307.1375,S,06724.4044,W,1,09,0.8,21.6,M,12.5,M,,*76
19+085:10:06:48.536 $GPGSA,A,3,09,12,05,26,31,25,02,29,23,,,,1.4,0.8,1.2*3A
19+085:10:06:48.753 $GPGSV,3,1,10,46,04,251,00,09,00,167,35,12,23,055,47,05,22,090,44*78
19+085:10:06:48.906 $GPGSV,3,2,10,26,21,240,43,31,45,269,51,25,59,044,47,02,25,130,44*7A
19+085:10:06:48.906 $GPGSV,3,3,10,29,86,141,49,23,05,199,40*75
19+085:10:06:49.326 $GPRMC,100649,A,5307.1398,S,06724.4001,W,012.2,132.7,260319,010.7,E*7C
19+085:10:06:49.542 $GPGGA,100649,5307.1398,S,06724.4001,W,1,09,0.8,21.7,M,12.5,M,,*74
19+085:10:06:49.542 $GPGSA,A,3,09,12,05,26,31,25,02,29,23,,,,1.4,0.8,1.2*3A
19+085:10:06:49.760 $GPGSV,3,1,10,51,19,134,00,09,00,167,34,12,23,055,47,05,22,090,45*72
19+085:10:06:49.912 $GPGSV,3,2,10,26,21,240,43,31,45,269,51,25,59,044,47,02,25,130,44*7A
19+085:10:06:49.912 $GPGSV,3,3,10,29,86,141,49,23,05,199,41*74
19+085:10:06:50.280 $GPRMC,100650,A,5307.1421,S,06724.3962,W,012.4,132.7,260319,010.7,E*7C
19+085:10:06:50.498 $GPGGA,100650,5307.1421,S,06724.3962,W,1,09,0.8,22.0,M,12.5,M,,*76
19+085:10:06:50.498 $GPGSA,A,3,09,12,05,26,31,25,02,29,23,,,,1.4,0.8,1.2*3A
19+085:10:06:50.714 $GPGSV,3,1,10,51,19,134,00,09,00,167,34,12,23,055,47,05,22,090,45*72
19+085:10:06:50.867 $GPGSV,3,2,10,26,21,240,43,31,45,269,50,25,59,044,47,02,25,130,44*7B
19+085:10:06:50.867 $GPGSV,3,3,10,29,86,141,49,23,05,199,41*74
19+085:10:06:51.286 $GPRMC,100651,A,5307.1445,S,06724.3918,W,012.4,133.8,260319,010.7,E*7C
19+085:10:06:51.504 $GPGGA,100651,5307.1445,S,06724.3918,W,1,09,0.8,22.0,M,12.5,M,,*78
19+085:10:06:51.504 $GPGSA,A,3,09,12,05,26,31,25,02,29,23,,,,1.4,0.8,1.2*3A
19+085:10:06:51.719 $GPGSV,3,1,10,44,04,251,00,09,00,167,35,12,23,055,47,05,22,090,44*7A
19+085:10:06:51.873 $GPGSV,3,2,10,26,21,240,44,31,45,269,50,25,59,044,46,02,25,130,44*7D
19+085:10:06:51.873 $GPGSV,3,3,10,29,86,137,49,23,05,199,41*75
19+085:10:06:52.292 $GPRMC,100652,A,5307.1471,S,06724.3877,W,012.3,134.5,260319,010.7,E*7D
19+085:10:06:52.510 $GPGGA,100652,5307.1471,S,06724.3877,W,1,09,0.8,22.1,M,12.5,M,,*75
19+085:10:06:52.510 $GPGSA,A,3,09,12,05,26,31,25,02,29,23,,,,1.4,0.8,1.2*3A
19+085:10:06:52.725 $GPGSV,3,1,10,46,04,251,00,09,00,167,35,12,23,055,47,05,22,090,45*79
19+085:10:06:52.879 $GPGSV,3,2,10,26,21,240,44,31,45,269,50,25,59,044,47,02,25,130,44*7C
19+085:10:06:52.880 $GPGSV,3,3,10,29,86,137,49,23,05,199,41*75
19+085:10:06:53.298 $GPRMC,100653,A,5307.1496,S,06724.3840,W,012.2,135.5,260319,010.7,E*71
19+085:10:06:53.514 $GPGGA,100653,5307.1496,S,06724.3840,W,1,09,0.8,22.4,M,12.5,M,,*7C
19+085:10:06:53.514 $GPGSA,A,3,09,12,05,26,31,25,02,29,23,,,,1.4,0.8,1.2*3A
19+085:10:06:53.732 $GPGSV,3,1,10,51,19,134,00,09,00,167,35,12,23,055,48,05,22,090,45*7C
19+085:10:06:53.885 $GPGSV,3,2,10,26,21,240,43,31,45,269,50,25,59,044,47,02,25,130,43*7C
19+085:10:06:53.885 $GPGSV,3,3,10,29,86,137,48,23,05,199,41*74
19+085:10:06:54.304 $GPRMC,100654,A,5307.1521,S,06724.3800,W,012.3,135.9,260319,010.7,E*72
19+085:10:06:54.521 $GPGGA,100654,5307.1521,S,06724.3800,W,1,09,0.8,22.5,M,12.5,M,,*73
19+085:10:06:54.522 $GPGSA,A,3,09,12,05,26,31,25,02,29,23,,,,1.4,0.8,1.2*3A
19+085:10:06:54.738 $GPGSV,3,1,10,51,19,134,00,09,00,167,36,12,23,055,48,05,22,090,46*7C
19+085:10:06:54.891 $GPGSV,3,2,10,26,21,240,43,31,45,269,50,25,59,044,47,02,25,130,43*7C
19+085:10:06:54.891 $GPGSV,3,3,10,29,86,137,48,23,05,199,41*74
19+085:10:06:55.310 $GPRMC,100655,A,5307.1547,S,06724.3759,W,012.4,136.5,260319,010.7,E*78
19+085:10:06:55.527 $GPGGA,100655,5307.1547,S,06724.3759,W,1,09,0.8,22.6,M,12.5,M,,*72
19+085:10:06:55.527 $GPGSA,A,3,09,12,05,26,31,25,02,29,23,,,,1.4,0.8,1.2*3A
19+085:10:06:55.744 $GPGSV,3,1,10,44,04,251,00,09,00,167,36,12,23,055,47,05,22,090,46*7B
19+085:10:06:55.897 $GPGSV,3,2,10,26,21,240,43,31,45,270,50,25,59,044,47,02,25,130,43*74
19+085:10:06:55.897 $GPGSV,3,3,10,29,86,137,48,23,05,199,41*74
19+085:10:06:56.317 $GPRMC,100656,A,5307.1574,S,06724.3719,W,012.5,136.4,260319,010.7,E*7F
19+085:10:06:56.533 $GPGGA,100656,5307.1574,S,06724.3719,W,1,09,0.8,22.8,M,12.5,M,,*7B
19+085:10:06:56.533 $GPGSA,A,3,09,12,05,26,31,25,02,29,23,,,,1.4,0.8,1.2*3A
19+085:10:06:56.751 $GPGSV,3,1,10,46,04,251,00,09,00,167,37,12,23,055,48,05,22,090,46*77
19+085:10:06:56.904 $GPGSV,3,2,10,26,21,240,43,31,45,270,50,25,59,044,47,02,25,130,43*74
19+085:10:06:56.904 $GPGSV,3,3,10,29,86,137,48,23,05,199,41*74
19+085:10:06:57.281 $GPRMC,100657,A,5307.1601,S,06724.3678,W,012.6,136.7,260319,010.7,E*79
19+085:10:06:57.497 $GPGGA,100657,5307.1601,S,06724.3678,W,1,09,0.8,22.7,M,12.5,M,,*72
19+085:10:06:57.497 $GPGSA,A,3,09,12,05,26,31,25,02,29,23,,,,1.4,0.8,1.2*3A
19+085:10:06:57.714 $GPGSV,3,1,10,51,19,134,00,09,00,167,37,12,23,055,48,05,22,090,46*7D
19+085:10:06:57.867 $GPGSV,3,2,10,26,21,240,43,31,45,270,50,25,59,044,47,02,25,130,42*75
19+085:10:06:57.868 $GPGSV,3,3,10,29,86,137,48,23,05,199,41*74
19+085:10:06:58.287 $GPRMC,100658,A,5307.1626,S,06724.3636,W,012.5,137.2,260319,010.7,E*7E
19+085:10:06:58.503 $GPGGA,100658,5307.1626,S,06724.3636,W,1,09,0.8,22.6,M,12.5,M,,*73
19+085:10:06:58.503 $GPGSA,A,3,09,12,05,26,31,25,02,29,23,,,,1.4,0.8,1.2*3A
19+085:10:06:58.719 $GPGSV,3,1,10,51,19,134,00,09,00,167,37,12,23,055,48,05,22,090,46*7D
19+085:10:06:58.873 $GPGSV,3,2,10,26,21,240,43,31,45,270,50,25,59,044,47,02,25,130,42*75
19+085:10:06:58.873 $GPGSV,3,3,10,29,86,137,48,23,05,199,41*74
19+085:10:06:59.292 $GPRMC,100659,A,5307.1651,S,06724.3600,W,012.4,136.7,260319,010.7,E*7F
19+085:10:06:59.509 $GPGGA,100659,5307.1651,S,06724.3600,W,1,09,0.8,22.4,M,12.5,M,,*75
19+085:10:06:59.509 $GPGSA,A,3,09,12,05,26,31,25,02,29,23,,,,1.4,0.8,1.2*3A
19+085:10:06:59.725 $GPGSV,3,1,10,44,04,251,00,09,00,167,37,12,23,055,48,05,22,090,46*75
19+085:10:06:59.879 $GPGSV,3,2,10,26,21,240,43,31,45,270,50,25,59,044,47,02,25,130,43*74
19+085:10:06:59.879 $GPGSV,3,3,10,29,86,137,48,23,05,199,42*77
19+085:10:07:00.298 $GPRMC,100700,A,5307.1676,S,06724.3562,W,012.4,136.6,260319,010.7,E*71
19+085:10:07:00.516 $GPGGA,100700,5307.1676,S,06724.3562,W,1,09,0.8,22.6,M,12.5,M,,*78
19+085:10:07:00.516 $GPGSA,A,3,09,12,05,26,31,25,02,29,23,,,,1.4,0.8,1.2*3A
19+085:10:07:00.731 $GPGSV,3,1,10,46,04,251,00,09,00,167,37,12,23,055,48,05,22,090,46*77
19+085:10:07:00.948 $GPGSV,3,2,10,26,21,240,43,31,45,270,50,25,59,044,47,02,25,130,43*74
19+085:10:07:00.948 $GPGSV,3,3,10,29,86,137,48,23,05,199,42*77
19+085:10:07:00.994 $PGRMT,GPS19x-HVS Software Version 2.60,,,,,,,,*6B
19+085:10:07:01.304 $GPRMC,100701,A,5307.1700,S,06724.3522,W,012.4,136.7,260319,010.7,E*75
19+085:10:07:01.522 $GPGGA,100701,5307.1700,S,06724.3522,W,1,09,0.8,22.8,M,12.5,M,,*73
19+085:10:07:01.522 $GPGSA,A,3,09,12,05,26,31,25,02,29,23,,,,1.4,0.8,1.2*3A
19+085:10:07:01.737 $GPGSV,3,1,10,51,19,134,00,09,00,167,37,12,23,055,47,05,22,090,45*71
19+085:10:07:01.891 $GPGSV,3,2,10,26,21,240,43,31,45,270,50,25,59,044,47,02,25,130,43*74
19+085:10:07:01.891 $GPGSV,3,3,10,29,86,137,48,23,05,199,41*74
19+085:10:07:02.315 $GPRMC,100702,A,5307.1729,S,06724.3481,W,012.3,136.3,260319,010.7,E*76
19+085:10:07:02.532 $GPGGA,100702,5307.1729,S,06724.3481,W,1,09,0.8,22.4,M,12.5,M,,*7F
19+085:10:07:02.532 $GPGSA,A,3,09,12,05,26,31,25,02,29,23,,,,1.4,0.8,1.2*3A
19+085:10:07:02.748 $GPGSV,3,1,10,51,19,134,00,09,00,167,37,12,23,055,48,05,22,090,45*7E
19+085:10:07:02.902 $GPGSV,3,2,10,26,21,240,43,31,45,270,51,25,59,044,47,02,25,130,43*75
19+085:10:07:02.902 $GPGSV,3,3,10,29,86,137,48,23,05,199,41*74
19+085:10:07:03.316 $GPRMC,100703,A,5307.1753,S,06724.3443,W,012.6,136.4,260319,010.7,E*76
19+085:10:07:03.533 $GPGGA,100703,5307.1753,S,06724.3443,W,1,09,0.8,22.3,M,12.5,M,,*7A
19+085:10:07:03.533 $GPGSA,A,3,09,12,05,26,31,25,02,29,23,,,,1.4,0.8,1.2*3A
19+085:10:07:03.751 $GPGSV,3,1,10,44,04,251,00,09,00,167,37,12,23,055,48,05,22,090,45*76
19+085:10:07:03.904 $GPGSV,3,2,10,26,21,240,44,31,45,270,50,25,59,044,47,02,25,130,43*73
19+085:10:07:03.904 $GPGSV,3,3,10,29,86,137,49,23,05,199,41*75
19+085:10:07:04.322 $GPRMC,100704,A,5307.1778,S,06724.3401,W,012.5,135.5,260319,010.7,E*7F
19+085:10:07:04.540 $GPGGA,100704,5307.1778,S,06724.3401,W,1,09,0.8,21.9,M,12.5,M,,*7B
19+085:10:07:04.540 $GPGSA,A,3,09,12,05,26,31,25,02,29,23,,,,1.4,0.8,1.2*3A
19+085:10:07:04.756 $GPGSV,3,1,10,46,04,251,00,09,00,167,37,12,23,055,48,05,22,090,45*74
19+085:10:07:04.909 $GPGSV,3,2,10,26,21,240,44,31,45,270,51,25,59,044,47,02,25,130,44*75
19+085:10:07:04.909 $GPGSV,3,3,10,29,86,137,49,23,05,199,40*74
19+085:10:07:05.278 $GPRMC,100705,A,5307.1802,S,06724.3359,W,012.5,134.9,260319,010.7,E*7B
19+085:10:07:05.496 $GPGGA,100705,5307.1802,S,06724.3359,W,1,09,0.8,22.1,M,12.5,M,,*79
19+085:10:07:05.496 $GPGSA,A,3,09,12,05,26,31,25,02,29,23,,,,1.4,0.8,1.2*3A
19+085:10:07:05.711 $GPGSV,3,1,10,51,19,134,00,09,00,167,37,12,23,055,47,05,22,090,45*71
19+085:10:07:05.865 $GPGSV,3,2,10,26,21,240,44,31,45,270,51,25,59,044,47,02,25,130,44*75
19+085:10:07:05.865 $GPGSV,3,3,10,29,86,137,49,23,05,199,40*74
19+085:10:07:06.284 $GPRMC,100706,A,5307.1827,S,06724.3320,W,012.3,134.4,260319,010.7,E*7A
19+085:10:07:06.501 $GPGGA,100706,5307.1827,S,06724.3320,W,1,09,0.8,22.5,M,12.5,M,,*77
19+085:10:07:06.501 $GPGSA,A,3,09,12,05,26,31,25,02,29,23,,,,1.4,0.8,1.2*3A
19+085:10:07:06.717 $GPGSV,3,1,10,51,19,134,00,09,00,167,37,12,23,055,47,05,22,090,45*71
19+085:10:07:06.871 $GPGSV,3,2,10,26,21,240,44,31,45,270,50,25,59,044,47,02,25,130,44*74
19+085:10:07:06.871 $GPGSV,3,3,10,29,86,137,48,23,05,199,40*75
19+085:10:07:07.290 $GPRMC,100707,A,5307.1851,S,06724.3283,W,012.2,133.4,260319,010.7,E*74
19+085:10:07:07.507 $GPGGA,100707,5307.1851,S,06724.3283,W,1,09,0.8,22.8,M,12.5,M,,*72
19+085:10:07:07.507 $GPGSA,A,3,09,12,05,26,31,25,02,29,23,,,,1.4,0.8,1.2*3A
19+085:10:07:07.724 $GPGSV,3,1,10,44,04,251,00,09,00,167,37,12,23,055,48,05,23,090,45*77
19+085:10:07:07.877 $GPGSV,3,2,10,26,21,240,43,31,45,270,50,25,59,044,47,02,25,130,44*73
19+085:10:07:07.877 $GPGSV,3,3,10,29,86,137,48,23,05,199,40*75
19+085:10:07:08.296 $GPRMC,100708,A,5307.1874,S,06724.3242,W,012.2,133.7,260319,010.7,E*72
19+085:10:07:08.512 $GPGGA,100708,5307.1874,S,06724.3242,W,1,09,0.8,22.9,M,12.5,M,,*76
19+085:10:07:08.512 $GPGSA,A,3,09,12,05,26,31,25,02,29,23,,,,1.4,0.8,1.2*3A
19+085:10:07:08.730 $GPGSV,3,1,10,46,04,251,00,09,00,167,37,12,23,055,47,05,23,090,46*79
19+085:10:07:08.883 $GPGSV,3,2,10,26,21,240,43,31,45,270,50,25,59,044,47,02,25,130,43*74
19+085:10:07:08.883 $GPGSV,3,3,10,29,86,137,48,23,05,199,40*75
19+085:10:07:09.303 $GPRMC,100709,A,5307.1899,S,06724.3203,W,012.3,134.5,260319,010.7,E*71
19+085:10:07:09.520 $GPGGA,100709,5307.1899,S,06724.3203,W,1,09,0.8,23.2,M,12.5,M,,*7B
19+085:10:07:09.520 $GPGSA,A,3,09,12,05,26,31,25,02,29,23,,,,1.4,0.8,1.2*3A
19+085:10:07:09.737 $GPGSV,3,1,10,51,19,134,00,09,00,167,36,12,23,055,47,05,23,090,46*72
19+085:10:07:09.890 $GPGSV,3,2,10,26,21,240,43,31,45,270,50,25,59,044,47,02,25,130,43*74
19+085:10:07:09.890 $GPGSV,3,3,10,29,86,137,48,23,05,199,40*75
19+085:10:07:10.309 $GPRMC,100710,A,5307.1921,S,06724.3163,W,012.4,135.2,260319,010.7,E*7F
19+085:10:07:10.526 $GPGGA,100710,5307.1921,S,06724.3163,W,1,09,0.8,23.2,M,12.5,M,,*74
19+085:10:07:10.526 $GPGSA,A,3,09,12,05,26,31,25,02,29,23,,,,1.4,0.8,1.2*3A
19+085:10:07:10.742 $GPGSV,3,1,10,51,19,134,00,09,00,167,36,12,23,055,47,05,23,090,46*72
19+085:10:07:10.897 $GPGSV,3,2,10,26,21,240,43,31,45,270,50,25,59,044,47,02,25,130,43*74
19+085:10:07:10.897 $GPGSV,3,3,10,29,86,137,48,23,05,199,41*74
19+085:10:07:11.316 $GPRMC,100711,A,5307.1945,S,06724.3123,W,012.4,136.8,260319,010.7,E*71
19+085:10:07:11.531 $GPGGA,100711,5307.1945,S,06724.3123,W,1,09,0.8,23.4,M,12.5,M,,*75
19+085:10:07:11.531 $GPGSA,A,3,09,12,05,26,31,25,02,29,23,,,,1.4,0.8,1.2*3A
19+085:10:07:11.748 $GPGSV,3,1,10,44,04,251,00,09,00,167,36,12,23,055,47,05,23,090,47*7B
19+085:10:07:11.902 $GPGSV,3,2,10,26,21,240,43,31,45,270,50,25,59,044,47,02,25,130,43*74
19+085:10:07:11.902 $GPGSV,3,3,10,29,86,137,48,23,05,199,41*74
19+085:10:07:12.321 $GPRMC,100712,A,5307.1970,S,06724.3083,W,012.5,138.2,260319,010.7,E*7A
19+085:10:07:12.537 $GPGGA,100712,5307.1970,S,06724.3083,W,1,09,0.8,23.1,M,12.5,M,,*7E
19+085:10:07:12.537 $GPGSA,A,3,09,12,05,26,31,25,02,29,23,,,,1.4,0.8,1.2*3A
19+085:10:07:12.754 $GPGSV,3,1,10,46,04,251,00,09,00,167,36,12,23,055,47,05,23,090,47*79
19+085:10:07:12.908 $GPGSV,3,2,10,26,21,240,43,31,45,270,51,25,59,044,47,02,25,130,44*72
19+085:10:07:12.908 $GPGSV,3,3,10,29,86,137,48,23,05,199,41*74
19+085:10:07:13.328 $GPRMC,100713,A,5307.1994,S,06724.3049,W,012.5,139.5,260319,010.7,E*71
19+085:10:07:13.544 $GPGGA,100713,5307.1994,S,06724.3049,W,1,09,0.8,23.2,M,12.5,M,,*70
19+085:10:07:13.544 $GPGSA,A,3,09,12,05,26,31,25,02,29,23,,,,1.4,0.8,1.2*3A
19+085:10:07:13.760 $GPGSV,3,1,10,51,19,134,00,09,00,167,36,12,23,055,47,05,23,090,47*73
19+085:10:07:13.914 $GPGSV,3,2,10,26,21,240,43,31,45,270,51,25,59,044,47,02,25,130,44*72
19+085:10:07:13.914 $GPGSV,3,3,10,29,86,137,48,23,05,199,41*74
19+085:10:07:14.282 $GPRMC,100714,A,5307.2020,S,06724.3016,W,012.4,140.2,260319,010.7,E*71
19+085:10:07:14.499 $GPGGA,100714,5307.2020,S,06724.3016,W,1,09,0.8,23.2,M,12.5,M,,*78
19+085:10:07:14.499 $GPGSA,A,3,09,12,05,26,31,25,02,29,23,,,,1.4,0.8,1.2*3A
19+085:10:07:14.715 $GPGSV,3,1,10,51,19,134,00,09,00,167,37,12,23,055,47,05,23,090,47*72
19+085:10:07:14.870 $GPGSV,3,2,10,26,21,240,43,31,45,270,50,25,59,044,47,02,25,130,44*73
19+085:10:07:14.870 $GPGSV,3,3,10,29,86,137,48,23,05,199,41*74
19+085:10:07:15.289 $GPRMC,100715,A,5307.2046,S,06724.2978,W,012.2,139.8,260319,010.7,E*72
19+085:10:07:15.505 $GPGGA,100715,5307.2046,S,06724.2978,W,1,09,0.8,23.0,M,12.5,M,,*7B
19+085:10:07:15.505 $GPGSA,A,3,09,12,05,26,31,25,02,29,23,,,,1.4,0.8,1.2*3A
19+085:10:07:15.721 $GPGSV,3,1,10,44,04,251,00,09,00,167,37,12,23,055,47,05,23,090,46*7B
19+085:10:07:15.875 $GPGSV,3,2,10,26,21,240,43,31,45,270,50,25,59,044,47,02,25,130,44*73
19+085:10:07:15.875 $GPGSV,3,3,10,29,86,137,48,23,05,199,42*77
19+085:10:07:16.294 $GPRMC,100716,A,5307.2070,S,06724.2944,W,012.2,139.5,260319,010.7,E*76
19+085:10:07:16.510 $GPGGA,100716,5307.2070,S,06724.2944,W,1,09,0.8,22.9,M,12.5,M,,*7A
19+085:10:07:16.510 $GPGSA,A,3,09,12,05,26,31,25,02,29,23,,,,1.4,0.8,1.2*3A
19+085:10:07:16.727 $GPGSV,3,1,10,46,04,251,00,09,00,167,38,12,23,055,47,05,23,090,46*76
19+085:10:07:16.881 $GPGSV,3,2,10,26,21,240,43,31,45,270,50,25,59,044,47,02,25,130,44*73
19+085:10:07:16.881 $GPGSV,3,3,10,29,86,137,49,23,05,199,43*77
19+085:10:07:17.300 $GPRMC,100717,A,5307.2096,S,06724.2906,W,012.5,137.6,260319,010.7,E*73
19+085:10:07:17.517 $GPGGA,100717,5307.2096,S,06724.2906,W,1,09,0.8,22.5,M,12.5,M,,*79
19+085:10:07:17.517 $GPGSA,A,3,09,12,05,26,31,25,02,29,23,,,,1.4,0.8,1.2*3A
19+085:10:07:17.734 $GPGSV,3,1,10,51,19,134,00,09,00,167,38,12,23,055,46,05,23,090,46*7D
19+085:10:07:17.887 $GPGSV,3,2,10,26,21,240,43,31,45,270,50,25,59,044,47,02,25,130,43*74
19+085:10:07:17.887 $GPGSV,3,3,10,29,86,137,49,23,05,199,43*77
19+085:10:07:18.305 $GPRMC,100718,A,5307.2121,S,06724.2865,W,012.6,136.1,260319,010.7,E*70
19+085:10:07:18.522 $GPGGA,100718,5307.2121,S,06724.2865,W,1,09,0.8,22.7,M,12.5,M,,*7D
19+085:10:07:18.522 $GPGSA,A,3,09,12,05,26,31,25,02,29,23,,,,1.4,0.8,1.2*3A
19+085:10:07:18.740 $GPGSV,3,1,10,51,19,134,00,09,00,167,38,12,23,055,46,05,23,090,45*7E
19+085:10:07:18.892 $GPGSV,3,2,10,26,21,240,43,31,45,270,50,25,59,044,47,02,25,130,43*74
19+085:10:07:18.892 $GPGSV,3,3,10,29,86,137,49,23,05,199,43*77
19+085:10:07:19.312 $GPRMC,100719,A,5307.2146,S,06724.2824,W,012.5,134.4,260319,010.7,E*71
19+085:10:07:19.528 $GPGGA,100719,5307.2146,S,06724.2824,W,1,09,0.8,22.8,M,12.5,M,,*77
19+085:10:07:19.528 $GPGSA,A,3,09,12,05,26,31,25,02,29,23,,,,1.4,0.8,1.2*3A
19+085:10:07:19.745 $GPGSV,3,1,10,44,04,251,00,09,00,167,38,12,23,055,46,05,23,090,45*76
19+085:10:07:19.899 $GPGSV,3,2,10,26,21,240,43,31,45,270,50,25,59,044,47,02,25,130,44*73
19+085:10:07:19.899 $GPGSV,3,3,10,29,86,137,49,23,05,199,42*76
19+085:10:07:20.318 $GPRMC,100720,A,5307.2169,S,06724.2785,W,012.3,132.6,260319,010.7,E*70
19+085:10:07:20.534 $GPGGA,100720,5307.2169,S,06724.2785,W,1,09,0.8,22.7,M,12.5,M,,*7B
19+085:10:07:20.534 $GPGSA,A,3,09,12,05,26,31,25,02,29,23,,,,1.4,0.8,1.2*3A
19+085:10:07:20.751 $GPGSV,3,1,10,46,04,251,00,09,00,167,39,12,23,055,46,05,23,090,45*75
19+085:10:07:20.905 $GPGSV,3,2,10,26,21,240,43,31,45,270,50,25,59,044,47,02,25,130,44*73
19+085:10:07:20.905 $GPGSV,3,3,10,29,86,137,49,23,05,199,43*77
19+085:10:07:21.323 $GPRMC,100721,A,5307.2193,S,06724.2743,W,012.2,131.7,260319,010.7,E*7D
19+085:10:07:21.540 $GPGGA,100721,5307.2193,S,06724.2743,W,1,09,0.8,22.7,M,12.5,M,,*75
19+085:10:07:21.540 $GPGSA,A,3,09,12,05,26,31,25,02,29,23,,,,1.4,0.8,1.2*3A
19+085:10:07:21.757 $GPGSV,3,1,10,51,19,134,00,09,00,167,39,12,23,055,47,05,23,090,45*7E
19+085:10:07:21.910 $GPGSV,3,2,10,26,21,240,44,31,45,270,50,25,59,044,47,02,25,130,44*74
19+085:10:07:21.910 $GPGSV,3,3,10,29,86,137,49,23,05,199,43*77
19+085:10:07:22.286 $GPRMC,100722,A,5307.2216,S,06724.2699,W,012.4,132.3,260319,010.7,E*77
19+085:10:07:22.502 $GPGGA,100722,5307.2216,S,06724.2699,W,1,09,0.8,23.0,M,12.5,M,,*78
19+085:10:07:22.502 $GPGSA,A,3,09,12,05,26,31,25,02,29,23,,,,1.4,0.8,1.2*3A
19+085:10:07:22.719 $GPGSV,3,1,10,51,19,134,00,09,00,167,39,12,23,055,47,05,23,090,44*7F
19+085:10:07:22.872 $GPGSV,3,2,10,26,21,240,44,31,45,270,50,25,59,044,47,02,25,130,44*74
19+085:10:07:22.872 $GPGSV,3,3,10,29,86,137,49,23,05,199,43*77
19+085:10:07:23.291 $GPRMC,100723,A,5307.2239,S,06724.2654,W,012.6,133.4,260319,010.7,E*7E
19+085:10:07:23.508 $GPGGA,100723,5307.2239,S,06724.2654,W,1,09,0.8,22.8,M,12.5,M,,*7C
19+085:10:07:23.508 $GPGSA,A,3,09,12,05,26,31,25,02,29,23,,,,1.4,0.8,1.2*3A
19+085:10:07:23.724 $GPGSV,3,1,10,44,04,251,00,09,00,167,38,12,23,055,47,05,23,090,45*77
19+085:10:07:23.878 $GPGSV,3,2,10,26,21,240,43,31,45,270,50,25,59,044,47,02,25,130,44*73
19+085:10:07:23.878 $GPGSV,3,3,10,29,86,137,49,23,05,199,43*77
19+085:10:07:24.297 $GPRMC,100724,A,5307.2263,S,06724.2612,W,012.6,134.2,260319,010.7,E*75
19+085:10:07:24.513 $GPGGA,100724,5307.2263,S,06724.2612,W,1,09,0.8,22.6,M,12.5,M,,*78
19+085:10:07:24.513 $GPGSA,A,3,09,12,05,26,31,25,02,29,23,,,,1.4,0.8,1.2*3A
19+085:10:07:24.730 $GPGSV,3,1,10,46,04,251,00,09,00,167,38,12,23,055,47,05,23,090,45*75
19+085:10:07:24.884 $GPGSV,3,2,10,26,21,240,43,31,45,270,51,25,59,044,47,02,25,130,44*72
19+085:10:07:24.884 $GPGSV,3,3,10,29,86,137,48,23,05,199,43*76
19+085:10:07:25.303 $GPRMC,100725,A,5307.2288,S,06724.2567,W,012.2,135.3,260319,010.7,E*74
19+085:10:07:25.520 $GPGGA,100725,5307.2288,S,06724.2567,W,1,09,0.8,22.6,M,12.5,M,,*7D
19+085:10:07:25.520 $GPGSA,A,3,09,12,05,26,31,25,02,29,23,,,,1.4,0.8,1.2*3A
19+085:10:07:25.737 $GPGSV,3,1,10,51,19,134,00,09,00,167,38,12,23,055,47,05,23,090,45*7F
19+085:10:07:25.890 $GPGSV,3,2,10,26,21,240,43,31,45,270,51,25,59,044,46,02,25,130,44*73
19+085:10:07:25.890 $GPGSV,3,3,10,29,86,137,48,23,05,199,42*77
19+085:10:07:26.309 $GPRMC,100726,A,5307.2313,S,06724.2528,W,012.0,137.0,260319,010.7,E*7C
19+085:10:07:26.525 $GPGGA,100726,5307.2313,S,06724.2528,W,1,09,0.8,22.9,M,12.5,M,,*79
19+085:10:07:26.525 $GPGSA,A,3,09,12,05,26,31,25,02,29,23,,,,1.4,0.8,1.2*3A
19+085:10:07:26.742 $GPGSV,3,1,10,51,19,134,00,09,00,167,38,12,23,055,47,05,23,090,46*7C
19+085:10:07:26.896 $GPGSV,3,2,10,26,21,240,43,31,45,270,51,25,59,044,46,02,25,130,44*73
19+085:10:07:26.896 $GPGSV,3,3,10,29,86,137,48,23,05,199,41*74
19+085:10:07:27.316 $GPRMC,100727,A,5307.2338,S,06724.2492,W,012.3,139.1,260319,010.7,E*78
19+085:10:07:27.532 $GPGGA,100727,5307.2338,S,06724.2492,W,1,09,0.8,23.1,M,12.5,M,,*78
19+085:10:07:27.532 $GPGSA,A,3,09,12,05,26,31,25,02,29,23,,,,1.4,0.8,1.2*3A
19+085:10:07:27.749 $GPGSV,3,1,10,44,04,251,00,09,00,167,38,12,23,055,47,05,23,090,46*74
19+085:10:07:27.903 $GPGSV,3,2,10,26,21,240,43,31,45,270,51,25,59,044,47,02,25,130,44*72
19+085:10:07:27.903 $GPGSV,3,3,10,29,86,137,48,23,05,199,41*74
19+085:10:07:28.322 $GPRMC,100728,A,5307.2365,S,06724.2457,W,012.7,139.9,260319,010.7,E*7A
19+085:10:07:28.539 $GPGGA,100728,5307.2365,S,06724.2457,W,1,09,0.8,23.6,M,12.5,M,,*71
19+085:10:07:28.539 $GPGSA,A,3,09,12,05,26,31,25,02,29,23,,,,1.4,0.8,1.2*3A
19+085:10:07:28.754 $GPGSV,3,1,10,46,04,251,00,09,00,167,38,12,23,055,47,05,23,090,46*76
19+085:10:07:28.908 $GPGSV,3,2,10,26,21,240,43,31,45,270,51,25,59,044,46,02,25,130,45*72
19+085:10:07:28.908 $GPGSV,3,3,10,29,86,137,48,23,05,199,41*74
19+085:10:07:29.327 $GPRMC,100729,A,5307.2393,S,06724.2417,W,012.6,139.9,260319,010.7,E*77
19+085:10:07:29.544 $GPGGA,100729,5307.2393,S,06724.2417,W,1,09,0.8,23.8,M,12.5,M,,*73
19+085:10:07:29.544 $GPGSA,A,3,09,12,05,26,31,25,02,29,23,,,,1.4,0.8,1.2*3A
19+085:10:07:29.760 $GPGSV,3,1,10,51,19,134,00,09,00,167,38,12,23,055,48,05,23,090,45*70
19+085:10:07:29.914 $GPGSV,3,2,10,26,21,240,43,31,45,270,51,25,59,044,46,02,25,130,44*73
19+085:10:07:29.914 $GPGSV,3,3,10,29,86,137,48,23,05,199,41*74
19+085:10:07:30.283 $GPRMC,100730,A,5307.2418,S,06724.2377,W,012.3,139.5,260319,010.7,E*73
19+085:10:07:30.500 $GPGGA,100730,5307.2418,S,06724.2377,W,1,09,0.8,23.6,M,12.5,M,,*70
19+085:10:07:30.500 $GPGSA,A,3,09,12,05,26,31,25,02,29,23,,,,1.4,0.8,1.2*3A
19+085:10:07:30.717 $GPGSV,3,1,10,51,19,134,00,09,00,167,39,12,23,055,47,05,23,090,45*7E
19+085:10:07:30.870 $GPGSV,3,2,10,26,21,240,43,31,45,270,51,25,59,044,46,02,25,130,45*72
19+085:10:07:30.870 $GPGSV,3,3,10,29,86,137,48,23,05,199,42*77
19+085:10:07:31.290 $GPRMC,100731,A,5307.2441,S,06724.2341,W,012.1,137.4,260319,010.7,E*76
19+085:10:07:31.506 $GPGGA,100731,5307.2441,S,06724.2341,W,1,09,0.8,23.1,M,12.5,M,,*7F
19+085:10:07:31.506 $GPGSA,A,3,09,12,05,26,31,25,02,29,23,,,,1.4,0.8,1.2*3A
19+085:10:07:31.722 $GPGSV,3,1,10,44,04,251,00,09,00,167,39,12,23,055,48,05,23,090,44*78
19+085:10:07:31.876 $GPGSV,3,2,10,26,21,240,43,31,45,270,51,25,59,044,46,02,25,130,45*72
19+085:10:07:31.876 $GPGSV,3,3,10,29,86,137,49,23,05,199,42*76
19+085:10:07:32.295 $GPRMC,100732,A,5307.2464,S,06724.2304,W,012.3,135.8,260319,010.7,E*7F
19+085:10:07:32.511 $GPGGA,100732,5307.2464,S,06724.2304,W,1,09,0.8,22.8,M,12.5,M,,*72
19+085:10:07:32.511 $GPGSA,A,3,09,12,05,26,31,25,02,29,23,,,,1.4,0.8,1.2*3A
19+085:10:07:32.728 $GPGSV,3,1,10,46,04,251,00,09,00,167,39,12,23,055,47,05,23,090,44*75
19+085:10:07:32.882 $GPGSV,3,2,10,26,21,240,43,31,45,270,51,25,59,044,46,02,25,130,45*72
19+085:10:07:32.882 $GPGSV,3,3,10,29,86,137,49,23,05,199,42*76
19+085:10:07:33.301 $GPRMC,100733,A,5307.2487,S,06724.2262,W,012.5,134.1,260319,010.7,E*7C
19+085:10:07:33.518 $GPGGA,100733,5307.2487,S,06724.2262,W,1,09,0.8,22.4,M,12.5,M,,*73
19+085:10:07:33.518 $GPGSA,A,3,09,12,05,26,31,25,02,29,23,,,,1.4,0.8,1.2*3A
19+085:10:07:33.734 $GPGSV,3,1,10,51,19,134,00,09,00,167,40,12,23,055,47,05,23,090,44*71
19+085:10:07:33.888 $GPGSV,3,2,10,26,21,240,43,31,45,270,51,25,59,044,46,02,25,130,45*72
19+085:10:07:33.888 $GPGSV,3,3,10,29,86,137,50,23,05,199,42*7E
19+085:10:07:34.307 $GPRMC,100734,A,5307.2511,S,06724.2224,W,012.7,133.4,260319,010.7,E*77
19+085:10:07:34.523 $GPGGA,100734,5307.2511,S,06724.2224,W,1,09,0.8,22.3,M,12.5,M,,*7F
19+085:10:07:34.523 $GPGSA,A,3,09,12,05,26,31,25,02,29,23,,,,1.4,0.8,1.2*3A
19+085:10:07:34.740 $GPGSV,3,1,10,51,19,134,00,09,00,167,40,12,23,055,47,05,23,090,44*71
19+085:10:07:34.894 $GPGSV,3,2,10,26,21,240,43,31,45,270,50,25,59,044,47,02,25,130,45*72
19+085:10:07:34.895 $GPGSV,3,3,10,29,86,137,50,23,05,199,42*7E
19+085:10:07:35.313 $GPRMC,100735,A,5307.2535,S,06724.2182,W,012.6,132.6,260319,010.7,E*7D
19+085:10:07:35.530 $GPGGA,100735,5307.2535,S,06724.2182,W,1,09,0.8,22.3,M,12.5,M,,*77
19+085:10:07:35.530 $GPGSA,A,3,09,12,05,26,31,25,02,29,23,,,,1.4,0.8,1.2*3A
19+085:10:07:35.746 $GPGSV,3,1,10,44,04,251,00,09,00,167,40,12,23,055,47,05,23,090,44*79
19+085:10:07:35.900 $GPGSV,3,2,10,26,21,240,43,31,45,270,50,25,59,044,47,02,25,130,45*72
19+085:10:07:35.900 $GPGSV,3,3,10,29,86,137,49,23,05,199,42*76
19+085:10:07:36.319 $GPRMC,100736,A,5307.2560,S,06724.2139,W,012.2,133.5,260319,010.7,E*78
19+085:10:07:36.536 $GPGGA,100736,5307.2560,S,06724.2139,W,1,09,0.8,22.9,M,12.5,M,,*7E
19+085:10:07:36.536 $GPGSA,A,3,09,12,05,26,31,25,02,29,23,,,,1.4,0.8,1.2*3A
19+085:10:07:36.753 $GPGSV,3,1,10,46,04,251,00,09,00,167,40,12,23,055,47,05,23,090,45*7A
19+085:10:07:36.907 $GPGSV,3,2,10,26,21,240,43,31,45,270,50,25,59,044,47,02,25,130,45*72
19+085:10:07:36.907 $GPGSV,3,3,10,29,86,137,49,23,05,199,42*76
19+085:10:07:37.326 $GPRMC,100737,A,5307.2584,S,06724.2100,W,012.3,133.9,260319,010.7,E*74
19+085:10:07:37.543 $GPGGA,100737,5307.2584,S,06724.2100,W,1,09,0.8,23.1,M,12.5,M,,*76
19+085:10:07:37.543 $GPGSA,A,3,09,12,05,26,31,25,02,29,23,,,,1.4,0.8,1.2*3A
19+085:10:07:37.760 $GPGSV,3,1,10,51,19,134,00,09,00,167,40,12,23,055,47,05,23,090,45*70
19+085:10:07:37.912 $GPGSV,3,2,10,26,21,240,43,31,45,270,50,25,59,044,46,02,25,130,45*73
19+085:10:07:37.913 $GPGSV,3,3,10,29,86,137,48,23,05,199,42*77
19+085:10:07:38.280 $GPRMC,100738,A,5307.2608,S,06724.2058,W,012.6,134.0,260319,010.7,E*7B
19+085:10:07:38.496 $GPGGA,100738,5307.2608,S,06724.2058,W,1,09,0.8,23.2,M,12.5,M,,*71
19+085:10:07:38.496 $GPGSA,A,3,09,12,05,26,31,25,02,29,23,,,,1.4,0.8,1.2*3A
19+085:10:07:38.713 $GPGSV,3,1,10,51,19,134,00,09,00,167,40,12,23,055,47,05,23,090,45*70
19+085:10:07:38.867 $GPGSV,3,2,10,26,21,240,43,31,45,270,50,25,59,044,46,02,25,130,45*73
19+085:10:07:38.867 $GPGSV,3,3,10,29,86,137,48,23,05,199,42*77
19+085:10:07:39.285 $GPRMC,100739,A,5307.2633,S,06724.2013,W,012.5,134.5,260319,010.7,E*7B
19+085:10:07:39.502 $GPGGA,100739,5307.2633,S,06724.2013,W,1,09,0.8,23.3,M,12.5,M,,*76
19+085:10:07:39.502 $GPGSA,A,3,09,12,05,26,31,25,02,29,23,,,,1.4,0.8,1.2*3A
19+085:10:07:39.719 $GPGSV,3,1,10,44,04,251,00,09,00,167,40,12,23,055,47,05,23,090,45*78
19+085:10:07:39.872 $GPGSV,3,2,10,26,21,240,43,31,45,270,50,25,59,044,46,02,25,130,44*72
19+085:10:07:39.872 $GPGSV,3,3,10,29,86,137,48,23,05,199,42*77
19+085:10:07:40.292 $GPRMC,100740,A,5307.2658,S,06724.1974,W,012.4,134.9,260319,010.7,E*7E
19+085:10:07:40.508 $GPGGA,100740,5307.2658,S,06724.1974,W,1,09,0.8,23.8,M,12.5,M,,*75
19+085:10:07:40.508 $GPGSA,A,3,09,12,05,26,31,25,02,29,23,,,,1.4,0.8,1.2*3A
19+085:10:07:40.724 $GPGSV,3,1,10,46,04,251,00,09,00,167,40,12,23,055,47,05,23,090,46*79
19+085:10:07:40.878 $GPGSV,3,2,10,26,21,240,44,31,45,270,50,25,59,044,46,02,25,130,44*75
19+085:10:07:40.878 $GPGSV,3,3,10,29,86,137,47,23,05,199,41*7B
19+085:10:07:41.297 $GPRMC,100741,A,5307.2683,S,06724.1933,W,012.4,136.0,260319,010.7,E*71
19+085:10:07:41.514 $GPGGA,100741,5307.2683,S,06724.1933,W,1,09,0.8,24.0,M,12.5,M,,*7E
19+085:10:07:41.514 $GPGSA,A,3,09,12,05,26,31,25,02,29,23,,,,1.4,0.8,1.2*3A
19+085:10:07:41.730 $GPGSV,3,1,10,51,19,134,00,09,00,167,39,12,23,055,47,05,23,090,46*7D
19+085:10:07:41.884 $GPGSV,3,2,10,26,21,240,44,31,45,270,50,25,59,044,46,02,25,130,44*75
19+085:10:07:41.884 $GPGSV,3,3,10,29,86,137,47,23,05,199,41*7B
19+085:10:07:42.303 $GPRMC,100742,A,5307.2707,S,06724.1893,W,012.5,137.3,260319,010.7,E*77
19+085:10:07:42.520 $GPGGA,100742,5307.2707,S,06724.1893,W,1,09,0.8,24.6,M,12.5,M,,*7D
19+085:10:07:42.520 $GPGSA,A,3,09,12,05,26,31,25,02,29,23,,,,1.4,0.8,1.2*3A
19+085:10:07:42.736 $GPGSV,3,1,10,51,19,134,00,09,00,167,39,12,23,055,47,05,23,090,46*7D
19+085:10:07:42.891 $GPGSV,3,2,10,26,21,240,44,31,45,270,50,25,59,044,46,02,25,130,45*74
19+085:10:07:42.891 $GPGSV,3,3,10,29,86,137,47,23,05,199,41*7B
19+085:10:07:43.309 $GPRMC,100743,A,5307.2733,S,06724.1855,W,012.4,138.1,260319,010.7,E*77
19+085:10:07:43.525 $GPGGA,100743,5307.2733,S,06724.1855,W,1,09,0.8,24.6,M,12.5,M,,*71
19+085:10:07:43.525 $GPGSA,A,3,09,12,05,26,31,25,02,29,23,,,,1.4,0.8,1.2*3A
19+085:10:07:43.742 $GPGSV,3,1,10,44,04,251,00,09,00,167,39,12,23,055,47,05,23,090,46*75
19+085:10:07:43.895 $GPGSV,3,2,10,26,21,240,43,31,45,270,50,25,59,044,46,02,25,130,45*73
19+085:10:07:43.896 $GPGSV,3,3,10,29,86,137,47,23,05,200,41*78
19+085:10:07:44.315 $GPRMC,100744,A,5307.2758,S,06724.1821,W,012.3,139.3,260319,010.7,E*7A
19+085:10:07:44.531 $GPGGA,100744,5307.2758,S,06724.1821,W,1,09,0.8,25.0,M,12.5,M,,*7F
19+085:10:07:44.531 $GPGSA,A,3,09,12,05,26,31,25,02,29,23,,,,1.4,0.8,1.2*3A
19+085:10:07:44.748 $GPGSV,3,1,10,46,04,251,00,09,00,167,39,12,23,055,48,05,23,090,46*78
19+085:10:07:44.901 $GPGSV,3,2,10,26,21,240,43,31,45,270,50,25,59,044,46,02,25,130,45*73
19+085:10:07:44.901 $GPGSV,3,3,10,29,86,137,47,23,05,200,41*78
19+085:10:07:45.321 $GPRMC,100745,A,5307.2783,S,06724.1785,W,012.4,138.9,260319,010.7,E*70
19+085:10:07:45.538 $GPGGA,100745,5307.2783,S,06724.1785,W,1,09,0.8,25.0,M,12.5,M,,*79
19+085:10:07:45.538 $GPGSA,A,3,09,12,05,26,31,25,02,29,23,,,,1.4,0.8,1.2*3A
19+085:10:07:45.754 $GPGSV,3,1,10,51,19,134,00,09,00,167,40,12,23,055,47,05,23,090,45*70
19+085:10:07:45.908 $GPGSV,3,2,10,26,21,240,43,31,45,270,50,25,59,044,46,02,25,130,45*73
19+085:10:07:45.908 $GPGSV,3,3,10,29,86,137,47,23,05,200,41*78
19+085:10:07:46.327 $GPRMC,100746,A,5307.2808,S,06724.1746,W,012.6,136.8,260319,010.7,E*7D
19+085:10:07:46.543 $GPGGA,100746,5307.2808,S,06724.1746,W,1,09,0.8,24.8,M,12.5,M,,*70
19+085:10:07:46.543 $GPGSA,A,3,09,12,05,26,31,25,02,29,23,,,,1.4,0.8,1.2*3A
19+085:10:07:46.760 $GPGSV,3,1,10,51,19,134,00,09,00,167,40,12,23,055,47,05,23,090,45*70
19+085:10:07:46.914 $GPGSV,3,2,10,26,21,240,43,31,45,270,49,25,59,044,46,02,25,130,44*7A
19+085:10:07:46.914 $GPGSV,3,3,10,29,86,137,48,23,05,200,41*77
19+085:10:07:47.292 $GPRMC,100747,A,5307.2834,S,06724.1705,W,012.7,134.3,260319,010.7,E*7C
19+085:10:07:47.507 $GPGGA,100747,5307.2834,S,06724.1705,W,1,09,0.8,24.5,M,12.5,M,,*74
19+085:10:07:47.507 $GPGSA,A,3,09,12,05,26,31,25,02,29,23,,,,1.4,0.8,1.2*3A
19+085:10:07:47.724 $GPGSV,3,1,10,44,04,251,00,09,00,167,41,12,23,055,48,05,23,090,44*77
19+085:10:07:47.879 $GPGSV,3,2,10,26,21,240,42,31,45,270,49,25,59,043,46,02,25,130,44*7C
19+085:10:07:47.879 $GPGSV,3,3,10,29,86,137,48,23,05,200,40*76
19+085:10:07:48.297 $GPRMC,100748,A,5307.2858,S,06724.1667,W,012.4,133.1,260319,010.7,E*7A
19+085:10:07:48.514 $GPGGA,100748,5307.2858,S,06724.1667,W,1,09,0.8,24.1,M,12.5,M,,*70
19+085:10:07:48.514 $GPGSA,A,3,09,12,05,26,31,25,02,29,23,,,,1.4,0.8,1.2*3A
19+085:10:07:48.730 $GPGSV,3,1,10,46,04,251,00,09,00,167,41,12,23,055,47,05,23,090,44*7A
19+085:10:07:48.883 $GPGSV,3,2,10,26,21,240,42,31,45,270,49,25,59,043,47,02,25,130,44*7D
19+085:10:07:48.883 $GPGSV,3,3,10,29,86,137,48,23,05,200,40*76
19+085:10:07:49.302 $GPRMC,100749,A,5307.2882,S,06724.1624,W,012.1,132.6,260319,010.7,E*78
19+085:10:07:49.519 $GPGGA,100749,5307.2882,S,06724.1624,W,1,09,0.8,23.7,M,12.5,M,,*70
19+085:10:07:49.519 $GPGSA,A,3,09,12,05,26,31,25,02,29,23,,,,1.4,0.8,1.2*3A
19+085:10:07:49.736 $GPGSV,3,1,10,51,19,134,00,09,00,167,41,12,23,055,48,05,23,090,44*7F
19+085:10:07:49.889 $GPGSV,3,2,10,26,21,240,43,31,45,270,49,25,59,043,47,02,25,130,44*7C
19+085:10:07:49.889 $GPGSV,3,3,10,29,86,137,48,23,05,200,40*76
19+085:10:07:50.308 $GPRMC,100750,A,5307.2905,S,06724.1581,W,012.2,132.6,260319,010.7,E*71
19+085:10:07:50.525 $GPGGA,100750,5307.2905,S,06724.1581,W,1,09,0.8,23.5,M,12.5,M,,*78
19+085:10:07:50.525 $GPGSA,A,3,09,12,05,26,31,25,02,29,23,,,,1.4,0.8,1.2*3A
19+085:10:07:50.742 $GPGSV,3,1,10,51,19,134,00,09,00,167,41,12,23,055,48,05,23,090,44*7F
19+085:10:07:50.894 $GPGSV,3,2,10,26,21,240,42,31,45,270,49,25,59,043,47,02,25,130,44*7D
19+085:10:07:50.894 $GPGSV,3,3,10,29,86,137,48,23,05,200,41*77
19+085:10:07:51.314 $GPRMC,100751,A,5307.2928,S,06724.1541,W,012.5,133.1,260319,010.7,E*72
19+085:10:07:51.531 $GPGGA,100751,5307.2928,S,06724.1541,W,1,09,0.8,23.8,M,12.5,M,,*77
19+085:10:07:51.531 $GPGSA,A,3,09,12,05,26,31,25,02,29,23,,,,1.4,0.8,1.2*3A
19+085:10:07:51.748 $GPGSV,3,1,10,44,04,251,00,09,00,167,41,12,23,055,48,05,23,090,45*76
19+085:10:07:51.900 $GPGSV,3,2,10,26,21,240,43,31,45,270,49,25,59,043,47,02,25,130,44*7C
19+085:10:07:51.900 $GPGSV,3,3,10,29,86,137,48,23,05,200,41*77
19+085:10:07:52.320 $GPRMC,100752,A,5307.2951,S,06724.1498,W,012.5,133.3,260319,010.7,E*78
19+085:10:07:52.537 $GPGGA,100752,5307.2951,S,06724.1498,W,1,09,0.8,24.0,M,12.5,M,,*70
19+085:10:07:52.537 $GPGSA,A,3,09,12,05,26,31,25,02,29,23,,,,1.4,0.8,1.2*3A
19+085:10:07:52.753 $GPGSV,3,1,10,46,04,251,00,09,00,167,41,12,23,055,48,05,23,090,45*74
19+085:10:07:52.906 $GPGSV,3,2,10,26,21,240,43,31,45,270,49,25,59,043,47,02,25,130,44*7C
19+085:10:07:52.906 $GPGSV,3,3,10,29,86,137,47,23,05,200,41*78
19+085:10:07:53.325 $GPRMC,100753,A,5307.2975,S,06724.1458,W,012.3,134.0,260319,010.7,E*71
19+085:10:07:53.543 $GPGGA,100753,5307.2975,S,06724.1458,W,1,09,0.8,23.9,M,12.5,M,,*75
19+085:10:07:53.543 $GPGSA,A,3,09,12,05,26,31,25,02,29,23,,,,1.4,0.8,1.2*3A
19+085:10:07:53.759 $GPGSV,3,1,10,51,19,134,00,09,00,167,41,12,23,055,48,05,23,090,45*7E
19+085:10:07:53.913 $GPGSV,3,2,10,26,21,240,43,31,45,270,49,25,59,043,47,02,25,130,44*7C
19+085:10:07:53.913 $GPGSV,3,3,10,29,86,137,47,23,05,200,40*79
19+085:10:07:54.281 $GPRMC,100754,A,5307.2997,S,06724.1417,W,012.2,135.9,260319,010.7,E*78
19+085:10:07:54.498 $GPGGA,100754,5307.2997,S,06724.1417,W,1,09,0.8,23.9,M,12.5,M,,*75
19+085:10:07:54.498 $GPGSA,A,3,09,12,05,26,31,25,02,29,23,,,,1.4,0.8,1.2*3A
19+085:10:07:54.715 $GPGSV,3,1,10,51,19,134,00,09,00,167,41,12,23,055,48,05,23,090,45*7E
19+085:10:07:54.868 $GPGSV,3,2,10,26,21,240,43,31,45,270,49,25,59,043,47,02,25,130,44*7C
19+085:10:07:54.869 $GPGSV,3,3,10,29,86,137,47,23,05,200,39*77
19+085:10:07:55.287 $GPRMC,100755,A,5307.3020,S,06724.1377,W,012.5,136.3,260319,010.7,E*72
19+085:10:07:55.504 $GPGGA,100755,5307.3020,S,06724.1377,W,1,09,0.8,24.0,M,12.5,M,,*7F
