2018-12-06T00:00:00.0730Z $GNZDA,000000.00,06,12,2018,00,00*76
2018-12-06T00:00:00.1493Z $GNRMC,000000.00,A,4812.029415,N,12307.402578,W,8.69,94.4,061218,,,D*5A
2018-12-06T00:00:00.1879Z $GNVTG,94.4,T,,M,8.69,N,16.09,K,D*16
2018-12-06T00:00:00.2309Z $PNCTR,NAVQ,000000.00,3D,C2-SF2,DUAL*41
2018-12-06T00:00:00.2698Z $GNZDA,000000.00,05,12,2018,00,00*75
2018-12-06T00:00:00.3448Z $GNGST,000000.00,0.1156,0.0391,0.0346,20.5345,0.0386,0.0352,0.0748*47
2018-12-06T00:00:00.3835Z $GNZDA,000000.00,06,12,2018,00,00*76
2018-12-06T00:00:00.4194Z $PNCTR,RXQ,000000,Y,15.13,7,0*76
2018-12-06T00:00:01.0724Z $GNZDA,000001.00,06,12,2018,00,00*77
2018-12-06T00:00:01.1487Z $GNRMC,000001.00,A,4812.029220,N,12307.398972,W,8.71,94.7,061218,,,D*53
2018-12-06T00:00:01.1875Z $GNVTG,94.7,T,,M,8.71,N,16.13,K,D*17
2018-12-06T00:00:01.2306Z $PNCTR,NAVQ,000001.00,3D,C2-SF2,DUAL*40
2018-12-06T00:00:01.3195Z $GNGGA,000001.00,4812.029220,N,12307.398972,W,2,14,0.7,11.062,M,0.000,M,4.0,0136*47
2018-12-06T00:00:01.3932Z $GNGST,000001.00,0.1431,0.0391,0.0346,20.5044,0.0386,0.0352,0.0748*40
2018-12-06T00:00:01.4274Z $PNCTR,RXQ,000001,Y,15.23,7,0*74
2018-12-06T00:00:02.0729Z $GNZDA,000002.00,06,12,2018,00,00*74
2018-12-06T00:00:02.1478Z $GNRMC,000002.00,A,4812.029033,N,12307.395377,W,8.68,94.4,061218,,,D*59
2018-12-06T00:00:02.1878Z $GNVTG,94.4,T,,M,8.68,N,16.08,K,D*16
2018-12-06T00:00:02.2308Z $PNCTR,NAVQ,000002.00,3D,C2-SF2,DUAL*43
2018-12-06T00:00:02.3184Z $GNGGA,000002.00,4812.029033,N,12307.395377,W,2,14,0.7,11.059,M,0.000,M,5.0,0136*4F
2018-12-06T00:00:02.3932Z $GNGST,000002.00,0.1356,0.0391,0.0346,20.4803,0.0386,0.0352,0.0748*4F
2018-12-06T00:00:02.4277Z $PNCTR,RXQ,000002,Y,15.14,7,0*73
2018-12-06T00:00:03.0730Z $GNZDA,000003.00,06,12,2018,00,00*75
2018-12-06T00:00:03.1480Z $GNRMC,000003.00,A,4812.028854,N,12307.391787,W,8.67,94.2,061218,,,D*56
2018-12-06T00:00:03.1880Z $GNVTG,94.2,T,,M,8.67,N,16.05,K,D*12
2018-12-06T00:00:03.2310Z $PNCTR,NAVQ,000003.00,3D,C2-SF2,DUAL*42
2018-12-06T00:00:03.3187Z $GNGGA,000003.00,4812.028854,N,12307.391787,W,2,14,0.7,11.052,M,0.000,M,6.0,0136*41
2018-12-06T00:00:03.3934Z $GNGST,000003.00,0.1214,0.0391,0.0346,20.4573,0.0386,0.0352,0.0748*43
2018-12-06T00:00:03.4279Z $PNCTR,RXQ,000003,Y,15.13,7,0*75
2018-12-06T00:00:04.0719Z $GNZDA,000004.00,06,12,2018,00,00*72
2018-12-06T00:00:04.1482Z $GNRMC,000004.00,A,4812.028680,N,12307.388197,W,8.67,94.2,061218,,,D*59
2018-12-06T00:00:04.1884Z $GNVTG,94.2,T,,M,8.67,N,16.06,K,D*11
2018-12-06T00:00:04.2300Z $PNCTR,NAVQ,000004.00,3D,C2-SF2,DUAL*45
2018-12-06T00:00:04.3189Z $GNGGA,000004.00,4812.028680,N,12307.388197,W,2,14,0.7,11.045,M,0.000,M,4.0,0136*4A
2018-12-06T00:00:04.3922Z $GNGST,000004.00,0.1045,0.0391,0.0346,20.4367,0.0386,0.0352,0.0748*41
2018-12-06T00:00:04.4285Z $PNCTR,RXQ,000004,Y,15.18,7,0*79
2018-12-06T00:00:05.0728Z $GNZDA,000005.00,06,12,2018,00,00*73
2018-12-06T00:00:05.1490Z $GNRMC,000005.00,A,4812.028518,N,12307.384614,W,8.65,93.9,061218,,,D*54
2018-12-06T00:00:05.1878Z $GNVTG,93.9,T,,M,8.65,N,16.03,K,D*1A
2018-12-06T00:00:05.2307Z $PNCTR,NAVQ,000005.00,3D,C2-SF2,DUAL*44
2018-12-06T00:00:05.3195Z $GNGGA,000005.00,4812.028518,N,12307.384614,W,2,14,0.7,11.044,M,0.000,M,4.0,0136*48
2018-12-06T00:00:05.3931Z $GNGST,000005.00,0.1143,0.0391,0.0346,20.4064,0.0386,0.0352,0.0748*47
2018-12-06T00:00:05.4277Z $PNCTR,RXQ,000005,Y,15.04,7,0*75
2018-12-06T00:00:06.0730Z $GNZDA,000006.00,06,12,2018,00,00*70
2018-12-06T00:00:06.1493Z $GNRMC,000006.00,A,4812.028357,N,12307.381029,W,8.65,93.8,061218,,,D*56
2018-12-06T00:00:06.1880Z $GNVTG,93.8,T,,M,8.65,N,16.03,K,D*1B
2018-12-06T00:00:06.2310Z $PNCTR,NAVQ,000006.00,3D,C2-SF2,DUAL*47
2018-12-06T00:00:06.3199Z $GNGGA,000006.00,4812.028357,N,12307.381029,W,2,14,0.7,11.044,M,0.000,M,5.0,0136*4A
2018-12-06T00:00:06.3933Z $GNGST,000006.00,0.1172,0.0391,0.0346,20.3822,0.0386,0.0352,0.0748*4B
2018-12-06T00:00:06.4279Z $PNCTR,RXQ,000006,Y,15.03,7,0*71
2018-12-06T00:00:07.0733Z $GNZDA,000007.00,06,12,2018,00,00*71
2018-12-06T00:00:07.1483Z $GNRMC,000007.00,A,4812.028191,N,12307.377436,W,8.67,93.9,061218,,,D*5F
2018-12-06T00:00:07.1883Z $GNVTG,93.9,T,,M,8.67,N,16.06,K,D*1D
2018-12-06T00:00:07.2303Z $PNCTR,NAVQ,000007.00,3D,C2-SF2,DUAL*46
2018-12-06T00:00:07.3192Z $GNGGA,000007.00,4812.028191,N,12307.377436,W,2,14,0.7,11.044,M,0.000,M,6.0,0136*43
2018-12-06T00:00:07.3930Z $GNGST,000007.00,0.1150,0.0391,0.0346,20.3590,0.0386,0.0352,0.0748*4E
2018-12-06T00:00:07.4285Z $PNCTR,RXQ,000007,Y,14.99,7,0*72
2018-12-06T00:00:08.0729Z $GNZDA,000008.00,06,12,2018,00,00*7E
2018-12-06T00:00:08.1492Z $GNRMC,000008.00,A,4812.028029,N,12307.373856,W,8.65,93.9,061218,,,D*5E
2018-12-06T00:00:08.1877Z $GNVTG,93.9,T,,M,8.65,N,16.02,K,D*1B
2018-12-06T00:00:08.2307Z $PNCTR,NAVQ,000008.00,3D,C2-SF2,DUAL*49
2018-12-06T00:00:08.3197Z $GNGGA,000008.00,4812.028029,N,12307.373856,W,2,14,0.7,11.039,M,0.000,M,4.0,0136*48
2018-12-06T00:00:08.3932Z $GNGST,000008.00,0.1141,0.0391,0.0346,20.3383,0.0386,0.0352,0.0748*45
2018-12-06T00:00:08.4276Z $PNCTR,RXQ,000008,Y,14.82,7,0*77
2018-12-06T00:00:09.0732Z $GNZDA,000009.00,06,12,2018,00,00*7F
2018-12-06T00:00:09.1481Z $GNRMC,000009.00,A,4812.027866,N,12307.370278,W,8.63,93.9,061218,,,D*50
2018-12-06T00:00:09.1884Z $GNVTG,93.9,T,,M,8.63,N,15.98,K,D*1D
2018-12-06T00:00:09.2305Z $PNCTR,NAVQ,000009.00,3D,C2-SF2,DUAL*48
2018-12-06T00:00:09.3193Z $GNGGA,000009.00,4812.027866,N,12307.370278,W,2,14,0.7,11.033,M,0.000,M,4.0,0136*4A
2018-12-06T00:00:09.3928Z $GNGST,000009.00,0.1149,0.0391,0.0346,20.3078,0.0386,0.0352,0.0748*4B
2018-12-06T00:00:09.4286Z $PNCTR,RXQ,000009,Y,14.96,7,0*73
2018-12-06T00:00:10.0725Z $GNZDA,000010.00,06,12,2018,00,00*77
2018-12-06T00:00:10.1489Z $GNRMC,000010.00,A,4812.027700,N,12307.366705,W,8.63,93.9,061218,,,D*5F
2018-12-06T00:00:10.1877Z $GNVTG,93.9,T,,M,8.63,N,15.97,K,D*12
2018-12-06T00:00:10.2307Z $PNCTR,NAVQ,000010.00,3D,C2-SF2,DUAL*40
2018-12-06T00:00:10.3196Z $GNGGA,000010.00,4812.027700,N,12307.366705,W,2,14,0.7,11.042,M,0.000,M,5.0,0136*42
2018-12-06T00:00:10.3930Z $GNGST,000010.00,0.1125,0.0391,0.0346,20.2833,0.0386,0.0352,0.0748*4F
2018-12-06T00:00:10.4275Z $PNCTR,RXQ,000010,Y,14.86,7,0*7A
2018-12-06T00:00:11.0730Z $GNZDA,000011.00,06,12,2018,00,00*76
2018-12-06T00:00:11.1480Z $GNRMC,000011.00,A,4812.027539,N,12307.363127,W,8.64,93.9,061218,,,D*52
2018-12-06T00:00:11.1880Z $GNVTG,93.9,T,,M,8.64,N,16.00,K,D*18
2018-12-06T00:00:11.2310Z $PNCTR,NAVQ,000011.00,3D,C2-SF2,DUAL*41
2018-12-06T00:00:11.3186Z $GNGGA,000011.00,4812.027539,N,12307.363127,W,2,14,0.7,11.049,M,0.000,M,6.0,0136*40
2018-12-06T00:00:11.3935Z $GNGST,000011.00,0.1306,0.0391,0.0346,20.2600,0.0386,0.0352,0.0747*4C
2018-12-06T00:00:11.4279Z $PNCTR,RXQ,000011,Y,14.93,7,0*7F
2018-12-06T00:00:12.0733Z $GNZDA,000012.00,06,12,2018,00,00*75
2018-12-06T00:00:12.1482Z $GNRMC,000012.00,A,4812.027376,N,12307.359547,W,8.65,93.9,061218,,,D*56
2018-12-06T00:00:12.1882Z $GNVTG,93.9,T,,M,8.65,N,16.01,K,D*18
2018-12-06T00:00:12.2313Z $PNCTR,NAVQ,000012.00,3D,C2-SF2,DUAL*42
2018-12-06T00:00:12.3188Z $GNGGA,000012.00,4812.027376,N,12307.359547,W,2,14,0.7,11.051,M,0.000,M,4.0,0136*4E
2018-12-06T00:00:12.3937Z $GNGST,000012.00,0.1081,0.0391,0.0346,20.2391,0.0386,0.0352,0.0747*4E
2018-12-06T00:00:12.4281Z $PNCTR,RXQ,000012,Y,15.02,7,0*75
2018-12-06T00:00:13.0722Z $GNZDA,000013.00,06,12,2018,00,00*74
2018-12-06T00:00:13.1486Z $GNRMC,000013.00,A,4812.027221,N,12307.355971,W,8.63,93.7,061218,,,D*59
2018-12-06T00:00:13.1874Z $GNVTG,93.7,T,,M,8.63,N,15.97,K,D*1C
2018-12-06T00:00:13.2302Z $PNCTR,NAVQ,000013.00,3D,C2-SF2,DUAL*43
2018-12-06T00:00:13.3191Z $GNGGA,000013.00,4812.027221,N,12307.355971,W,2,14,0.7,11.046,M,0.000,M,4.0,0136*4F
2018-12-06T00:00:13.3927Z $GNGST,000013.00,0.1151,0.0391,0.0346,20.2084,0.0386,0.0352,0.0747*44
2018-12-06T00:00:13.4285Z $PNCTR,RXQ,000013,Y,14.92,7,0*7C
2018-12-06T00:00:14.0725Z $GNZDA,000014.00,06,12,2018,00,00*73
2018-12-06T00:00:14.1488Z $GNRMC,000014.00,A,4812.027067,N,12307.352401,W,8.62,93.7,061218,,,D*52
2018-12-06T00:00:14.1876Z $GNVTG,93.7,T,,M,8.62,N,15.96,K,D*1C
2018-12-06T00:00:14.2305Z $PNCTR,NAVQ,000014.00,3D,C2-SF2,DUAL*44
2018-12-06T00:00:14.3195Z $GNGGA,000014.00,4812.027067,N,12307.352401,W,2,14,0.7,11.042,M,0.000,M,5.0,0136*40
2018-12-06T00:00:14.3932Z $GNGST,000014.00,0.1330,0.0391,0.0346,20.1838,0.0386,0.0352,0.0747*4A
2018-12-06T00:00:14.4277Z $PNCTR,RXQ,000014,Y,14.90,7,0*79
2018-12-06T00:00:15.0717Z $GNZDA,000015.00,06,12,2018,00,00*72
2018-12-06T00:00:15.1480Z $GNRMC,000015.00,A,4812.026903,N,12307.348838,W,8.60,94.0,061218,,,D*56
2018-12-06T00:00:15.1881Z $GNVTG,94.0,T,,M,8.60,N,15.94,K,D*1C
2018-12-06T00:00:15.2298Z $PNCTR,NAVQ,000015.00,3D,C2-SF2,DUAL*45
2018-12-06T00:00:15.3186Z $GNGGA,000015.00,4812.026903,N,12307.348838,W,2,14,0.7,11.042,M,0.000,M,6.0,0136*45
2018-12-06T00:00:15.3920Z $GNGST,000015.00,0.1353,0.0391,0.0346,20.1603,0.0386,0.0352,0.0747*48
2018-12-06T00:00:15.4280Z $PNCTR,RXQ,000015,Y,14.89,7,0*70
2018-12-06T00:00:16.0719Z $GNZDA,000016.00,06,12,2018,00,00*71
2018-12-06T00:00:16.1483Z $GNRMC,000016.00,A,4812.026729,N,12307.345273,W,8.60,94.2,061218,,,D*59
2018-12-06T00:00:16.1883Z $GNVTG,94.2,T,,M,8.60,N,15.93,K,D*19
2018-12-06T00:00:16.2300Z $PNCTR,NAVQ,000016.00,3D,C2-SF2,DUAL*46
2018-12-06T00:00:16.3191Z $GNGGA,000016.00,4812.026729,N,12307.345273,W,2,14,0.7,11.050,M,0.000,M,4.0,0136*49
2018-12-06T00:00:16.3927Z $GNGST,000016.00,0.1279,0.0391,0.0346,20.1393,0.0386,0.0352,0.0747*4E
2018-12-06T00:00:16.4286Z $PNCTR,RXQ,000016,Y,14.99,7,0*72
2018-12-06T00:00:17.0729Z $GNZDA,000017.00,06,12,2018,00,00*70
2018-12-06T00:00:17.1478Z $GNRMC,000017.00,A,4812.026546,N,12307.341700,W,8.63,94.4,061218,,,D*53
2018-12-06T00:00:17.1879Z $GNVTG,94.4,T,,M,8.63,N,15.98,K,D*17
2018-12-06T00:00:17.2309Z $PNCTR,NAVQ,000017.00,3D,C2-SF2,DUAL*47
2018-12-06T00:00:17.3184Z $GNGGA,000017.00,4812.026546,N,12307.341700,W,2,14,0.7,11.055,M,0.000,M,4.0,0136*43
2018-12-06T00:00:17.3932Z $GNGST,000017.00,0.1232,0.0391,0.0346,20.1084,0.0386,0.0352,0.0747*45
2018-12-06T00:00:17.4277Z $PNCTR,RXQ,000017,Y,15.01,7,0*73
2018-12-06T00:00:18.0715Z $GNZDA,000018.00,06,12,2018,00,00*7F
2018-12-06T00:00:18.1479Z $GNRMC,000018.00,A,4812.026359,N,12307.338128,W,8.63,94.5,061218,,,D*57
2018-12-06T00:00:18.1880Z $GNVTG,94.5,T,,M,8.63,N,15.98,K,D*16
2018-12-06T00:00:18.2300Z $PNCTR,NAVQ,000018.00,3D,C2-SF2,DUAL*48
2018-12-06T00:00:18.3189Z $GNGGA,000018.00,4812.026359,N,12307.338128,W,2,14,0.7,11.052,M,0.000,M,5.0,0136*40
2018-12-06T00:00:18.3923Z $GNGST,000018.00,0.1365,0.0391,0.0346,20.0836,0.0386,0.0352,0.0747*49
2018-12-06T00:00:18.4281Z $PNCTR,RXQ,000018,Y,14.97,7,0*72
2018-12-06T00:00:19.0722Z $GNZDA,000019.00,06,12,2018,00,00*7E
2018-12-06T00:00:19.1486Z $GNRMC,000019.00,A,4812.026167,N,12307.334572,W,8.59,94.6,061218,,,D*54
2018-12-06T00:00:19.1872Z $GNVTG,94.6,T,,M,8.59,N,15.91,K,D*15
2018-12-06T00:00:19.2302Z $PNCTR,NAVQ,000019.00,3D,C2-SF2,DUAL*49
2018-12-06T00:00:19.3192Z $GNGGA,000019.00,4812.026167,N,12307.334572,W,2,14,0.7,11.057,M,0.000,M,6.0,0136*4F
2018-12-06T00:00:19.3931Z $GNGST,000019.00,0.1384,0.0391,0.0346,20.0599,0.0386,0.0352,0.0747*4F
2018-12-06T00:00:19.4275Z $PNCTR,RXQ,000019,Y,15.07,7,0*7B
2018-12-06T00:00:20.0714Z $GNZDA,000020.00,06,12,2018,00,00*74
2018-12-06T00:00:20.1482Z $GNRMC,000020.00,A,4812.025975,N,12307.331011,W,8.60,94.6,061218,,,D*59
2018-12-06T00:00:20.1870Z $GNVTG,94.6,T,,M,8.60,N,15.92,K,D*1C
2018-12-06T00:00:20.2302Z $PNCTR,NAVQ,000020.00,3D,C2-SF2,DUAL*43
2018-12-06T00:00:20.3192Z $GNGGA,000020.00,4812.025975,N,12307.331011,W,2,14,0.7,11.063,M,0.000,M,4.0,0136*4D
2018-12-06T00:00:20.3926Z $GNGST,000020.00,0.1516,0.0391,0.0346,20.0388,0.0386,0.0352,0.0747*4E
2018-12-06T00:00:20.4271Z $PNCTR,RXQ,000020,Y,15.06,2,0*75
2018-12-06T00:00:21.0725Z $GNZDA,000021.00,06,12,2018,00,00*75
2018-12-06T00:00:21.1475Z $GNRMC,000021.00,A,4812.025787,N,12307.327446,W,8.61,94.5,061218,,,D*58
2018-12-06T00:00:21.1875Z $GNVTG,94.5,T,,M,8.61,N,15.95,K,D*19
2018-12-06T00:00:21.2305Z $PNCTR,NAVQ,000021.00,3D,C2-SF2,DUAL*42
2018-12-06T00:00:21.3181Z $GNGGA,000021.00,4812.025787,N,12307.327446,W,2,14,0.7,11.063,M,0.000,M,4.0,0136*4E
2018-12-06T00:00:21.3930Z $GNGST,000021.00,0.1301,0.0391,0.0346,20.0077,0.0386,0.0352,0.0747*4C
2018-12-06T00:00:21.4274Z $PNCTR,RXQ,000021,Y,15.00,2,0*72
2018-12-06T00:00:22.0727Z $GNZDA,000022.00,06,12,2018,00,00*76
2018-12-06T00:00:22.1476Z $GNRMC,000022.00,A,4812.025601,N,12307.323888,W,8.59,94.5,061218,,,D*55
2018-12-06T00:00:22.1876Z $GNVTG,94.5,T,,M,8.59,N,15.92,K,D*15
2018-12-06T00:00:22.2306Z $PNCTR,NAVQ,000022.00,3D,C2-SF2,DUAL*41
2018-12-06T00:00:22.3182Z $GNGGA,000022.00,4812.025601,N,12307.323888,W,2,14,0.7,11.060,M,0.000,M,5.0,0136*4A
2018-12-06T00:00:22.3931Z $GNGST,000022.00,0.1676,0.0391,0.0346,19.9828,0.0386,0.0352,0.0747*4B
2018-12-06T00:00:22.4275Z $PNCTR,RXQ,000022,Y,14.93,2,0*7A
2018-12-06T00:00:23.0715Z $GNZDA,000023.00,06,12,2018,00,00*77
2018-12-06T00:00:23.1477Z $GNRMC,000023.00,A,4812.025414,N,12307.320327,W,8.60,94.5,061218,,,D*55
2018-12-06T00:00:23.1878Z $GNVTG,94.5,T,,M,8.60,N,15.92,K,D*1F
2018-12-06T00:00:23.2295Z $PNCTR,NAVQ,000023.00,3D,C2-SF2,DUAL*40
2018-12-06T00:00:23.3184Z $GNGGA,000023.00,4812.025414,N,12307.320327,W,2,14,0.7,11.053,M,0.000,M,6.0,0136*43
2018-12-06T00:00:23.3918Z $GNGST,000023.00,0.1635,0.0391,0.0346,19.9589,0.0386,0.0352,0.0747*4B
2018-12-06T00:00:23.4277Z $PNCTR,RXQ,000023,Y,15.01,2,0*71
2018-12-06T00:00:24.0717Z $GNZDA,000024.00,06,12,2018,00,00*70
2018-12-06T00:00:24.1485Z $GNRMC,000024.00,A,4812.025237,N,12307.316766,W,8.60,94.3,061218,,,D*57
2018-12-06T00:00:24.1878Z $GNVTG,94.3,T,,M,8.60,N,15.92,K,D*19
2018-12-06T00:00:24.2308Z $PNCTR,NAVQ,000024.00,3D,C2-SF2,DUAL*47
2018-12-06T00:00:24.3182Z $GNGGA,000024.00,4812.025237,N,12307.316766,W,2,14,0.7,11.040,M,0.000,M,4.0,0136*47
2018-12-06T00:00:24.3931Z $GNGST,000024.00,0.1538,0.0391,0.0346,19.9377,0.0386,0.0352,0.0747*45
2018-12-06T00:00:24.4277Z $PNCTR,RXQ,000024,Y,14.97,2,0*78
2018-12-06T00:00:25.0716Z $GNZDA,000025.00,06,12,2018,00,00*71
2018-12-06T00:00:25.1479Z $GNRMC,000025.00,A,4812.025054,N,12307.313213,W,8.58,94.4,061218,,,D*5F
2018-12-06T00:00:25.1879Z $GNVTG,94.4,T,,M,8.58,N,15.89,K,D*1F
2018-12-06T00:00:25.2296Z $PNCTR,NAVQ,000025.00,3D,C2-SF2,DUAL*46
2018-12-06T00:00:25.3185Z $GNGGA,000025.00,4812.025054,N,12307.313213,W,2,14,0.7,11.039,M,0.000,M,4.0,0136*4D
2018-12-06T00:00:25.3919Z $GNGST,000025.00,0.1396,0.0391,0.0346,19.9064,0.0386,0.0352,0.0747*47
2018-12-06T00:00:25.4278Z $PNCTR,RXQ,000025,Y,14.95,2,0*7B
2018-12-06T00:00:26.0718Z $GNZDA,000026.00,06,12,2018,00,00*72
2018-12-06T00:00:26.1481Z $GNRMC,000026.00,A,4812.024865,N,12307.309660,W,8.58,94.5,061218,,,D*5D
2018-12-06T00:00:26.1868Z $GNVTG,94.5,T,,M,8.58,N,15.88,K,D*1F
2018-12-06T00:00:26.2298Z $PNCTR,NAVQ,000026.00,3D,C2-SF2,DUAL*45
2018-12-06T00:00:26.3187Z $GNGGA,000026.00,4812.024865,N,12307.309660,W,2,14,0.7,11.044,M,0.000,M,5.0,0136*45
2018-12-06T00:00:26.3921Z $GNGST,000026.00,0.1249,0.0391,0.0347,19.8813,0.0386,0.0352,0.0747*4F
2018-12-06T00:00:26.4270Z $PNCTR,RXQ,000026,Y,15.09,2,0*7C
2018-12-06T00:00:27.0722Z $GNZDA,000027.00,06,12,2018,00,00*73
2018-12-06T00:00:27.1489Z $GNRMC,000027.00,A,4812.024679,N,12307.306098,W,8.60,94.5,061218,,,D*5A
2018-12-06T00:00:27.1876Z $GNVTG,94.5,T,,M,8.60,N,15.93,K,D*1E
2018-12-06T00:00:27.2306Z $PNCTR,NAVQ,000027.00,3D,C2-SF2,DUAL*44
2018-12-06T00:00:27.3195Z $GNGGA,000027.00,4812.024679,N,12307.306098,W,2,14,0.7,11.034,M,0.000,M,6.0,0136*4D
2018-12-06T00:00:27.3930Z $GNGST,000027.00,0.1485,0.0391,0.0347,19.8573,0.0386,0.0352,0.0747*43
2018-12-06T00:00:27.4274Z $PNCTR,RXQ,000027,Y,15.20,2,0*76
2018-12-06T00:00:28.0728Z $GNZDA,000028.00,06,12,2018,00,00*7C
2018-12-06T00:00:28.1490Z $GNRMC,000028.00,A,4812.024481,N,12307.302538,W,8.60,94.7,061218,,,D*59
2018-12-06T00:00:28.1877Z $GNVTG,94.7,T,,M,8.60,N,15.93,K,D*1C
2018-12-06T00:00:28.2307Z $PNCTR,NAVQ,000028.00,3D,C2-SF2,DUAL*4B
2018-12-06T00:00:28.3196Z $GNGGA,000028.00,4812.024481,N,12307.302538,W,2,14,0.7,11.026,M,0.000,M,4.0,0136*4D
2018-12-06T00:00:28.3931Z $GNGST,000028.00,0.1702,0.0391,0.0347,19.8360,0.0387,0.0352,0.0747*45
2018-12-06T00:00:28.4275Z $PNCTR,RXQ,000028,Y,15.19,2,0*73
2018-12-06T00:00:29.0712Z $GNZDA,000029.00,06,12,2018,00,00*7D
2018-12-06T00:00:29.1476Z $GNRMC,000029.00,A,4812.024278,N,12307.298990,W,8.58,94.9,061218,,,D*51
2018-12-06T00:00:29.1878Z $GNVTG,94.9,T,,M,8.58,N,15.88,K,D*13
2018-12-06T00:00:29.2293Z $PNCTR,NAVQ,000029.00,3D,C2-SF2,DUAL*4A
2018-12-06T00:00:29.3183Z $GNGGA,000029.00,4812.024278,N,12307.298990,W,2,14,0.7,11.031,M,0.000,M,4.0,0136*46
2018-12-06T00:00:29.3918Z $GNGST,000029.00,0.1543,0.0391,0.0347,19.8045,0.0387,0.0352,0.0747*47
2018-12-06T00:00:29.4276Z $PNCTR,RXQ,000029,Y,15.30,2,0*79
2018-12-06T00:00:30.0717Z $GNZDA,000030.00,06,12,2018,00,00*75
2018-12-06T00:00:30.1471Z $GNRMC,000030.00,A,4812.024071,N,12307.295434,W,8.59,95.0,061218,,,D*55
2018-12-06T00:00:30.1872Z $GNVTG,95.0,T,,M,8.59,N,15.91,K,D*12
2018-12-06T00:00:30.2302Z $PNCTR,NAVQ,000030.00,3D,C2-SF2,DUAL*42
2018-12-06T00:00:30.3177Z $GNGGA,000030.00,4812.024071,N,12307.295434,W,2,14,0.7,11.031,M,0.000,M,5.0,0136*4A
2018-12-06T00:00:30.3925Z $GNGST,000030.00,0.1502,0.0391,0.0347,19.7792,0.0387,0.0352,0.0747*48
2018-12-06T00:00:30.4271Z $PNCTR,RXQ,000030,Y,15.34,2,0*75
2018-12-06T00:00:31.0729Z $GNZDA,000031.00,06,12,2018,00,00*74
2018-12-06T00:00:31.1477Z $GNRMC,000031.00,A,4812.023849,N,12307.291872,W,8.61,95.3,061218,,,D*52
2018-12-06T00:00:31.1878Z $GNVTG,95.3,T,,M,8.61,N,15.94,K,D*1F
2018-12-06T00:00:31.2308Z $PNCTR,NAVQ,000031.00,3D,C2-SF2,DUAL*43
2018-12-06T00:00:31.3184Z $GNGGA,000031.00,4812.023849,N,12307.291872,W,2,14,0.7,11.028,M,0.000,M,6.0,0136*4E
2018-12-06T00:00:31.3932Z $GNGST,000031.00,0.1490,0.0391,0.0347,19.7551,0.0387,0.0352,0.0747*4E
2018-12-06T00:00:31.4277Z $PNCTR,RXQ,000031,Y,15.31,2,0*71
2018-12-06T00:00:32.0730Z $GNZDA,000032.00,06,12,2018,00,00*77
2018-12-06T00:00:32.1478Z $GNRMC,000032.00,A,4812.023625,N,12307.288325,W,8.58,95.4,061218,,,D*59
2018-12-06T00:00:32.1879Z $GNVTG,95.4,T,,M,8.58,N,15.89,K,D*1E
2018-12-06T00:00:32.2309Z $PNCTR,NAVQ,000032.00,3D,C2-SF2,DUAL*40
2018-12-06T00:00:32.3185Z $GNGGA,000032.00,4812.023625,N,12307.288325,W,2,14,0.7,11.035,M,0.000,M,4.0,0136*46
2018-12-06T00:00:32.3933Z $GNGST,000032.00,0.1516,0.0391,0.0347,19.7336,0.0387,0.0352,0.0746*44
2018-12-06T00:00:32.4277Z $PNCTR,RXQ,000032,Y,15.29,2,0*7B
2018-12-06T00:00:33.0717Z $GNZDA,000033.00,06,12,2018,00,00*76
2018-12-06T00:00:33.1481Z $GNRMC,000033.00,A,4812.023404,N,12307.284778,W,8.58,95.3,061218,,,D*5E
2018-12-06T00:00:33.1883Z $GNVTG,95.3,T,,M,8.58,N,15.88,K,D*18
2018-12-06T00:00:33.2298Z $PNCTR,NAVQ,000033.00,3D,C2-SF2,DUAL*41
2018-12-06T00:00:33.3190Z $GNGGA,000033.00,4812.023404,N,12307.284778,W,2,14,0.7,11.039,M,0.000,M,4.0,0136*4A
2018-12-06T00:00:33.3925Z $GNGST,000033.00,0.1513,0.0391,0.0347,19.7020,0.0387,0.0352,0.0746*44
2018-12-06T00:00:33.4284Z $PNCTR,RXQ,000033,Y,15.23,2,0*70
2018-12-06T00:00:34.0724Z $GNZDA,000034.00,06,12,2018,00,00*71
2018-12-06T00:00:34.1487Z $GNRMC,000034.00,A,4812.023189,N,12307.281215,W,8.61,95.1,061218,,,D*5A
2018-12-06T00:00:34.1875Z $GNVTG,95.1,T,,M,8.61,N,15.95,K,D*1C
2018-12-06T00:00:34.2304Z $PNCTR,NAVQ,000034.00,3D,C2-SF2,DUAL*46
2018-12-06T00:00:34.3194Z $GNGGA,000034.00,4812.023189,N,12307.281215,W,2,14,0.7,11.029,M,0.000,M,5.0,0136*46
2018-12-06T00:00:34.3928Z $GNGST,000034.00,0.1522,0.0391,0.0347,19.6765,0.0387,0.0352,0.0746*46
2018-12-06T00:00:34.4274Z $PNCTR,RXQ,000034,Y,15.17,2,0*70
2018-12-06T00:00:35.0727Z $GNZDA,000035.00,06,12,2018,00,00*70
2018-12-06T00:00:35.1476Z $GNRMC,000035.00,A,4812.022988,N,12307.277663,W,8.59,94.8,061218,,,D*5C
2018-12-06T00:00:35.1876Z $GNVTG,94.8,T,,M,8.59,N,15.90,K,D*1A
2018-12-06T00:00:35.2307Z $PNCTR,NAVQ,000035.00,3D,C2-SF2,DUAL*47
2018-12-06T00:00:35.3182Z $GNGGA,000035.00,4812.022988,N,12307.277663,W,2,14,0.7,11.023,M,0.000,M,6.0,0136*4A
2018-12-06T00:00:35.3930Z $GNGST,000035.00,0.1518,0.0391,0.0347,19.6523,0.0387,0.0352,0.0746*4E
2018-12-06T00:00:35.4276Z $PNCTR,RXQ,000035,Y,15.23,2,0*76
2018-12-06T00:00:36.0716Z $GNZDA,000036.00,06,12,2018,00,00*73
2018-12-06T00:00:36.1484Z $GNRMC,000036.00,A,4812.022797,N,12307.274111,W,8.58,94.6,061218,,,D*51
2018-12-06T00:00:36.1870Z $GNVTG,94.6,T,,M,8.58,N,15.89,K,D*1D
2018-12-06T00:00:36.2300Z $PNCTR,NAVQ,000036.00,3D,C2-SF2,DUAL*44
2018-12-06T00:00:36.3189Z $GNGGA,000036.00,4812.022797,N,12307.274111,W,2,14,0.7,11.020,M,0.000,M,4.0,0136*49
2018-12-06T00:00:36.3924Z $GNGST,000036.00,0.1575,0.0391,0.0347,19.6307,0.0387,0.0352,0.0746*46
2018-12-06T00:00:36.4282Z $PNCTR,RXQ,000036,Y,15.20,2,0*76
2018-12-06T00:00:37.0722Z $GNZDA,000037.00,06,12,2018,00,00*72
2018-12-06T00:00:37.1486Z $GNRMC,000037.00,A,4812.022603,N,12307.270553,W,8.60,94.6,061218,,,D*51
2018-12-06T00:00:37.1873Z $GNVTG,94.6,T,,M,8.60,N,15.93,K,D*1D
2018-12-06T00:00:37.2303Z $PNCTR,NAVQ,000037.00,3D,C2-SF2,DUAL*45
2018-12-06T00:00:37.3192Z $GNGGA,000037.00,4812.022603,N,12307.270553,W,2,14,0.7,11.026,M,0.000,M,4.0,0136*44
2018-12-06T00:00:37.3927Z $GNGST,000037.00,0.1501,0.0391,0.0347,19.5989,0.0387,0.0352,0.0746*4B
2018-12-06T00:00:37.4272Z $PNCTR,RXQ,000037,Y,15.17,2,0*73
2018-12-06T00:00:38.0724Z $GNZDA,000038.00,06,12,2018,00,00*7D
2018-12-06T00:00:38.1474Z $GNRMC,000038.00,A,4812.022408,N,12307.267001,W,8.58,94.7,061218,,,D*59
2018-12-06T00:00:38.1876Z $GNVTG,94.7,T,,M,8.58,N,15.90,K,D*14
2018-12-06T00:00:38.2306Z $PNCTR,NAVQ,000038.00,3D,C2-SF2,DUAL*4A
2018-12-06T00:00:38.3183Z $GNGGA,000038.00,4812.022408,N,12307.267001,W,2,14,0.7,11.031,M,0.000,M,5.0,0136*41
2018-12-06T00:00:38.3918Z $GNGST,000038.00,0.1861,0.0391,0.0347,19.5733,0.0387,0.0352,0.0746*40
2018-12-06T00:00:38.4277Z $PNCTR,RXQ,000038,Y,15.05,2,0*7F
2018-12-06T00:00:39.0718Z $GNZDA,000039.00,06,12,2018,00,00*7C
2018-12-06T00:00:39.1481Z $GNRMC,000039.00,A,4812.022208,N,12307.263444,W,8.60,94.8,061218,,,D*5B
2018-12-06T00:00:39.1868Z $GNVTG,94.8,T,,M,8.60,N,15.92,K,D*12
2018-12-06T00:00:39.2298Z $PNCTR,NAVQ,000039.00,3D,C2-SF2,DUAL*4B
2018-12-06T00:00:39.3191Z $GNGGA,000039.00,4812.022208,N,12307.263444,W,2,14,0.7,11.035,M,0.000,M,6.0,0136*40
2018-12-06T00:00:39.3925Z $GNGST,000039.00,0.1778,0.0391,0.0347,19.5489,0.0387,0.0352,0.0746*44
2018-12-06T00:00:39.4270Z $PNCTR,RXQ,000039,Y,15.14,2,0*7E
2018-12-06T00:00:40.0722Z $GNZDA,000040.00,06,12,2018,00,00*72
2018-12-06T00:00:40.1472Z $GNRMC,000040.00,A,4812.021991,N,12307.259883,W,8.61,95.2,061218,,,D*59
2018-12-06T00:00:40.1873Z $GNVTG,95.2,T,,M,8.61,N,15.95,K,D*1F
2018-12-06T00:00:40.2303Z $PNCTR,NAVQ,000040.00,3D,C2-SF2,DUAL*45
2018-12-06T00:00:40.3180Z $GNGGA,000040.00,4812.021991,N,12307.259883,W,2,14,0.7,11.034,M,0.000,M,4.0,0136*4B
2018-12-06T00:00:40.3928Z $GNGST,000040.00,0.1935,0.0391,0.0347,19.5272,0.0387,0.0352,0.0746*4F
2018-12-06T00:00:40.4272Z $PNCTR,RXQ,000040,Y,14.95,2,0*78
2018-12-06T00:00:41.0712Z $GNZDA,000041.00,06,12,2018,00,00*73
2018-12-06T00:00:41.1475Z $GNRMC,000041.00,A,4812.021762,N,12307.256333,W,8.59,95.6,061218,,,D*5A
2018-12-06T00:00:41.1877Z $GNVTG,95.6,T,,M,8.59,N,15.91,K,D*14
2018-12-06T00:00:41.2293Z $PNCTR,NAVQ,000041.00,3D,C2-SF2,DUAL*44
2018-12-06T00:00:41.3182Z $GNGGA,000041.00,4812.021762,N,12307.256333,W,2,14,0.7,11.044,M,0.000,M,4.0,0136*40
2018-12-06T00:00:41.3917Z $GNGST,000041.00,0.1575,0.0391,0.0347,19.4952,0.0387,0.0352,0.0746*4E
2018-12-06T00:00:41.4275Z $PNCTR,RXQ,000041,Y,14.92,9,0*75
2018-12-06T00:00:42.0729Z $GNZDA,000042.00,06,12,2018,00,00*70
2018-12-06T00:00:42.1492Z $GNRMC,000042.00,A,4812.021526,N,12307.252778,W,8.60,95.7,061218,,,D*5F
2018-12-06T00:00:42.1882Z $GNVTG,95.7,T,,M,8.60,N,15.93,K,D*1D
2018-12-06T00:00:42.2312Z $PNCTR,NAVQ,000042.00,3D,C2-SF2,DUAL*47
2018-12-06T00:00:42.3201Z $GNGGA,000042.00,4812.021526,N,12307.252778,W,2,14,0.7,11.038,M,0.000,M,5.0,0136*44
2018-12-06T00:00:42.3934Z $GNGST,000042.00,0.1489,0.0391,0.0347,19.4694,0.0387,0.0352,0.0746*4A
2018-12-06T00:00:42.4281Z $PNCTR,RXQ,000042,Y,14.77,9,0*7D
2018-12-06T00:00:43.0733Z $GNZDA,000043.00,06,12,2018,00,00*71
2018-12-06T00:00:43.1482Z $GNRMC,000043.00,A,4812.021279,N,12307.249222,W,8.61,95.9,061218,,,D*5C
2018-12-06T00:00:43.1883Z $GNVTG,95.9,T,,M,8.61,N,15.95,K,D*14
2018-12-06T00:00:43.2313Z $PNCTR,NAVQ,000043.00,3D,C2-SF2,DUAL*46
2018-12-06T00:00:43.3191Z $GNGGA,000043.00,4812.021279,N,12307.249222,W,2,14,0.7,11.035,M,0.000,M,6.0,0136*46
2018-12-06T00:00:43.3925Z $GNGST,000043.00,0.1359,0.0391,0.0347,19.4449,0.0387,0.0352,0.0746*43
2018-12-06T00:00:43.4285Z $PNCTR,RXQ,000043,Y,14.74,9,0*7F
2018-12-06T00:00:44.0724Z $GNZDA,000044.00,06,12,2018,00,00*76
2018-12-06T00:00:44.1488Z $GNRMC,000044.00,A,4812.021033,N,12307.245672,W,8.60,95.9,061218,,,D*5B
2018-12-06T00:00:44.1875Z $GNVTG,95.9,T,,M,8.60,N,15.92,K,D*12
2018-12-06T00:00:44.2306Z $PNCTR,NAVQ,000044.00,3D,C2-SF2,DUAL*41
2018-12-06T00:00:44.3194Z $GNGGA,000044.00,4812.021033,N,12307.245672,W,2,14,0.7,11.035,M,0.000,M,4.0,0136*42
2018-12-06T00:00:44.3929Z $GNGST,000044.00,0.1482,0.0391,0.0347,19.4231,0.0387,0.0352,0.0746*4C
2018-12-06T00:00:44.4288Z $PNCTR,RXQ,000044,Y,14.86,9,0*75
2018-12-06T00:00:45.0728Z $GNZDA,000045.00,06,12,2018,00,00*77
2018-12-06T00:00:45.1493Z $GNRMC,000045.00,A,4812.020794,N,12307.242117,W,8.61,95.7,061218,,,D*5D
2018-12-06T00:00:45.1883Z $GNVTG,95.7,T,,M,8.61,N,15.94,K,D*1B
2018-12-06T00:00:45.2312Z $PNCTR,NAVQ,000045.00,3D,C2-SF2,DUAL*40
2018-12-06T00:00:45.3198Z $GNGGA,000045.00,4812.020794,N,12307.242117,W,2,14,0.7,11.043,M,0.000,M,4.0,0136*4A
2018-12-06T00:00:45.3932Z $GNGST,000045.00,0.1479,0.0391,0.0347,19.3909,0.0387,0.0352,0.0746*4E
2018-12-06T00:00:45.4278Z $PNCTR,RXQ,000045,Y,15.03,9,0*78
2018-12-06T00:00:46.0730Z $GNZDA,000046.00,06,12,2018,00,00*74
2018-12-06T00:00:46.1480Z $GNRMC,000046.00,A,4812.020563,N,12307.238562,W,8.60,95.5,061218,,,D*5C
2018-12-06T00:00:46.1880Z $GNVTG,95.5,T,,M,8.60,N,15.94,K,D*18
2018-12-06T00:00:46.2310Z $PNCTR,NAVQ,000046.00,3D,C2-SF2,DUAL*43
2018-12-06T00:00:46.3186Z $GNGGA,000046.00,4812.020563,N,12307.238562,W,2,14,0.7,11.052,M,0.000,M,5.0,0136*49
2018-12-06T00:00:46.3934Z $GNGST,000046.00,0.1719,0.0391,0.0347,19.3650,0.0387,0.0352,0.0746*4B
2018-12-06T00:00:46.4279Z $PNCTR,RXQ,000046,Y,15.11,9,0*78
2018-12-06T00:00:47.0732Z $GNZDA,000047.00,06,12,2018,00,00*75
2018-12-06T00:00:47.1480Z $GNRMC,000047.00,A,4812.020341,N,12307.235011,W,8.59,95.3,061218,,,D*5B
2018-12-06T00:00:47.1882Z $GNVTG,95.3,T,,M,8.59,N,15.90,K,D*10
2018-12-06T00:00:47.2312Z $PNCTR,NAVQ,000047.00,3D,C2-SF2,DUAL*42
2018-12-06T00:00:47.3188Z $GNGGA,000047.00,4812.020341,N,12307.235011,W,2,14,0.7,11.057,M,0.000,M,6.0,0136*44
2018-12-06T00:00:47.3936Z $GNGST,000047.00,0.1746,0.0391,0.0347,19.3403,0.0387,0.0352,0.0746*44
2018-12-06T00:00:47.4281Z $PNCTR,RXQ,000047,Y,15.02,9,0*7B
2018-12-06T00:00:48.0720Z $GNZDA,000048.00,06,12,2018,00,00*7A
2018-12-06T00:00:48.1484Z $GNRMC,000048.00,A,4812.020133,N,12307.231457,W,8.59,95.0,061218,,,D*52
2018-12-06T00:00:48.1885Z $GNVTG,95.0,T,,M,8.59,N,15.92,K,D*11
2018-12-06T00:00:48.2300Z $PNCTR,NAVQ,000048.00,3D,C2-SF2,DUAL*4D
2018-12-06T00:00:48.3190Z $GNGGA,000048.00,4812.020133,N,12307.231457,W,2,14,0.7,11.057,M,0.000,M,4.0,0136*4C
2018-12-06T00:00:48.3924Z $GNGST,000048.00,0.1718,0.0391,0.0347,19.3184,0.0387,0.0352,0.0746*4A
2018-12-06T00:00:48.4283Z $PNCTR,RXQ,000048,Y,14.92,9,0*7C
2018-12-06T00:00:49.0722Z $GNZDA,000049.00,06,12,2018,00,00*7B
2018-12-06T00:00:49.1486Z $GNRMC,000049.00,A,4812.019928,N,12307.227893,W,8.62,94.9,061218,,,D*58
2018-12-06T00:00:49.1877Z $GNVTG,94.9,T,,M,8.62,N,15.96,K,D*15
2018-12-06T00:00:49.2307Z $PNCTR,NAVQ,000049.00,3D,C2-SF2,DUAL*4C
2018-12-06T00:00:49.3196Z $GNGGA,000049.00,4812.019928,N,12307.227893,W,2,14,0.7,11.057,M,0.000,M,4.0,0136*46
2018-12-06T00:00:49.3930Z $GNGST,000049.00,0.1684,0.0391,0.0347,19.2861,0.0387,0.0352,0.0746*4C
2018-12-06T00:00:49.4275Z $PNCTR,RXQ,000049,Y,14.86,9,0*78
2018-12-06T00:00:50.0729Z $GNZDA,000050.00,06,12,2018,00,00*73
2018-12-06T00:00:50.1479Z $GNRMC,000050.00,A,4812.019724,N,12307.224334,W,8.60,94.9,061218,,,D*55
2018-12-06T00:00:50.1879Z $GNVTG,94.9,T,,M,8.60,N,15.93,K,D*12
2018-12-06T00:00:50.2309Z $PNCTR,NAVQ,000050.00,3D,C2-SF2,DUAL*44
2018-12-06T00:00:50.3184Z $GNGGA,000050.00,4812.019724,N,12307.224334,W,2,14,0.7,11.050,M,0.000,M,5.0,0136*4F
2018-12-06T00:00:50.3932Z $GNGST,000050.00,0.1769,0.0391,0.0347,19.2600,0.0387,0.0352,0.0746*4F
2018-12-06T00:00:50.4278Z $PNCTR,RXQ,000050,Y,14.98,9,0*7F
2018-12-06T00:00:51.0717Z $GNZDA,000051.00,06,12,2018,00,00*72
2018-12-06T00:00:51.1481Z $GNRMC,000051.00,A,4812.019508,N,12307.220777,W,8.60,95.2,061218,,,D*55
2018-12-06T00:00:51.1882Z $GNVTG,95.2,T,,M,8.60,N,15.92,K,D*19
2018-12-06T00:00:51.2299Z $PNCTR,NAVQ,000051.00,3D,C2-SF2,DUAL*45
2018-12-06T00:00:51.3188Z $GNGGA,000051.00,4812.019508,N,12307.220777,W,2,14,0.7,11.044,M,0.000,M,6.0,0136*43
2018-12-06T00:00:51.3922Z $GNGST,000051.00,0.1939,0.0391,0.0347,19.2352,0.0387,0.0352,0.0746*47
2018-12-06T00:00:51.4281Z $PNCTR,RXQ,000051,Y,14.92,9,0*74
2018-12-06T00:00:52.0720Z $GNZDA,000052.00,06,12,2018,00,00*71
2018-12-06T00:00:52.1483Z $GNRMC,000052.00,A,4812.019286,N,12307.217220,W,8.61,95.3,061218,,,D*54
2018-12-06T00:00:52.1884Z $GNVTG,95.3,T,,M,8.61,N,15.94,K,D*1F
2018-12-06T00:00:52.2301Z $PNCTR,NAVQ,000052.00,3D,C2-SF2,DUAL*46
2018-12-06T00:00:52.3189Z $GNGGA,000052.00,4812.019286,N,12307.217220,W,2,14,0.7,11.031,M,0.000,M,4.0,0136*42
2018-12-06T00:00:52.3924Z $GNGST,000052.00,0.1693,0.0391,0.0347,19.2132,0.0387,0.0352,0.0745*4C
2018-12-06T00:00:52.4283Z $PNCTR,RXQ,000052,Y,14.85,9,0*71
2018-12-06T00:00:53.0724Z $GNZDA,000053.00,06,12,2018,00,00*70
2018-12-06T00:00:53.1487Z $GNRMC,000053.00,A,4812.019052,N,12307.213674,W,8.58,95.6,061218,,,D*50
2018-12-06T00:00:53.1874Z $GNVTG,95.6,T,,M,8.58,N,15.90,K,D*14
2018-12-06T00:00:53.2304Z $PNCTR,NAVQ,000053.00,3D,C2-SF2,DUAL*47
2018-12-06T00:00:53.3193Z $GNGGA,000053.00,4812.019052,N,12307.213674,W,2,14,0.7,11.032,M,0.000,M,4.0,0136*4A
2018-12-06T00:00:53.3929Z $GNGST,000053.00,0.1527,0.0391,0.0347,19.1807,0.0387,0.0352,0.0745*4D
2018-12-06T00:00:53.4272Z $PNCTR,RXQ,000053,Y,14.75,9,0*7F
2018-12-06T00:00:54.0726Z $GNZDA,000054.00,06,12,2018,00,00*77
2018-12-06T00:00:54.1476Z $GNRMC,000054.00,A,4812.018811,N,12307.210127,W,8.58,95.8,061218,,,D*55
2018-12-06T00:00:54.1876Z $GNVTG,95.8,T,,M,8.58,N,15.90,K,D*1A
2018-12-06T00:00:54.2306Z $PNCTR,NAVQ,000054.00,3D,C2-SF2,DUAL*40
2018-12-06T00:00:54.3182Z $GNGGA,000054.00,4812.018811,N,12307.210127,W,2,14,0.7,11.033,M,0.000,M,5.0,0136*41
2018-12-06T00:00:54.3920Z $GNGST,000054.00,0.1525,0.0391,0.0347,19.1544,0.0387,0.0352,0.0745*42
2018-12-06T00:00:54.4278Z $PNCTR,RXQ,000054,Y,14.66,9,0*7A
2018-12-06T00:00:55.0715Z $GNZDA,000055.00,06,12,2018,00,00*76
2018-12-06T00:00:55.1479Z $GNRMC,000055.00,A,4812.018564,N,12307.206567,W,8.62,95.9,061218,,,D*54
2018-12-06T00:00:55.1881Z $GNVTG,95.9,T,,M,8.62,N,15.96,K,D*14
2018-12-06T00:00:55.2297Z $PNCTR,NAVQ,000055.00,3D,C2-SF2,DUAL*41
2018-12-06T00:00:55.3186Z $GNGGA,000055.00,4812.018564,N,12307.206567,W,2,14,0.7,11.032,M,0.000,M,6.0,0136*4A
2018-12-06T00:00:55.3921Z $GNGST,000055.00,0.1507,0.0391,0.0347,19.1295,0.0387,0.0352,0.0745*48
2018-12-06T00:00:55.4279Z $PNCTR,RXQ,000055,Y,15.00,9,0*7A
2018-12-06T00:00:56.0720Z $GNZDA,000056.00,06,12,2018,00,00*75
2018-12-06T00:00:56.1484Z $GNRMC,000056.00,A,4812.018322,N,12307.203012,W,8.61,95.8,061218,,,D*53
2018-12-06T00:00:56.1872Z $GNVTG,95.8,T,,M,8.61,N,15.94,K,D*14
2018-12-06T00:00:56.2300Z $PNCTR,NAVQ,000056.00,3D,C2-SF2,DUAL*42
2018-12-06T00:00:56.3194Z $GNGGA,000056.00,4812.018322,N,12307.203012,W,2,14,0.7,11.029,M,0.000,M,4.0,0136*47
2018-12-06T00:00:56.3928Z $GNGST,000056.00,0.1261,0.0391,0.0347,19.1074,0.0387,0.0352,0.0745*41
2018-12-06T00:00:56.4273Z $PNCTR,RXQ,000056,Y,15.16,9,0*7E
2018-12-06T00:00:57.0728Z $GNZDA,000057.00,06,12,2018,00,00*74
2018-12-06T00:00:57.1480Z $GNRMC,000057.00,A,4812.018086,N,12307.199463,W,8.59,95.7,061218,,,D*59
2018-12-06T00:00:57.1877Z $GNVTG,95.7,T,,M,8.59,N,15.91,K,D*15
2018-12-06T00:00:57.2307Z $PNCTR,NAVQ,000057.00,3D,C2-SF2,DUAL*43
2018-12-06T00:00:57.3183Z $GNGGA,000057.00,4812.018086,N,12307.199463,W,2,14,0.7,11.040,M,0.000,M,4.0,0136*46
2018-12-06T00:00:57.3931Z $GNGST,000057.00,0.1145,0.0391,0.0347,19.0747,0.0387,0.0352,0.0745*43
2018-12-06T00:00:57.4276Z $PNCTR,RXQ,000057,Y,15.07,9,0*7F
2018-12-06T00:00:58.0715Z $GNZDA,000058.00,06,12,2018,00,00*7B
2018-12-06T00:00:58.1478Z $GNRMC,000058.00,A,4812.017864,N,12307.195913,W,8.59,95.3,061218,,,D*5F
2018-12-06T00:00:58.1869Z $GNVTG,95.3,T,,M,8.59,N,15.90,K,D*10
2018-12-06T00:00:58.2298Z $PNCTR,NAVQ,000058.00,3D,C2-SF2,DUAL*4C
2018-12-06T00:00:58.3188Z $GNGGA,000058.00,4812.017864,N,12307.195913,W,2,14,0.7,11.041,M,0.000,M,5.0,0136*44
2018-12-06T00:00:58.3922Z $GNGST,000058.00,0.1309,0.0391,0.0347,19.0483,0.0387,0.0352,0.0745*4D
2018-12-06T00:00:58.4280Z $PNCTR,RXQ,000058,Y,15.01,9,0*76
2018-12-06T00:00:59.0721Z $GNZDA,000059.00,06,12,2018,00,00*7A
2018-12-06T00:00:59.1487Z $GNRMC,000059.00,A,4812.017642,N,12307.192355,W,8.60,95.3,061218,,,D*51
2018-12-06T00:00:59.1873Z $GNVTG,95.3,T,,M,8.60,N,15.93,K,D*19
2018-12-06T00:00:59.2303Z $PNCTR,NAVQ,000059.00,3D,C2-SF2,DUAL*4D
2018-12-06T00:00:59.3192Z $GNGGA,000059.00,4812.017642,N,12307.192355,W,2,14,0.7,11.036,M,0.000,M,6.0,0136*43
2018-12-06T00:00:59.3928Z $GNGST,000059.00,0.1356,0.0391,0.0347,19.0232,0.0387,0.0352,0.0745*4A
2018-12-06T00:00:59.4271Z $PNCTR,RXQ,000059,Y,14.96,9,0*78
2018-12-06T00:01:00.0727Z $GNZDA,000100.00,06,12,2018,00,00*77
2018-12-06T00:01:00.1477Z $GNRMC,000100.00,A,4812.017422,N,12307.188800,W,8.60,95.3,061218,,,D*58
2018-12-06T00:01:00.1877Z $GNVTG,95.3,T,,M,8.60,N,15.92,K,D*18
2018-12-06T00:01:00.2307Z $PNCTR,NAVQ,000100.00,3D,C2-SF2,DUAL*40
2018-12-06T00:01:00.3182Z $GNGGA,000100.00,4812.017422,N,12307.188800,W,2,14,0.7,11.040,M,0.000,M,4.0,0136*49
2018-12-06T00:01:00.3930Z $GNGST,000100.00,0.1351,0.0391,0.0347,19.0011,0.0387,0.0352,0.0745*43
2018-12-06T00:01:00.4275Z $PNCTR,RXQ,000100,Y,15.03,9,0*78
2018-12-06T00:01:01.0714Z $GNZDA,000101.00,06,12,2018,00,00*76
2018-12-06T00:01:01.1479Z $GNRMC,000101.00,A,4812.017205,N,12307.185237,W,8.61,95.2,061218,,,D*59
2018-12-06T00:01:01.1879Z $GNVTG,95.2,T,,M,8.61,N,15.95,K,D*1F
2018-12-06T00:01:01.2297Z $PNCTR,NAVQ,000101.00,3D,C2-SF2,DUAL*41
2018-12-06T00:01:01.3189Z $GNGGA,000101.00,4812.017205,N,12307.185237,W,2,14,0.7,11.042,M,0.000,M,4.0,0136*4A
2018-12-06T00:01:01.3920Z $GNGST,000101.00,0.1838,0.0391,0.0347,18.9682,0.0387,0.0352,0.0745*42
2018-12-06T00:01:01.4279Z $PNCTR,RXQ,000101,Y,14.86,8,0*74
2018-12-06T00:01:02.0720Z $GNZDA,000102.00,06,12,2018,00,00*75
2018-12-06T00:01:02.1483Z $GNRMC,000102.00,A,4812.016995,N,12307.181681,W,8.59,95.0,061218,,,D*5D
2018-12-06T00:01:02.1883Z $GNVTG,95.0,T,,M,8.59,N,15.92,K,D*11
2018-12-06T00:01:02.2300Z $PNCTR,NAVQ,000102.00,3D,C2-SF2,DUAL*42
2018-12-06T00:01:02.3189Z $GNGGA,000102.00,4812.016995,N,12307.181681,W,2,14,0.7,11.038,M,0.000,M,5.0,0136*4B
2018-12-06T00:01:02.3923Z $GNGST,000102.00,0.1855,0.0391,0.0347,18.9417,0.0387,0.0352,0.0745*44
2018-12-06T00:01:02.4282Z $PNCTR,RXQ,000102,Y,14.83,8,0*72
2018-12-06T00:01:03.0724Z $GNZDA,000103.00,06,12,2018,00,00*74
2018-12-06T00:01:03.1488Z $GNRMC,000103.00,A,4812.016783,N,12307.178136,W,8.57,95.1,061218,,,D*57
2018-12-06T00:01:03.1874Z $GNVTG,95.1,T,,M,8.57,N,15.88,K,D*15
2018-12-06T00:01:03.2304Z $PNCTR,NAVQ,000103.00,3D,C2-SF2,DUAL*43
2018-12-06T00:01:03.3193Z $GNGGA,000103.00,4812.016783,N,12307.178136,W,2,14,0.7,11.043,M,0.000,M,6.0,0136*41
2018-12-06T00:01:03.3932Z $GNGST,000103.00,0.1797,0.0391,0.0347,18.9165,0.0387,0.0352,0.0745*44
2018-12-06T00:01:03.4272Z $PNCTR,RXQ,000103,Y,14.85,8,0*75
2018-12-06T00:01:04.0725Z $GNZDA,000104.00,06,12,2018,00,00*73
2018-12-06T00:01:04.1490Z $GNRMC,000104.00,A,4812.016576,N,12307.174588,W,8.58,95.0,061218,,,D*5B
2018-12-06T00:01:04.1880Z $GNVTG,95.0,T,,M,8.58,N,15.89,K,D*1A
2018-12-06T00:01:04.2299Z $PNCTR,NAVQ,000104.00,3D,C2-SF2,DUAL*44
2018-12-06T00:01:04.3188Z $GNGGA,000104.00,4812.016576,N,12307.174588,W,2,14,0.7,11.046,M,0.000,M,4.0,0136*44
2018-12-06T00:01:04.3922Z $GNGST,000104.00,0.1790,0.0391,0.0347,18.8942,0.0387,0.0352,0.0745*48
2018-12-06T00:01:04.4281Z $PNCTR,RXQ,000104,Y,14.84,8,0*73
2018-12-06T00:01:05.0722Z $GNZDA,000105.00,06,12,2018,00,00*72
2018-12-06T00:01:05.1485Z $GNRMC,000105.00,A,4812.016378,N,12307.171030,W,8.60,94.7,061218,,,D*5C
2018-12-06T00:01:05.1873Z $GNVTG,94.7,T,,M,8.60,N,15.93,K,D*1C
2018-12-06T00:01:05.2302Z $PNCTR,NAVQ,000105.00,3D,C2-SF2,DUAL*45
2018-12-06T00:01:05.3192Z $GNGGA,000105.00,4812.016378,N,12307.171030,W,2,14,0.7,11.046,M,0.000,M,4.0,0136*4E
2018-12-06T00:01:05.3926Z $GNGST,000105.00,0.1498,0.0391,0.0347,18.8612,0.0387,0.0352,0.0745*48
2018-12-06T00:01:05.4284Z $PNCTR,RXQ,000105,Y,14.74,8,0*7D
2018-12-06T00:01:06.0725Z $GNZDA,000106.00,06,12,2018,00,00*71
2018-12-06T00:01:06.1488Z $GNRMC,000106.00,A,4812.016176,N,12307.167478,W,8.59,94.8,061218,,,D*59
2018-12-06T00:01:06.1875Z $GNVTG,94.8,T,,M,8.59,N,15.90,K,D*1A
2018-12-06T00:01:06.2305Z $PNCTR,NAVQ,000106.00,3D,C2-SF2,DUAL*46
2018-12-06T00:01:06.3198Z $GNGGA,000106.00,4812.016176,N,12307.167478,W,2,14,0.7,11.042,M,0.000,M,5.0,0136*4B
2018-12-06T00:01:06.3930Z $GNGST,000106.00,0.1411,0.0391,0.0347,18.8345,0.0387,0.0352,0.0745*4D
2018-12-06T00:01:06.4274Z $PNCTR,RXQ,000106,Y,14.73,8,0*79
2018-12-06T00:01:07.0725Z $GNZDA,000107.00,06,12,2018,00,00*70
2018-12-06T00:01:07.1489Z $GNRMC,000107.00,A,4812.015977,N,12307.163927,W,8.58,94.8,061218,,,D*50
2018-12-06T00:01:07.1876Z $GNVTG,94.8,T,,M,8.58,N,15.88,K,D*12
2018-12-06T00:01:07.2306Z $PNCTR,NAVQ,000107.00,3D,C2-SF2,DUAL*47
2018-12-06T00:01:07.3196Z $GNGGA,000107.00,4812.015977,N,12307.163927,W,2,14,0.7,11.042,M,0.000,M,6.0,0136*40
2018-12-06T00:01:07.3931Z $GNGST,000107.00,0.1313,0.0391,0.0347,18.8091,0.0387,0.0352,0.0745*43
2018-12-06T00:01:07.4275Z $PNCTR,RXQ,000107,Y,14.86,8,0*72
2018-12-06T00:01:08.0729Z $GNZDA,000108.00,06,12,2018,00,00*7F
2018-12-06T00:01:08.1478Z $GNRMC,000108.00,A,4812.015780,N,12307.160368,W,8.60,94.7,061218,,,D*5F
2018-12-06T00:01:08.1878Z $GNVTG,94.7,T,,M,8.60,N,15.93,K,D*1C
2018-12-06T00:01:08.2308Z $PNCTR,NAVQ,000108.00,3D,C2-SF2,DUAL*48
2018-12-06T00:01:08.3184Z $GNGGA,000108.00,4812.015780,N,12307.160368,W,2,14,0.7,11.035,M,0.000,M,4.0,0136*49
2018-12-06T00:01:08.3933Z $GNGST,000108.00,0.1291,0.0391,0.0347,18.7867,0.0387,0.0352,0.0745*49
2018-12-06T00:01:08.4277Z $PNCTR,RXQ,000108,Y,14.97,8,0*7D
2018-12-06T00:01:09.0717Z $GNZDA,000109.00,06,12,2018,00,00*7E
2018-12-06T00:01:09.1480Z $GNRMC,000109.00,A,4812.015580,N,12307.156817,W,8.58,94.8,061218,,,D*5E
2018-12-06T00:01:09.1881Z $GNVTG,94.8,T,,M,8.58,N,15.90,K,D*1B
2018-12-06T00:01:09.2298Z $PNCTR,NAVQ,000109.00,3D,C2-SF2,DUAL*49
2018-12-06T00:01:09.3190Z $GNGGA,000109.00,4812.015580,N,12307.156817,W,2,14,0.7,11.033,M,0.000,M,4.0,0136*4A
2018-12-06T00:01:09.3925Z $GNGST,000109.00,0.1155,0.0391,0.0347,18.7535,0.0387,0.0352,0.0745*49
2018-12-06T00:01:09.4285Z $PNCTR,RXQ,000109,Y,14.90,8,0*7B
2018-12-06T00:01:10.0722Z $GNZDA,000110.00,06,12,2018,00,00*76
2018-12-06T00:01:10.1487Z $GNRMC,000110.00,A,4812.015375,N,12307.153274,W,8.56,94.9,061218,,,D*5F
2018-12-06T00:01:10.1874Z $GNVTG,94.9,T,,M,8.56,N,15.86,K,D*13
2018-12-06T00:01:10.2305Z $PNCTR,NAVQ,000110.00,3D,C2-SF2,DUAL*41
2018-12-06T00:01:10.3193Z $GNGGA,000110.00,4812.015375,N,12307.153274,W,2,14,0.7,11.037,M,0.000,M,5.0,0136*41
2018-12-06T00:01:10.3929Z $GNGST,000110.00,0.1183,0.0391,0.0347,18.7267,0.0387,0.0352,0.0745*4A
2018-12-06T00:01:10.4272Z $PNCTR,RXQ,000110,Y,14.93,8,0*70
2018-12-06T00:01:11.0717Z $GNZDA,000111.00,06,12,2018,00,00*77
2018-12-06T00:01:11.1479Z $GNRMC,000111.00,A,4812.015170,N,12307.149723,W,8.58,94.9,061218,,,D*5B
2018-12-06T00:01:11.1880Z $GNVTG,94.9,T,,M,8.58,N,15.89,K,D*12
2018-12-06T00:01:11.2296Z $PNCTR,NAVQ,000111.00,3D,C2-SF2,DUAL*40
2018-12-06T00:01:11.3186Z $GNGGA,000111.00,4812.015170,N,12307.149723,W,2,14,0.7,11.037,M,0.000,M,6.0,0136*48
2018-12-06T00:01:11.3919Z $GNGST,000111.00,0.1338,0.0391,0.0347,18.7011,0.0387,0.0352,0.0745*4A
2018-12-06T00:01:11.4278Z $PNCTR,RXQ,000111,Y,14.96,8,0*74
2018-12-06T00:01:12.0717Z $GNZDA,000112.00,06,12,2018,00,00*74
2018-12-06T00:01:12.1483Z $GNRMC,000112.00,A,4812.014960,N,12307.146171,W,8.59,95.0,061218,,,D*57
2018-12-06T00:01:12.1870Z $GNVTG,95.0,T,,M,8.59,N,15.91,K,D*12
2018-12-06T00:01:12.2304Z $PNCTR,NAVQ,000112.00,3D,C2-SF2,DUAL*43
2018-12-06T00:01:12.3192Z $GNGGA,000112.00,4812.014960,N,12307.146171,W,2,14,0.7,11.039,M,0.000,M,4.0,0136*41
2018-12-06T00:01:12.3928Z $GNGST,000112.00,0.1270,0.0391,0.0347,18.6787,0.0387,0.0352,0.0745*4D
2018-12-06T00:01:12.4273Z $PNCTR,RXQ,000112,Y,15.01,8,0*78
2018-12-06T00:01:13.0725Z $GNZDA,000113.00,06,12,2018,00,00*75
2018-12-06T00:01:13.1475Z $GNRMC,000113.00,A,4812.014747,N,12307.142626,W,8.57,95.1,061218,,,D*53
2018-12-06T00:01:13.1875Z $GNVTG,95.1,T,,M,8.57,N,15.87,K,D*1A
2018-12-06T00:01:13.2305Z $PNCTR,NAVQ,000113.00,3D,C2-SF2,DUAL*42
2018-12-06T00:01:13.3181Z $GNGGA,000113.00,4812.014747,N,12307.142626,W,2,14,0.7,11.042,M,0.000,M,4.0,0136*46
2018-12-06T00:01:13.3930Z $GNGST,000113.00,0.1304,0.0391,0.0347,18.6453,0.0387,0.0352,0.0744*45
2018-12-06T00:01:13.4274Z $PNCTR,RXQ,000113,Y,15.07,8,0*7F
2018-12-06T00:01:14.0715Z $GNZDA,000114.00,06,12,2018,00,00*72
2018-12-06T00:01:14.1479Z $GNRMC,000114.00,A,4812.014527,N,12307.139082,W,8.57,95.3,061218,,,D*56
2018-12-06T00:01:14.1879Z $GNVTG,95.3,T,,M,8.57,N,15.87,K,D*18
2018-12-06T00:01:14.2299Z $PNCTR,NAVQ,000114.00,3D,C2-SF2,DUAL*45
2018-12-06T00:01:14.3188Z $GNGGA,000114.00,4812.014527,N,12307.139082,W,2,14,0.7,11.040,M,0.000,M,5.0,0136*42
2018-12-06T00:01:14.3922Z $GNGST,000114.00,0.1311,0.0391,0.0347,18.6183,0.0387,0.0352,0.0744*4E
2018-12-06T00:01:14.4281Z $PNCTR,RXQ,000114,Y,15.26,8,0*7B
2018-12-06T00:01:15.0721Z $GNZDA,000115.00,06,12,2018,00,00*73
2018-12-06T00:01:15.1484Z $GNRMC,000115.00,A,4812.014302,N,12307.135525,W,8.60,95.4,061218,,,D*51
2018-12-06T00:01:15.1871Z $GNVTG,95.4,T,,M,8.60,N,15.93,K,D*1E
2018-12-06T00:01:15.2301Z $PNCTR,NAVQ,000115.00,3D,C2-SF2,DUAL*44
2018-12-06T00:01:15.3191Z $GNGGA,000115.00,4812.014302,N,12307.135525,W,2,14,0.7,11.035,M,0.000,M,6.0,0136*47
2018-12-06T00:01:15.3924Z $GNGST,000115.00,0.1512,0.0391,0.0347,18.5927,0.0387,0.0352,0.0744*4F
2018-12-06T00:01:15.4270Z $PNCTR,RXQ,000115,Y,15.33,8,0*7E
2018-12-06T00:01:16.0724Z $GNZDA,000116.00,06,12,2018,00,00*70
2018-12-06T00:01:16.1475Z $GNRMC,000116.00,A,4812.014073,N,12307.131977,W,8.58,95.5,061218,,,D*52
2018-12-06T00:01:16.1876Z $GNVTG,95.5,T,,M,8.58,N,15.90,K,D*17
2018-12-06T00:01:16.2293Z $PNCTR,NAVQ,000116.00,3D,C2-SF2,DUAL*47
2018-12-06T00:01:16.3183Z $GNGGA,000116.00,4812.014073,N,12307.131977,W,2,14,0.7,11.031,M,0.000,M,4.0,0136*48
2018-12-06T00:01:16.3915Z $GNGST,000116.00,0.1515,0.0391,0.0347,18.5701,0.0387,0.0352,0.0744*41
2018-12-06T00:01:16.4275Z $PNCTR,RXQ,000116,Y,15.40,8,0*79
2018-12-06T00:01:17.0714Z $GNZDA,000117.00,06,12,2018,00,00*71
2018-12-06T00:01:17.1477Z $GNRMC,000117.00,A,4812.013848,N,12307.128436,W,8.57,95.5,061218,,,D*5B
2018-12-06T00:01:17.1877Z $GNVTG,95.5,T,,M,8.57,N,15.86,K,D*1F
2018-12-06T00:01:17.2294Z $PNCTR,NAVQ,000117.00,3D,C2-SF2,DUAL*46
2018-12-06T00:01:17.3183Z $GNGGA,000117.00,4812.013848,N,12307.128436,W,2,14,0.7,11.029,M,0.000,M,4.0,0136*47
2018-12-06T00:01:17.3917Z $GNGST,000117.00,0.1645,0.0391,0.0347,18.5366,0.0387,0.0352,0.0744*43
2018-12-06T00:01:17.4280Z $PNCTR,RXQ,000117,Y,15.38,8,0*77
2018-12-06T00:01:18.0718Z $GNZDA,000118.00,06,12,2018,00,00*7E
2018-12-06T00:01:18.1483Z $GNRMC,000118.00,A,4812.013623,N,12307.124884,W,8.59,95.4,061218,,,D*51
2018-12-06T00:01:18.1869Z $GNVTG,95.4,T,,M,8.59,N,15.92,K,D*15
2018-12-06T00:01:18.2300Z $PNCTR,NAVQ,000118.00,3D,C2-SF2,DUAL*49
2018-12-06T00:01:18.3189Z $GNGGA,000118.00,4812.013623,N,12307.124884,W,2,14,0.7,11.026,M,0.000,M,5.0,0136*4C
2018-12-06T00:01:18.3924Z $GNGST,000118.00,0.1504,0.0391,0.0347,18.5095,0.0387,0.0352,0.0744*45
2018-12-06T00:01:18.4268Z $PNCTR,RXQ,000118,Y,15.40,8,0*77
2018-12-06T00:01:19.0723Z $GNZDA,000119.00,06,12,2018,00,00*7F
2018-12-06T00:01:19.1474Z $GNRMC,000119.00,A,4812.013396,N,12307.121335,W,8.59,95.5,061218,,,D*5E
2018-12-06T00:01:19.1873Z $GNVTG,95.5,T,,M,8.59,N,15.91,K,D*17
2018-12-06T00:01:19.2304Z $PNCTR,NAVQ,000119.00,3D,C2-SF2,DUAL*48
2018-12-06T00:01:19.3180Z $GNGGA,000119.00,4812.013396,N,12307.121335,W,2,14,0.7,11.035,M,0.000,M,6.0,0136*43
2018-12-06T00:01:19.3928Z $GNGST,000119.00,0.1511,0.0391,0.0348,18.4837,0.0387,0.0352,0.0744*4E
2018-12-06T00:01:19.4272Z $PNCTR,RXQ,000119,Y,15.46,8,0*70
2018-12-06T00:01:20.0711Z $GNZDA,000120.00,06,12,2018,00,00*75
2018-12-06T00:01:20.1476Z $GNRMC,000120.00,A,4812.013165,N,12307.117784,W,8.59,95.5,061218,,,D*51
2018-12-06T00:01:20.1876Z $GNVTG,95.5,T,,M,8.59,N,15.91,K,D*17
2018-12-06T00:01:20.2291Z $PNCTR,NAVQ,000120.00,3D,C2-SF2,DUAL*42
2018-12-06T00:01:20.3180Z $GNGGA,000120.00,4812.013165,N,12307.117784,W,2,14,0.7,11.035,M,0.000,M,4.0,0136*4E
2018-12-06T00:01:20.3916Z $GNGST,000120.00,0.1594,0.0391,0.0348,18.4610,0.0387,0.0352,0.0744*42
2018-12-06T00:01:20.4274Z $PNCTR,RXQ,000120,Y,15.47,8,0*7B
2018-12-06T00:01:21.0715Z $GNZDA,000121.00,06,12,2018,00,00*74
2018-12-06T00:01:21.1478Z $GNRMC,000121.00,A,4812.012930,N,12307.114233,W,8.60,95.6,061218,,,D*5A
2018-12-06T00:01:21.1866Z $GNVTG,95.6,T,,M,8.60,N,15.92,K,D*1D
2018-12-06T00:01:21.2296Z $PNCTR,NAVQ,000121.00,3D,C2-SF2,DUAL*43
2018-12-06T00:01:21.3185Z $GNGGA,000121.00,4812.012930,N,12307.114233,W,2,14,0.7,11.038,M,0.000,M,4.0,0136*41
2018-12-06T00:01:21.3919Z $GNGST,000121.00,0.1503,0.0391,0.0348,18.4273,0.0387,0.0352,0.0744*4C
2018-12-06T00:01:21.4277Z $PNCTR,RXQ,000121,Y,15.45,9,0*79
2018-12-06T00:01:22.0717Z $GNZDA,000122.00,06,12,2018,00,00*77
2018-12-06T00:01:22.1480Z $GNRMC,000122.00,A,4812.012691,N,12307.110685,W,8.59,95.8,061218,,,D*54
2018-12-06T00:01:22.1868Z $GNVTG,95.8,T,,M,8.59,N,15.91,K,D*1A
2018-12-06T00:01:22.2298Z $PNCTR,NAVQ,000122.00,3D,C2-SF2,DUAL*40
2018-12-06T00:01:22.3188Z $GNGGA,000122.00,4812.012691,N,12307.110685,W,2,14,0.7,11.042,M,0.000,M,5.0,0136*47
2018-12-06T00:01:22.3921Z $GNGST,000122.00,0.1317,0.0391,0.0348,18.4001,0.0387,0.0352,0.0744*4B
2018-12-06T00:01:22.4267Z $PNCTR,RXQ,000122,Y,15.38,9,0*70
2018-12-06T00:01:23.0719Z $GNZDA,000123.00,06,12,2018,00,00*76
2018-12-06T00:01:23.1469Z $GNRMC,000123.00,A,4812.012450,N,12307.107139,W,8.58,95.8,061218,,,D*5D
2018-12-06T00:01:23.1870Z $GNVTG,95.8,T,,M,8.58,N,15.90,K,D*1A
2018-12-06T00:01:23.2300Z $PNCTR,NAVQ,000123.00,3D,C2-SF2,DUAL*41
2018-12-06T00:01:23.3174Z $GNGGA,000123.00,4812.012450,N,12307.107139,W,2,14,0.7,11.042,M,0.000,M,6.0,0136*4C
2018-12-06T00:01:23.3923Z $GNGST,000123.00,0.1401,0.0391,0.0348,18.3741,0.0387,0.0352,0.0744*4E
2018-12-06T00:01:23.4269Z $PNCTR,RXQ,000123,Y,15.20,9,0*78
2018-12-06T00:01:24.0710Z $GNZDA,000124.00,06,12,2018,00,00*71
2018-12-06T00:01:24.1473Z $GNRMC,000124.00,A,4812.012209,N,12307.103599,W,8.58,95.8,061218,,,D*5A
2018-12-06T00:01:24.1875Z $GNVTG,95.8,T,,M,8.58,N,15.88,K,D*13
2018-12-06T00:01:24.2291Z $PNCTR,NAVQ,000124.00,3D,C2-SF2,DUAL*46
2018-12-06T00:01:24.3180Z $GNGGA,000124.00,4812.012209,N,12307.103599,W,2,14,0.7,11.038,M,0.000,M,4.0,0136*44
2018-12-06T00:01:24.3914Z $GNGST,000124.00,0.1512,0.0391,0.0348,18.3514,0.0387,0.0352,0.0744*48
2018-12-06T00:01:24.4274Z $PNCTR,RXQ,000124,Y,15.10,9,0*7C
2018-12-06T00:01:25.0713Z $GNZDA,000125.00,06,12,2018,00,00*70
2018-12-06T00:01:25.1476Z $GNRMC,000125.00,A,4812.011956,N,12307.100058,W,8.58,96.1,061218,,,D*58
2018-12-06T00:01:25.1863Z $GNVTG,96.1,T,,M,8.58,N,15.88,K,D*19
2018-12-06T00:01:25.2293Z $PNCTR,NAVQ,000125.00,3D,C2-SF2,DUAL*47
2018-12-06T00:01:25.3182Z $GNGGA,000125.00,4812.011956,N,12307.100058,W,2,14,0.7,11.031,M,0.000,M,4.0,0136*45
2018-12-06T00:01:25.3917Z $GNGST,000125.00,0.1385,0.0391,0.0348,18.3175,0.0387,0.0352,0.0744*42
2018-12-06T00:01:25.4276Z $PNCTR,RXQ,000125,Y,15.09,9,0*75
2018-12-06T00:01:26.0720Z $GNZDA,000126.00,06,12,2018,00,00*73
2018-12-06T00:01:26.1468Z $GNRMC,000126.00,A,4812.011695,N,12307.096517,W,8.58,96.3,061218,,,D*59
2018-12-06T00:01:26.1870Z $GNVTG,96.3,T,,M,8.58,N,15.90,K,D*12
2018-12-06T00:01:26.2300Z $PNCTR,NAVQ,000126.00,3D,C2-SF2,DUAL*44
2018-12-06T00:01:26.3175Z $GNGGA,000126.00,4812.011695,N,12307.096517,W,2,14,0.7,11.028,M,0.000,M,5.0,0136*4F
2018-12-06T00:01:26.3923Z $GNGST,000126.00,0.1281,0.0391,0.0348,18.2901,0.0387,0.0352,0.0744*4E
2018-12-06T00:01:26.4268Z $PNCTR,RXQ,000126,Y,15.08,9,0*77
2018-12-06T00:01:27.0721Z $GNZDA,000127.00,06,12,2018,00,00*72
2018-12-06T00:01:27.1484Z $GNRMC,000127.00,A,4812.011423,N,12307.092972,W,8.59,96.6,061218,,,D*58
2018-12-06T00:01:27.1871Z $GNVTG,96.6,T,,M,8.59,N,15.91,K,D*17
2018-12-06T00:01:27.2301Z $PNCTR,NAVQ,000127.00,3D,C2-SF2,DUAL*45
2018-12-06T00:01:27.3193Z $GNGGA,000127.00,4812.011423,N,12307.092972,W,2,14,0.7,11.019,M,0.000,M,6.0,0136*4B
2018-12-06T00:01:27.3924Z $GNGST,000127.00,0.1195,0.0391,0.0348,18.2641,0.0387,0.0352,0.0744*42
2018-12-06T00:01:27.4269Z $PNCTR,RXQ,000127,Y,15.07,9,0*79
2018-12-06T00:01:28.0723Z $GNZDA,000128.00,06,12,2018,00,00*7D
2018-12-06T00:01:28.1473Z $GNRMC,000128.00,A,4812.011143,N,12307.089435,W,8.58,96.7,061218,,,D*50
2018-12-06T00:01:28.1873Z $GNVTG,96.7,T,,M,8.58,N,15.89,K,D*1E
2018-12-06T00:01:28.2304Z $PNCTR,NAVQ,000128.00,3D,C2-SF2,DUAL*4A
2018-12-06T00:01:28.3179Z $GNGGA,000128.00,4812.011143,N,12307.089435,W,2,14,0.7,11.019,M,0.000,M,4.0,0136*41
2018-12-06T00:01:28.3928Z $GNGST,000128.00,0.1186,0.0391,0.0348,18.2412,0.0387,0.0352,0.0744*4B
2018-12-06T00:01:28.4273Z $PNCTR,RXQ,000128,Y,15.06,9,0*77
2018-12-06T00:01:29.0725Z $GNZDA,000129.00,06,12,2018,00,00*7C
2018-12-06T00:01:29.1475Z $GNRMC,000129.00,A,4812.010865,N,12307.085902,W,8.57,96.7,061218,,,D*57
2018-12-06T00:01:29.1875Z $GNVTG,96.7,T,,M,8.57,N,15.87,K,D*1F
2018-12-06T00:01:29.2306Z $PNCTR,NAVQ,000129.00,3D,C2-SF2,DUAL*4B
2018-12-06T00:01:29.3182Z $GNGGA,000129.00,4812.010865,N,12307.085902,W,2,14,0.7,11.025,M,0.000,M,4.0,0136*46
2018-12-06T00:01:29.3930Z $GNGST,000129.00,0.1389,0.0391,0.0348,18.2072,0.0387,0.0352,0.0744*45
2018-12-06T00:01:29.4274Z $PNCTR,RXQ,000129,Y,15.27,9,0*75
2018-12-06T00:01:30.0718Z $GNZDA,000130.00,06,12,2018,00,00*74
2018-12-06T00:01:30.1482Z $GNRMC,000130.00,A,4812.010591,N,12307.082361,W,8.59,96.6,061218,,,D*5E
2018-12-06T00:01:30.1869Z $GNVTG,96.6,T,,M,8.59,N,15.90,K,D*16
2018-12-06T00:01:30.2298Z $PNCTR,NAVQ,000130.00,3D,C2-SF2,DUAL*43
2018-12-06T00:01:30.3187Z $GNGGA,000130.00,4812.010591,N,12307.082361,W,2,14,0.7,11.025,M,0.000,M,5.0,0136*41
2018-12-06T00:01:30.3922Z $GNGST,000130.00,0.1311,0.0391,0.0348,18.1796,0.0387,0.0352,0.0744*42
2018-12-06T00:01:30.4280Z $PNCTR,RXQ,000130,Y,15.40,9,0*7C
2018-12-06T00:01:31.0722Z $GNZDA,000131.00,06,12,2018,00,00*75
2018-12-06T00:01:31.1475Z $GNRMC,000131.00,A,4812.010322,N,12307.078823,W,8.57,96.5,061218,,,D*54
2018-12-06T00:01:31.1876Z $GNVTG,96.5,T,,M,8.57,N,15.88,K,D*12
2018-12-06T00:01:31.2293Z $PNCTR,NAVQ,000131.00,3D,C2-SF2,DUAL*42
2018-12-06T00:01:31.3181Z $GNGGA,000131.00,4812.010322,N,12307.078823,W,2,14,0.7,11.030,M,0.000,M,6.0,0136*41
2018-12-06T00:01:31.3917Z $GNGST,000131.00,0.1462,0.0391,0.0348,18.1535,0.0387,0.0352,0.0744*4B
2018-12-06T00:01:31.4278Z $PNCTR,RXQ,000131,Y,15.42,9,0*7F
2018-12-06T00:01:32.0719Z $GNZDA,000132.00,06,12,2018,00,00*76
2018-12-06T00:01:32.1483Z $GNRMC,000132.00,A,4812.010064,N,12307.075279,W,8.58,96.2,061218,,,D*56
2018-12-06T00:01:32.1869Z $GNVTG,96.2,T,,M,8.58,N,15.89,K,D*1B
2018-12-06T00:01:32.2299Z $PNCTR,NAVQ,000132.00,3D,C2-SF2,DUAL*41
2018-12-06T00:01:32.3189Z $GNGGA,000132.00,4812.010064,N,12307.075279,W,2,14,0.7,11.034,M,0.000,M,4.0,0136*4D
2018-12-06T00:01:32.3924Z $GNGST,000132.00,0.1215,0.0391,0.0348,18.1305,0.0387,0.0352,0.0744*4B
2018-12-06T00:01:32.4268Z $PNCTR,RXQ,000132,Y,15.38,9,0*71
2018-12-06T00:01:33.0720Z $GNZDA,000133.00,06,12,2018,00,00*77
2018-12-06T00:01:33.1470Z $GNRMC,000133.00,A,4812.009816,N,12307.071726,W,8.60,95.9,061218,,,D*5A
2018-12-06T00:01:33.1870Z $GNVTG,95.9,T,,M,8.60,N,15.93,K,D*13
2018-12-06T00:01:33.2300Z $PNCTR,NAVQ,000133.00,3D,C2-SF2,DUAL*40
2018-12-06T00:01:33.3177Z $GNGGA,000133.00,4812.009816,N,12307.071726,W,2,14,0.7,11.031,M,0.000,M,4.0,0136*47
2018-12-06T00:01:33.3925Z $GNGST,000133.00,0.1450,0.0391,0.0348,18.0964,0.0387,0.0352,0.0744*41
2018-12-06T00:01:33.4269Z $PNCTR,RXQ,000133,Y,15.38,9,0*70
2018-12-06T00:01:34.0721Z $GNZDA,000134.00,06,12,2018,00,00*70
2018-12-06T00:01:34.1475Z $GNRMC,000134.00,A,4812.009578,N,12307.068180,W,8.59,95.7,061218,,,D*5E
2018-12-06T00:01:34.1869Z $GNVTG,95.7,T,,M,8.59,N,15.90,K,D*14
2018-12-06T00:01:34.2299Z $PNCTR,NAVQ,000134.00,3D,C2-SF2,DUAL*47
2018-12-06T00:01:34.3189Z $GNGGA,000134.00,4812.009578,N,12307.068180,W,2,14,0.7,11.032,M,0.000,M,5.0,0136*45
2018-12-06T00:01:34.3922Z $GNGST,000134.00,0.1602,0.0391,0.0348,18.0686,0.0387,0.0352,0.0744*40
2018-12-06T00:01:34.4281Z $PNCTR,RXQ,000134,Y,15.41,9,0*79
2018-12-06T00:01:35.0723Z $GNZDA,000135.00,06,12,2018,00,00*71
2018-12-06T00:01:35.1473Z $GNRMC,000135.00,A,4812.009336,N,12307.064640,W,8.57,95.9,061218,,,D*54
2018-12-06T00:01:35.1873Z $GNVTG,95.9,T,,M,8.57,N,15.87,K,D*12
2018-12-06T00:01:35.2303Z $PNCTR,NAVQ,000135.00,3D,C2-SF2,DUAL*46
2018-12-06T00:01:35.3179Z $GNGGA,000135.00,4812.009336,N,12307.064640,W,2,14,0.7,11.032,M,0.000,M,6.0,0136*4C
2018-12-06T00:01:35.3929Z $GNGST,000135.00,0.1694,0.0391,0.0348,18.0423,0.0387,0.0352,0.0743*44
2018-12-06T00:01:35.4272Z $PNCTR,RXQ,000135,Y,15.49,9,0*70
2018-12-06T00:01:36.0712Z $GNZDA,000136.00,06,12,2018,00,00*72
2018-12-06T00:01:36.1475Z $GNRMC,000136.00,A,4812.009083,N,12307.061099,W,8.57,96.1,061218,,,D*56
2018-12-06T00:01:36.1877Z $GNVTG,96.1,T,,M,8.57,N,15.88,K,D*16
2018-12-06T00:01:36.2293Z $PNCTR,NAVQ,000136.00,3D,C2-SF2,DUAL*45
2018-12-06T00:01:36.3181Z $GNGGA,000136.00,4812.009083,N,12307.061099,W,2,14,0.7,11.034,M,0.000,M,4.0,0136*41
2018-12-06T00:01:36.3915Z $GNGST,000136.00,0.1315,0.0391,0.0348,18.0193,0.0387,0.0352,0.0743*45
2018-12-06T00:01:36.4278Z $PNCTR,RXQ,000136,Y,15.49,9,0*73
2018-12-06T00:01:37.0720Z $GNZDA,000137.00,06,12,2018,00,00*73
2018-12-06T00:01:37.1485Z $GNRMC,000137.00,A,4812.008807,N,12307.057556,W,8.59,96.6,061218,,,D*58
2018-12-06T00:01:37.1873Z $GNVTG,96.6,T,,M,8.59,N,15.91,K,D*17
2018-12-06T00:01:37.2303Z $PNCTR,NAVQ,000137.00,3D,C2-SF2,DUAL*44
2018-12-06T00:01:37.3179Z $GNGGA,000137.00,4812.008807,N,12307.057556,W,2,14,0.7,11.035,M,0.000,M,4.0,0136*47
2018-12-06T00:01:37.3928Z $GNGST,000137.00,0.1265,0.0391,0.0348,17.9850,0.0387,0.0352,0.0743*42
2018-12-06T00:01:37.4272Z $PNCTR,RXQ,000137,Y,15.49,9,0*72
2018-12-06T00:01:38.0712Z $GNZDA,000138.00,06,12,2018,00,00*7C
2018-12-06T00:01:38.1476Z $GNRMC,000138.00,A,4812.008510,N,12307.054018,W,8.59,97.2,061218,,,D*55
2018-12-06T00:01:38.1877Z $GNVTG,97.2,T,,M,8.59,N,15.91,K,D*12
2018-12-06T00:01:38.2292Z $PNCTR,NAVQ,000138.00,3D,C2-SF2,DUAL*4B
2018-12-06T00:01:38.3182Z $GNGGA,000138.00,4812.008510,N,12307.054018,W,2,14,0.7,11.037,M,0.000,M,5.0,0136*4C
2018-12-06T00:01:38.3916Z $GNGST,000138.00,0.1254,0.0391,0.0348,17.9571,0.0387,0.0352,0.0743*41
2018-12-06T00:01:38.4275Z $PNCTR,RXQ,000138,Y,15.48,9,0*7C
2018-12-06T00:01:39.0717Z $GNZDA,000139.00,06,12,2018,00,00*7D
2018-12-06T00:01:39.1481Z $GNRMC,000139.00,A,4812.008186,N,12307.050482,W,8.59,97.7,061218,,,D*59
2018-12-06T00:01:39.1867Z $GNVTG,97.7,T,,M,8.59,N,15.91,K,D*17
2018-12-06T00:01:39.2297Z $PNCTR,NAVQ,000139.00,3D,C2-SF2,DUAL*4A
2018-12-06T00:01:39.3186Z $GNGGA,000139.00,4812.008186,N,12307.050482,W,2,14,0.7,11.036,M,0.000,M,6.0,0136*47
2018-12-06T00:01:39.3921Z $GNGST,000139.00,0.1261,0.0391,0.0348,17.9307,0.0388,0.0352,0.0743*4E
2018-12-06T00:01:39.4266Z $PNCTR,RXQ,000139,Y,15.38,9,0*7A
2018-12-06T00:01:40.0721Z $GNZDA,000140.00,06,12,2018,00,00*73
2018-12-06T00:01:40.1484Z $GNRMC,000140.00,A,4812.007851,N,12307.046940,W,8.61,98.1,061218,,,D*5D
2018-12-06T00:01:40.1872Z $GNVTG,98.1,T,,M,8.61,N,15.95,K,D*11
2018-12-06T00:01:40.2301Z $PNCTR,NAVQ,000140.00,3D,C2-SF2,DUAL*44
2018-12-06T00:01:40.3189Z $GNGGA,000140.00,4812.007851,N,12307.046940,W,2,14,0.7,11.031,M,0.000,M,4.0,0136*44
2018-12-06T00:01:40.3928Z $GNGST,000140.00,0.1204,0.0391,0.0348,17.9076,0.0388,0.0352,0.0743*46
2018-12-06T00:01:40.4273Z $PNCTR,RXQ,000140,Y,15.32,9,0*7E
2018-12-06T00:01:41.0713Z $GNZDA,000141.00,06,12,2018,00,00*72
2018-12-06T00:01:41.1476Z $GNRMC,000141.00,A,4812.007516,N,12307.043404,W,8.61,98.1,061218,,,D*5A
2018-12-06T00:01:41.1863Z $GNVTG,98.1,T,,M,8.61,N,15.94,K,D*10
2018-12-06T00:01:41.2293Z $PNCTR,NAVQ,000141.00,3D,C2-SF2,DUAL*45
2018-12-06T00:01:41.3182Z $GNGGA,000141.00,4812.007516,N,12307.043404,W,2,14,0.7,11.025,M,0.000,M,4.0,0136*46
2018-12-06T00:01:41.3916Z $GNGST,000141.00,0.1361,0.0391,0.0348,17.8731,0.0388,0.0352,0.0743*40
2018-12-06T00:01:41.4275Z $PNCTR,RXQ,000141,Y,15.36,9,0*7B
2018-12-06T00:01:42.0716Z $GNZDA,000142.00,06,12,2018,00,00*71
2018-12-06T00:01:42.1479Z $GNRMC,000142.00,A,4812.007195,N,12307.039872,W,8.58,97.7,061218,,,D*55
2018-12-06T00:01:42.1866Z $GNVTG,97.7,T,,M,8.58,N,15.90,K,D*17
2018-12-06T00:01:42.2296Z $PNCTR,NAVQ,000142.00,3D,C2-SF2,DUAL*46
2018-12-06T00:01:42.3186Z $GNGGA,000142.00,4812.007195,N,12307.039872,W,2,14,0.7,11.023,M,0.000,M,5.0,0136*4D
2018-12-06T00:01:42.3920Z $GNGST,000142.00,0.1490,0.0391,0.0348,17.8451,0.0388,0.0352,0.0743*4F
2018-12-06T00:01:42.4282Z $PNCTR,RXQ,000142,Y,15.40,9,0*79
2018-12-06T00:01:43.0718Z $GNZDA,000143.00,06,12,2018,00,00*70
2018-12-06T00:01:43.1468Z $GNRMC,000143.00,A,4812.006896,N,12307.036339,W,8.57,97.2,061218,,,D*5E
2018-12-06T00:01:43.1868Z $GNVTG,97.2,T,,M,8.57,N,15.88,K,D*14
2018-12-06T00:01:43.2298Z $PNCTR,NAVQ,000143.00,3D,C2-SF2,DUAL*47
2018-12-06T00:01:43.3178Z $GNGGA,000143.00,4812.006896,N,12307.036339,W,2,14,0.7,11.024,M,0.000,M,6.0,0136*48
2018-12-06T00:01:43.3912Z $GNGST,000143.00,0.1643,0.0391,0.0348,17.8185,0.0388,0.0352,0.0743*4E
2018-12-06T00:01:43.4270Z $PNCTR,RXQ,000143,Y,15.48,9,0*70
2018-12-06T00:01:44.0708Z $GNZDA,000144.00,06,12,2018,00,00*77
2018-12-06T00:01:44.1471Z $GNRMC,000144.00,A,4812.006622,N,12307.032800,W,8.58,96.6,061218,,,D*57
2018-12-06T00:01:44.1872Z $GNVTG,96.6,T,,M,8.58,N,15.89,K,D*1F
2018-12-06T00:01:44.2289Z $PNCTR,NAVQ,000144.00,3D,C2-SF2,DUAL*40
2018-12-06T00:01:44.3178Z $GNGGA,000144.00,4812.006622,N,12307.032800,W,2,14,0.7,11.025,M,0.000,M,4.0,0136*48
2018-12-06T00:01:44.3911Z $GNGST,000144.00,0.1663,0.0391,0.0348,17.7953,0.0388,0.0352,0.0743*47
2018-12-06T00:01:44.4271Z $PNCTR,RXQ,000144,Y,15.46,9,0*79
2018-12-06T00:01:45.0728Z $GNZDA,000145.00,06,12,2018,00,00*76
2018-12-06T00:01:45.1478Z $GNRMC,000145.00,A,4812.006361,N,12307.029264,W,8.56,96.3,061218,,,D*5D
2018-12-06T00:01:45.1878Z $GNVTG,96.3,T,,M,8.56,N,15.86,K,D*1B
2018-12-06T00:01:45.2308Z $PNCTR,NAVQ,000145.00,3D,C2-SF2,DUAL*41
2018-12-06T00:01:45.3183Z $GNGGA,000145.00,4812.006361,N,12307.029264,W,2,14,0.7,11.019,M,0.000,M,4.0,0136*46
2018-12-06T00:01:45.3931Z $GNGST,000145.00,0.1666,0.0391,0.0348,17.7606,0.0388,0.0352,0.0743*4C
2018-12-06T00:01:45.4277Z $PNCTR,RXQ,000145,Y,15.30,9,0*79
2018-12-06T00:01:46.0718Z $GNZDA,000146.00,06,12,2018,00,00*75
2018-12-06T00:01:46.1483Z $GNRMC,000146.00,A,4812.006113,N,12307.025726,W,8.57,96.1,061218,,,D*55
2018-12-06T00:01:46.1874Z $GNVTG,96.1,T,,M,8.57,N,15.87,K,D*19
2018-12-06T00:01:46.2304Z $PNCTR,NAVQ,000146.00,3D,C2-SF2,DUAL*42
2018-12-06T00:01:46.3192Z $GNGGA,000146.00,4812.006113,N,12307.025726,W,2,14,0.7,11.019,M,0.000,M,5.0,0136*4C
2018-12-06T00:01:46.3929Z $GNGST,000146.00,0.1392,0.0391,0.0348,17.7325,0.0388,0.0352,0.0743*45
2018-12-06T00:01:46.4273Z $PNCTR,RXQ,000146,Y,15.07,9,0*7E
2018-12-06T00:01:47.0728Z $GNZDA,000147.00,06,12,2018,00,00*74
2018-12-06T00:01:47.1477Z $GNRMC,000147.00,A,4812.005860,N,12307.022183,W,8.59,96.1,061218,,,D*5A
2018-12-06T00:01:47.1878Z $GNVTG,96.1,T,,M,8.59,N,15.90,K,D*11
2018-12-06T00:01:47.2308Z $PNCTR,NAVQ,000147.00,3D,C2-SF2,DUAL*43
2018-12-06T00:01:47.3183Z $GNGGA,000147.00,4812.005860,N,12307.022183,W,2,14,0.7,11.019,M,0.000,M,6.0,0136*4E
2018-12-06T00:01:47.3933Z $GNGST,000147.00,0.1510,0.0391,0.0348,17.7058,0.0388,0.0352,0.0743*41
2018-12-06T00:01:47.4279Z $PNCTR,RXQ,000147,Y,15.03,9,0*7B
