2014-08-01T00:00:00.285000Z $INZDA,000000.17,01,08,2014,,*7E
2014-08-01T00:00:00.285000Z $INGGA,000000.16,2200.110899,S,01756.359432,W,1,12,0.7,-2.76,M,4.67,M,,*6C
2014-08-01T00:00:00.402000Z $INVTG,215.11,T,239.79,M,9.1,N,16.9,K,A*05
2014-08-01T00:00:00.522000Z $INRMC,000000.16,A,2200.110899,S,01756.359432,W,9.1,215.11,010814,24.7,W,A*3B
2014-08-01T00:00:00.522000Z $INHDT,218.26,T*1A
2014-08-01T00:00:00.522000Z $PSXN,20,1,0,0,0*3A
2014-08-01T00:00:00.522000Z $PSXN,22,0.03,-0.80*1F
2014-08-01T00:00:00.522000Z $PSXN,23,0.35,-1.74,218.26,0.58*13
2014-08-01T00:00:01.285000Z $INZDA,000001.17,01,08,2014,,*7F
2014-08-01T00:00:01.285000Z $INGGA,000001.16,2200.113054,S,01756.360985,W,1,12,0.7,-3.05,M,4.67,M,,*69
2014-08-01T00:00:01.402000Z $INVTG,213.80,T,238.48,M,9.5,N,17.5,K,A*01
2014-08-01T00:00:01.522000Z $INRMC,000001.16,A,2200.113054,S,01756.360985,W,9.5,213.80,010814,24.7,W,A*31
2014-08-01T00:00:01.522000Z $INHDT,217.99,T*11
2014-08-01T00:00:01.522000Z $PSXN,20,1,0,0,0*3A
2014-08-01T00:00:01.522000Z $PSXN,22,0.03,-0.80*1F
2014-08-01T00:00:01.522000Z $PSXN,23,0.35,-0.54,217.99,0.86*18
2014-08-01T00:00:02.285000Z $INZDA,000002.17,01,08,2014,,*7C
2014-08-01T00:00:02.285000Z $INGGA,000002.16,2200.115263,S,01756.362601,W,1,12,0.7,-2.85,M,4.67,M,,*62
2014-08-01T00:00:02.402000Z $INVTG,215.62,T,240.30,M,9.7,N,17.9,K,A*05
2014-08-01T00:00:02.521000Z $INRMC,000002.16,A,2200.115263,S,01756.362601,W,9.7,215.62,010814,24.7,W,A*3B
2014-08-01T00:00:02.521000Z $INHDT,217.84,T*1D
2014-08-01T00:00:02.521000Z $PSXN,20,1,0,0,0*3A
2014-08-01T00:00:02.521000Z $PSXN,22,0.03,-0.80*1F
2014-08-01T00:00:02.521000Z $PSXN,23,0.20,0.55,217.84,0.67*33
2014-08-01T00:00:03.285000Z $INZDA,000003.17,01,08,2014,,*7D
2014-08-01T00:00:03.285000Z $INGGA,000003.16,2200.117417,S,01756.364367,W,1,12,0.7,-2.52,M,4.67,M,,*6D
2014-08-01T00:00:03.402000Z $INVTG,218.96,T,243.64,M,9.8,N,18.2,K,A*0A
2014-08-01T00:00:03.521000Z $INRMC,000003.16,A,2200.117417,S,01756.364367,W,9.8,218.96,010814,24.7,W,A*37
2014-08-01T00:00:03.521000Z $INHDT,217.66,T*11
2014-08-01T00:00:03.521000Z $PSXN,20,1,0,0,0*3A
2014-08-01T00:00:03.521000Z $PSXN,22,0.03,-0.80*1F
2014-08-01T00:00:03.521000Z $PSXN,23,0.05,0.60,217.66,0.35*39
2014-08-01T00:00:04.285000Z $INZDA,000004.17,01,08,2014,,*7A
2014-08-01T00:00:04.285000Z $INGGA,000004.16,2200.119515,S,01756.366272,W,1,12,0.7,-2.42,M,4.67,M,,*61
2014-08-01T00:00:04.402000Z $INVTG,220.72,T,245.40,M,9.9,N,18.3,K,A*0B
2014-08-01T00:00:04.523000Z $INRMC,000004.16,A,2200.119515,S,01756.366272,W,9.9,220.72,010814,24.7,W,A*3A
2014-08-01T00:00:04.523000Z $INHDT,217.51,T*15
2014-08-01T00:00:04.523000Z $PSXN,20,1,0,0,0*3A
2014-08-01T00:00:04.523000Z $PSXN,22,0.03,-0.80*1F
2014-08-01T00:00:04.523000Z $PSXN,23,-0.14,-0.06,217.51,0.25*3C
2014-08-01T00:00:05.285000Z $INZDA,000005.17,01,08,2014,,*7B
2014-08-01T00:00:05.285000Z $INGGA,000005.16,2200.121589,S,01756.368209,W,1,12,0.7,-2.46,M,4.67,M,,*68
2014-08-01T00:00:05.402000Z $INVTG,219.81,T,244.49,M,9.8,N,18.2,K,A*05
2014-08-01T00:00:05.523000Z $INRMC,000005.16,A,2200.121589,S,01756.368209,W,9.8,219.81,010814,24.7,W,A*30
2014-08-01T00:00:05.523000Z $INHDT,217.32,T*10
2014-08-01T00:00:05.523000Z $PSXN,20,1,0,0,0*3A
2014-08-01T00:00:05.523000Z $PSXN,22,0.03,-0.80*1F
2014-08-01T00:00:05.523000Z $PSXN,23,-0.25,-0.37,217.32,0.28*34
2014-08-01T00:00:06.285000Z $INZDA,000006.17,01,08,2014,,*78
2014-08-01T00:00:06.285000Z $INGGA,000006.16,2200.123712,S,01756.370035,W,1,12,0.7,-2.42,M,4.67,M,,*69
2014-08-01T00:00:06.402000Z $INVTG,217.30,T,241.98,M,9.7,N,18.0,K,A*05
2014-08-01T00:00:06.522000Z $INRMC,000006.16,A,2200.123712,S,01756.370035,W,9.7,217.30,010814,24.7,W,A*3E
2014-08-01T00:00:06.522000Z $INHDT,217.20,T*13
2014-08-01T00:00:06.522000Z $PSXN,20,1,0,0,0*3A
2014-08-01T00:00:06.522000Z $PSXN,22,0.03,-0.80*1F
2014-08-01T00:00:06.522000Z $PSXN,23,-0.30,0.12,217.20,0.21*10
2014-08-01T00:00:07.285000Z $INZDA,000007.17,01,08,2014,,*79
2014-08-01T00:00:07.285000Z $INGGA,000007.16,2200.125858,S,01756.371746,W,1,12,0.7,-2.17,M,4.67,M,,*6D
2014-08-01T00:00:07.402000Z $INVTG,216.22,T,240.90,M,9.4,N,17.5,K,A*07
2014-08-01T00:00:07.523000Z $INRMC,000007.16,A,2200.125858,S,01756.371746,W,9.4,216.22,010814,24.7,W,A*3B
2014-08-01T00:00:07.523000Z $INHDT,217.34,T*16
2014-08-01T00:00:07.523000Z $PSXN,20,1,0,0,0*3A
2014-08-01T00:00:07.523000Z $PSXN,22,0.03,-0.80*1F
2014-08-01T00:00:07.523000Z $PSXN,23,-0.51,1.22,217.34,-0.04*3A
2014-08-01T00:00:08.285000Z $INZDA,000008.17,01,08,2014,,*76
2014-08-01T00:00:08.285000Z $INGGA,000008.16,2200.127930,S,01756.373404,W,1,12,0.7,-1.77,M,4.67,M,,*6D
2014-08-01T00:00:08.402000Z $INVTG,217.70,T,242.38,M,9.1,N,16.9,K,A*09
2014-08-01T00:00:08.523000Z $INRMC,000008.16,A,2200.127930,S,01756.373404,W,9.1,217.70,010814,24.7,W,A*3D
2014-08-01T00:00:08.523000Z $INHDT,217.73,T*15
2014-08-01T00:00:08.523000Z $PSXN,20,1,0,0,0*3A
2014-08-01T00:00:08.523000Z $PSXN,22,0.03,-0.80*1F
2014-08-01T00:00:08.523000Z $PSXN,23,-0.71,2.05,217.73,-0.44*39
2014-08-01T00:00:09.286000Z $INZDA,000009.17,01,08,2014,,*77
2014-08-01T00:00:09.286000Z $INGGA,000009.16,2200.129884,S,01756.375104,W,1,12,0.7,-1.37,M,4.67,M,,*6B
2014-08-01T00:00:09.402000Z $INVTG,220.52,T,245.20,M,8.9,N,16.6,K,A*05
2014-08-01T00:00:09.523000Z $INRMC,000009.16,A,2200.129884,S,01756.375104,W,8.9,220.52,010814,24.7,W,A*32
2014-08-01T00:00:09.523000Z $INHDT,218.12,T*1D
2014-08-01T00:00:09.523000Z $PSXN,20,1,0,0,0*3A
2014-08-01T00:00:09.523000Z $PSXN,22,0.03,-0.80*1F
2014-08-01T00:00:09.523000Z $PSXN,23,-0.62,1.60,218.12,-0.81*3A
2014-08-01T00:00:10.285000Z $INZDA,000010.17,01,08,2014,,*7F
2014-08-01T00:00:10.286000Z $INGGA,000010.16,2200.131745,S,01756.376896,W,1,12,0.7,-1.35,M,4.67,M,,*6B
2014-08-01T00:00:10.402000Z $INVTG,222.81,T,247.49,M,9.0,N,16.7,K,A*0D
2014-08-01T00:00:10.519000Z $INRMC,000010.16,A,2200.131745,S,01756.376896,W,9.0,222.81,010814,24.7,W,A*34
2014-08-01T00:00:10.519000Z $INHDT,218.21,T*1D
2014-08-01T00:00:10.519000Z $PSXN,20,1,0,0,0*3A
2014-08-01T00:00:10.519000Z $PSXN,22,0.03,-0.80*1F
2014-08-01T00:00:10.519000Z $PSXN,23,-0.15,-0.25,218.21,-0.83*15
2014-08-01T00:00:11.286000Z $INZDA,000011.17,01,08,2014,,*7E
2014-08-01T00:00:11.286000Z $INGGA,000011.16,2200.133608,S,01756.378775,W,1,12,0.7,-1.76,M,4.67,M,,*6B
2014-08-01T00:00:11.402000Z $INVTG,223.13,T,247.81,M,9.3,N,17.2,K,A*04
2014-08-01T00:00:11.523000Z $INRMC,000011.16,A,2200.133608,S,01756.378775,W,9.3,223.13,010814,24.7,W,A*3A
2014-08-01T00:00:11.523000Z $INHDT,218.00,T*1E
2014-08-01T00:00:11.523000Z $PSXN,20,1,0,0,0*3A
2014-08-01T00:00:11.523000Z $PSXN,22,0.03,-0.80*1F
2014-08-01T00:00:11.523000Z $PSXN,23,0.42,-2.05,218.00,-0.43*35
2014-08-01T00:00:12.286000Z $INZDA,000012.17,01,08,2014,,*7D
2014-08-01T00:00:12.286000Z $INGGA,000012.16,2200.135547,S,01756.380655,W,1,12,0.7,-2.29,M,4.67,M,,*6B
2014-08-01T00:00:12.402000Z $INVTG,220.93,T,245.61,M,9.5,N,17.6,K,A*01
2014-08-01T00:00:12.522000Z $INRMC,000012.16,A,2200.135547,S,01756.380655,W,9.5,220.93,010814,24.7,W,A*3E
2014-08-01T00:00:12.522000Z $INHDT,217.67,T*10
2014-08-01T00:00:12.522000Z $PSXN,20,1,0,0,0*3A
2014-08-01T00:00:12.522000Z $PSXN,22,0.03,-0.80*1F
2014-08-01T00:00:12.522000Z $PSXN,23,0.82,-2.06,217.67,0.10*1F
2014-08-01T00:00:13.285000Z $INZDA,000013.17,01,08,2014,,*7C
2014-08-01T00:00:13.285000Z $INGGA,000013.16,2200.137605,S,01756.382464,W,1,12,0.7,-2.57,M,4.67,M,,*66
2014-08-01T00:00:13.402000Z $INVTG,218.01,T,242.70,M,9.7,N,17.9,K,A*0B
2014-08-01T00:00:13.522000Z $INRMC,000013.16,A,2200.137605,S,01756.382464,W,9.7,218.01,010814,24.7,W,A*38
2014-08-01T00:00:13.522000Z $INHDT,217.39,T*1B
2014-08-01T00:00:13.522000Z $PSXN,20,1,0,0,0*3A
2014-08-01T00:00:13.522000Z $PSXN,22,0.03,-0.80*1F
2014-08-01T00:00:13.522000Z $PSXN,23,0.85,-0.25,217.39,0.42*17
2014-08-01T00:00:14.285000Z $INZDA,000014.17,01,08,2014,,*7B
2014-08-01T00:00:14.285000Z $INGGA,000014.16,2200.139767,S,01756.384187,W,1,12,0.7,-2.53,M,4.67,M,,*60
2014-08-01T00:00:14.402000Z $INVTG,215.89,T,240.57,M,9.7,N,17.9,K,A*01
2014-08-01T00:00:14.521000Z $INRMC,000014.16,A,2200.139767,S,01756.384187,W,9.7,215.89,010814,24.7,W,A*37
2014-08-01T00:00:14.521000Z $INHDT,217.27,T*14
2014-08-01T00:00:14.521000Z $PSXN,20,1,0,0,0*3A
2014-08-01T00:00:14.521000Z $PSXN,22,0.03,-0.80*1F
2014-08-01T00:00:14.521000Z $PSXN,23,0.32,1.66,217.27,0.43*3E
2014-08-01T00:00:15.285000Z $INZDA,000015.17,01,08,2014,,*7A
2014-08-01T00:00:15.285000Z $INGGA,000015.16,2200.141954,S,01756.385840,W,1,12,0.7,-2.32,M,4.67,M,,*64
2014-08-01T00:00:15.402000Z $INVTG,214.95,T,239.63,M,9.5,N,17.6,K,A*09
2014-08-01T00:00:15.522000Z $INRMC,000015.16,A,2200.141954,S,01756.385840,W,9.5,214.95,010814,24.7,W,A*3A
2014-08-01T00:00:15.522000Z $INHDT,217.28,T*1B
2014-08-01T00:00:15.522000Z $PSXN,20,1,0,0,0*3A
2014-08-01T00:00:15.522000Z $PSXN,22,0.03,-0.80*1F
2014-08-01T00:00:15.522000Z $PSXN,23,-0.45,2.08,217.28,0.27*15
2014-08-01T00:00:16.285000Z $INZDA,000016.17,01,08,2014,,*79
2014-08-01T00:00:16.285000Z $INGGA,000016.16,2200.144105,S,01756.387456,W,1,12,0.7,-2.24,M,4.67,M,,*60
2014-08-01T00:00:16.402000Z $INVTG,214.96,T,239.64,M,9.4,N,17.3,K,A*09
2014-08-01T00:00:16.522000Z $INRMC,000016.16,A,2200.144105,S,01756.387456,W,9.4,214.96,010814,24.7,W,A*3B
2014-08-01T00:00:16.522000Z $INHDT,217.33,T*11
2014-08-01T00:00:16.522000Z $PSXN,20,1,0,0,0*3A
2014-08-01T00:00:16.522000Z $PSXN,22,0.03,-0.80*1F
2014-08-01T00:00:16.522000Z $PSXN,23,-0.91,0.93,217.33,0.21*10
2014-08-01T00:00:17.285000Z $INZDA,000017.17,01,08,2014,,*78
2014-08-01T00:00:17.285000Z $INGGA,000017.16,2200.146224,S,01756.389066,W,1,12,0.7,-2.46,M,4.67,M,,*6E
2014-08-01T00:00:17.402000Z $INVTG,215.23,T,239.91,M,9.4,N,17.3,K,A*0C
2014-08-01T00:00:17.523000Z $INRMC,000017.16,A,2200.146224,S,01756.389066,W,9.4,215.23,010814,24.7,W,A*3E
2014-08-01T00:00:17.523000Z $INHDT,217.37,T*15
2014-08-01T00:00:17.523000Z $PSXN,20,1,0,0,0*3A
2014-08-01T00:00:17.523000Z $PSXN,22,0.03,-0.80*1F
2014-08-01T00:00:17.523000Z $PSXN,23,-1.04,-0.69,217.37,0.42*34
2014-08-01T00:00:18.285000Z $INZDA,000018.17,01,08,2014,,*77
2014-08-01T00:00:18.286000Z $INGGA,000018.16,2200.148363,S,01756.390695,W,1,12,0.7,-2.80,M,4.67,M,,*65
2014-08-01T00:00:18.402000Z $INVTG,215.35,T,240.03,M,9.5,N,17.6,K,A*0A
2014-08-01T00:00:18.523000Z $INRMC,000018.16,A,2200.148363,S,01756.390695,W,9.5,215.35,010814,24.7,W,A*39
2014-08-01T00:00:18.523000Z $INHDT,217.36,T*14
2014-08-01T00:00:18.523000Z $PSXN,20,1,0,0,0*3A
2014-08-01T00:00:18.523000Z $PSXN,22,0.03,-0.80*1F
2014-08-01T00:00:18.523000Z $PSXN,23,-0.99,-1.42,217.36,0.72*3B
2014-08-01T00:00:19.285000Z $INZDA,000019.17,01,08,2014,,*76
2014-08-01T00:00:19.285000Z $INGGA,000019.16,2200.150512,S,01756.392362,W,1,12,0.7,-2.86,M,4.67,M,,*64
2014-08-01T00:00:19.402000Z $INVTG,216.27,T,240.95,M,9.6,N,17.8,K,A*08
2014-08-01T00:00:19.523000Z $INRMC,000019.16,A,2200.150512,S,01756.392362,W,9.6,216.27,010814,24.7,W,A*3D
2014-08-01T00:00:19.523000Z $INHDT,217.34,T*16
2014-08-01T00:00:19.523000Z $PSXN,20,1,0,0,0*3A
2014-08-01T00:00:19.523000Z $PSXN,22,0.03,-0.80*1F
2014-08-01T00:00:19.523000Z $PSXN,23,-0.72,-0.74,217.34,0.75*3F
2014-08-01T00:00:20.285000Z $INZDA,000020.17,01,08,2014,,*7C
2014-08-01T00:00:20.285000Z $INGGA,000020.16,2200.152663,S,01756.394087,W,1,12,0.7,-2.45,M,4.67,M,,*68
2014-08-01T00:00:20.402000Z $INVTG,217.69,T,242.37,M,9.7,N,17.9,K,A*09
2014-08-01T00:00:20.522000Z $INRMC,000020.16,A,2200.152663,S,01756.394087,W,9.7,217.69,010814,24.7,W,A*34
2014-08-01T00:00:20.522000Z $INHDT,217.36,T*14
2014-08-01T00:00:20.522000Z $PSXN,20,1,0,0,0*3A
2014-08-01T00:00:20.522000Z $PSXN,22,0.03,-0.80*1F
2014-08-01T00:00:20.522000Z $PSXN,23,-0.32,0.52,217.36,0.32*13
2014-08-01T00:00:21.285000Z $INZDA,000021.17,01,08,2014,,*7D
2014-08-01T00:00:21.285000Z $INGGA,000021.16,2200.154755,S,01756.395886,W,1,12,0.7,-1.76,M,4.67,M,,*60
2014-08-01T00:00:21.402000Z $INVTG,220.08,T,244.76,M,9.6,N,17.7,K,A*06
2014-08-01T00:00:21.522000Z $INRMC,000021.16,A,2200.154755,S,01756.395886,W,9.6,220.08,010814,24.7,W,A*3D
2014-08-01T00:00:21.522000Z $INHDT,217.49,T*1C
2014-08-01T00:00:21.522000Z $PSXN,20,1,0,0,0*3A
2014-08-01T00:00:21.522000Z $PSXN,22,0.03,-0.80*1F
2014-08-01T00:00:21.522000Z $PSXN,23,0.00,1.34,217.49,-0.37*1E
2014-08-01T00:00:22.285000Z $INZDA,000022.17,01,08,2014,,*7E
2014-08-01T00:00:22.285000Z $INGGA,000022.16,2200.156723,S,01756.397768,W,1,12,0.7,-1.21,M,4.67,M,,*6F
2014-08-01T00:00:22.402000Z $INVTG,223.34,T,248.02,M,9.4,N,17.4,K,A*04
2014-08-01T00:00:22.522000Z $INRMC,000022.16,A,2200.156723,S,01756.397768,W,9.4,223.34,010814,24.7,W,A*3E
2014-08-01T00:00:22.522000Z $INHDT,217.78,T*1E
2014-08-01T00:00:22.522000Z $PSXN,20,1,0,0,0*3A
2014-08-01T00:00:22.522000Z $PSXN,22,0.03,-0.80*1F
2014-08-01T00:00:22.522000Z $PSXN,23,0.22,1.39,217.78,-0.97*1B
2014-08-01T00:00:23.285000Z $INZDA,000023.17,01,08,2014,,*7F
2014-08-01T00:00:23.285000Z $INGGA,000023.16,2200.158549,S,01756.399730,W,1,12,0.7,-0.93,M,4.67,M,,*65
2014-08-01T00:00:23.402000Z $INVTG,225.68,T,250.36,M,9.2,N,17.0,K,A*07
2014-08-01T00:00:23.522000Z $INRMC,000023.16,A,2200.158549,S,01756.399730,W,9.2,225.68,010814,24.7,W,A*35
2014-08-01T00:00:23.522000Z $INHDT,218.02,T*1C
2014-08-01T00:00:23.522000Z $PSXN,20,1,0,0,0*3A
2014-08-01T00:00:23.522000Z $PSXN,22,0.03,-0.80*1F
2014-08-01T00:00:23.522000Z $PSXN,23,0.46,0.98,218.02,-1.28*14
2014-08-01T00:00:24.285000Z $INZDA,000024.17,01,08,2014,,*78
2014-08-01T00:00:24.285000Z $INGGA,000024.16,2200.160324,S,01756.401677,W,1,12,0.7,-0.99,M,4.67,M,,*6A
2014-08-01T00:00:24.402000Z $INVTG,224.87,T,249.55,M,9.1,N,16.8,K,A*00
2014-08-01T00:00:24.522000Z $INRMC,000024.16,A,2200.160324,S,01756.401677,W,9.1,224.87,010814,24.7,W,A*33
2014-08-01T00:00:24.522000Z $INHDT,218.07,T*19
2014-08-01T00:00:24.522000Z $PSXN,20,1,0,0,0*3A
2014-08-01T00:00:24.522000Z $PSXN,22,0.03,-0.80*1F
2014-08-01T00:00:24.522000Z $PSXN,23,0.65,0.31,218.07,-1.24*1F
2014-08-01T00:00:25.285000Z $INZDA,000025.17,01,08,2014,,*79
2014-08-01T00:00:25.285000Z $INGGA,000025.16,2200.162157,S,01756.403552,W,1,12,0.7,-1.42,M,4.67,M,,*6E
2014-08-01T00:00:25.402000Z $INVTG,221.66,T,246.34,M,9.2,N,17.0,K,A*08
2014-08-01T00:00:25.523000Z $INRMC,000025.16,A,2200.162157,S,01756.403552,W,9.2,221.66,010814,24.7,W,A*39
2014-08-01T00:00:25.523000Z $INHDT,217.92,T*1A
2014-08-01T00:00:25.523000Z $PSXN,20,1,0,0,0*3A
2014-08-01T00:00:25.523000Z $PSXN,22,0.03,-0.80*1F
2014-08-01T00:00:25.523000Z $PSXN,23,0.77,-0.45,217.92,-0.82*3C
2014-08-01T00:00:26.285000Z $INZDA,000026.17,01,08,2014,,*7A
2014-08-01T00:00:26.285000Z $INGGA,000026.16,2200.164141,S,01756.405306,W,1,12,0.7,-2.10,M,4.67,M,,*69
2014-08-01T00:00:26.402000Z $INVTG,217.48,T,242.16,M,9.3,N,17.3,K,A*07
2014-08-01T00:00:26.523000Z $INRMC,000026.16,A,2200.164141,S,01756.405306,W,9.3,217.48,010814,24.7,W,A*32
2014-08-01T00:00:26.523000Z $INHDT,217.65,T*12
2014-08-01T00:00:26.523000Z $PSXN,20,1,0,0,0*3A
2014-08-01T00:00:26.523000Z $PSXN,22,0.03,-0.80*1F
2014-08-01T00:00:26.523000Z $PSXN,23,0.58,-0.96,217.65,-0.14*38
2014-08-01T00:00:27.285000Z $INZDA,000027.17,01,08,2014,,*7B
2014-08-01T00:00:27.285000Z $INGGA,000027.16,2200.166293,S,01756.406946,W,1,12,0.7,-2.79,M,4.67,M,,*64
2014-08-01T00:00:27.402000Z $INVTG,213.71,T,238.39,M,9.6,N,17.8,K,A*07
2014-08-01T00:00:27.522000Z $INRMC,000027.16,A,2200.166293,S,01756.406946,W,9.6,213.71,010814,24.7,W,A*3B
2014-08-01T00:00:27.522000Z $INHDT,217.39,T*1B
2014-08-01T00:00:27.522000Z $PSXN,20,1,0,0,0*3A
2014-08-01T00:00:27.522000Z $PSXN,22,0.03,-0.80*1F
2014-08-01T00:00:27.522000Z $PSXN,23,0.10,-0.93,217.39,0.56*13
2014-08-01T00:00:28.285000Z $INZDA,000028.17,01,08,2014,,*74
2014-08-01T00:00:28.286000Z $INGGA,000028.16,2200.168592,S,01756.408508,W,1,12,0.7,-3.31,M,4.67,M,,*66
2014-08-01T00:00:28.402000Z $INVTG,211.65,T,236.33,M,9.9,N,18.3,K,A*0F
2014-08-01T00:00:28.523000Z $INRMC,000028.16,A,2200.168592,S,01756.408508,W,9.9,211.65,010814,24.7,W,A*3C
2014-08-01T00:00:28.523000Z $INHDT,217.29,T*1A
2014-08-01T00:00:28.523000Z $PSXN,20,1,0,0,0*3A
2014-08-01T00:00:28.523000Z $PSXN,22,0.03,-0.80*1F
2014-08-01T00:00:28.523000Z $PSXN,23,-0.40,-0.47,217.29,1.07*36
2014-08-01T00:00:29.285000Z $INZDA,000029.17,01,08,2014,,*75
2014-08-01T00:00:29.285000Z $INGGA,000029.16,2200.170955,S,01756.410067,W,1,12,0.7,-3.57,M,4.67,M,,*6C
2014-08-01T00:00:29.402000Z $INVTG,211.78,T,236.46,M,10.0,N,18.6,K,A*35
2014-08-01T00:00:29.519000Z $INRMC,000029.16,A,2200.170955,S,01756.410067,W,10.0,211.78,010814,24.7,W,A*0B
2014-08-01T00:00:29.519000Z $INHDT,217.28,T*1B
2014-08-01T00:00:29.519000Z $PSXN,20,1,0,0,0*3A
2014-08-01T00:00:29.519000Z $PSXN,22,0.03,-0.80*1F
2014-08-01T00:00:29.519000Z $PSXN,23,-0.74,0.03,217.28,1.31*18
2014-08-01T00:00:30.285000Z $INZDA,000030.17,01,08,2014,,*7D
2014-08-01T00:00:30.285000Z $INGGA,000030.16,2200.173320,S,01756.411673,W,1,12,0.7,-3.43,M,4.67,M,,*68
2014-08-01T00:00:30.402000Z $INVTG,213.68,T,238.36,M,10.0,N,18.5,K,A*3C
2014-08-01T00:00:30.519000Z $INRMC,000030.16,A,2200.173320,S,01756.411673,W,10.0,213.68,010814,24.7,W,A*09
2014-08-01T00:00:30.519000Z $INHDT,217.37,T*15
2014-08-01T00:00:30.519000Z $PSXN,20,1,0,0,0*3A
2014-08-01T00:00:30.519000Z $PSXN,22,0.03,-0.80*1F
2014-08-01T00:00:30.519000Z $PSXN,23,-0.82,0.41,217.37,1.20*19
2014-08-01T00:00:31.285000Z $INZDA,000031.17,01,08,2014,,*7C
2014-08-01T00:00:31.285000Z $INGGA,000031.16,2200.175606,S,01756.413394,W,1,12,0.7,-3.06,M,4.67,M,,*61
2014-08-01T00:00:31.402000Z $INVTG,216.50,T,241.18,M,10.0,N,18.5,K,A*30
2014-08-01T00:00:31.519000Z $INRMC,000031.16,A,2200.175606,S,01756.413394,W,10.0,216.50,010814,24.7,W,A*0F
2014-08-01T00:00:31.519000Z $INHDT,217.56,T*12
2014-08-01T00:00:31.519000Z $PSXN,20,1,0,0,0*3A
2014-08-01T00:00:31.519000Z $PSXN,22,0.03,-0.80*1F
2014-08-01T00:00:31.519000Z $PSXN,23,-0.64,0.38,217.56,0.84*17
2014-08-01T00:00:32.285000Z $INZDA,000032.17,01,08,2014,,*7F
2014-08-01T00:00:32.285000Z $INGGA,000032.16,2200.177817,S,01756.415225,W,1,12,0.7,-2.70,M,4.67,M,,*63
2014-08-01T00:00:32.402000Z $INVTG,219.14,T,243.82,M,10.0,N,18.6,K,A*3D
2014-08-01T00:00:32.519000Z $INRMC,000032.16,A,2200.177817,S,01756.415225,W,10.0,219.14,010814,24.7,W,A*02
2014-08-01T00:00:32.519000Z $INHDT,217.81,T*18
2014-08-01T00:00:32.519000Z $PSXN,20,1,0,0,0*3A
2014-08-01T00:00:32.519000Z $PSXN,22,0.03,-0.80*1F
2014-08-01T00:00:32.519000Z $PSXN,23,-0.36,0.02,217.81,0.48*13
2014-08-01T00:00:33.285000Z $INZDA,000033.17,01,08,2014,,*7E
2014-08-01T00:00:33.285000Z $INGGA,000033.16,2200.179946,S,01756.417141,W,1,12,0.7,-2.35,M,4.67,M,,*6B
2014-08-01T00:00:33.402000Z $INVTG,221.43,T,246.11,M,9.8,N,18.2,K,A*0F
2014-08-01T00:00:33.522000Z $INRMC,000033.16,A,2200.179946,S,01756.417141,W,9.8,221.43,010814,24.7,W,A*32
2014-08-01T00:00:33.522000Z $INHDT,218.14,T*1B
2014-08-01T00:00:33.522000Z $PSXN,20,1,0,0,0*3A
2014-08-01T00:00:33.522000Z $PSXN,22,0.03,-0.80*1F
2014-08-01T00:00:33.522000Z $PSXN,23,-0.03,0.16,218.14,0.14*1A
2014-08-01T00:00:34.285000Z $INZDA,000034.17,01,08,2014,,*79
2014-08-01T00:00:34.285000Z $INGGA,000034.16,2200.181914,S,01756.419089,W,1,12,0.7,-1.69,M,4.67,M,,*6D
2014-08-01T00:00:34.402000Z $INVTG,224.27,T,248.95,M,9.3,N,17.3,K,A*0F
2014-08-01T00:00:34.522000Z $INRMC,000034.16,A,2200.181914,S,01756.419089,W,9.3,224.27,010814,24.7,W,A*32
2014-08-01T00:00:34.522000Z $INHDT,218.52,T*19
2014-08-01T00:00:34.522000Z $PSXN,20,1,0,0,0*3A
2014-08-01T00:00:34.522000Z $PSXN,22,0.03,-0.80*1F
2014-08-01T00:00:34.522000Z $PSXN,23,0.28,1.44,218.52,-0.52*15
2014-08-01T00:00:35.285000Z $INZDA,000035.17,01,08,2014,,*78
2014-08-01T00:00:35.285000Z $INGGA,000035.16,2200.183687,S,01756.421009,W,1,12,0.7,-0.64,M,4.67,M,,*64
2014-08-01T00:00:35.402000Z $INVTG,226.13,T,250.81,M,8.8,N,16.3,K,A*0D
2014-08-01T00:00:35.522000Z $INRMC,000035.16,A,2200.183687,S,01756.421009,W,8.8,226.13,010814,24.7,W,A*38
2014-08-01T00:00:35.522000Z $INHDT,218.74,T*1D
2014-08-01T00:00:35.522000Z $PSXN,20,1,0,0,0*3A
2014-08-01T00:00:35.522000Z $PSXN,22,0.03,-0.80*1F
2014-08-01T00:00:35.522000Z $PSXN,23,0.52,2.89,218.74,-1.54*19
2014-08-01T00:00:36.285000Z $INZDA,000036.17,01,08,2014,,*7B
2014-08-01T00:00:36.285000Z $INGGA,000036.16,2200.185351,S,01756.422841,W,1,12,0.7,0.29,M,4.67,M,,*4C
2014-08-01T00:00:36.402000Z $INVTG,225.22,T,249.90,M,8.4,N,15.6,K,A*0E
2014-08-01T00:00:36.521000Z $INRMC,000036.16,A,2200.185351,S,01756.422841,W,8.4,225.22,010814,24.7,W,A*39
2014-08-01T00:00:36.521000Z $INHDT,218.67,T*1F
2014-08-01T00:00:36.521000Z $PSXN,20,1,0,0,0*3A
2014-08-01T00:00:36.521000Z $PSXN,22,0.03,-0.80*1F
2014-08-01T00:00:36.521000Z $PSXN,23,0.69,2.89,218.67,-2.41*14
2014-08-01T00:00:37.285000Z $INZDA,000037.17,01,08,2014,,*7A
2014-08-01T00:00:37.285000Z $INGGA,000037.16,2200.187040,S,01756.424570,W,1,12,0.7,0.26,M,4.67,M,,*4A
2014-08-01T00:00:37.402000Z $INVTG,221.60,T,246.28,M,8.4,N,15.6,K,A*00
2014-08-01T00:00:37.521000Z $INRMC,000037.16,A,2200.187040,S,01756.424570,W,8.4,221.60,010814,24.7,W,A*32
2014-08-01T00:00:37.521000Z $INHDT,218.26,T*1A
2014-08-01T00:00:37.521000Z $PSXN,20,1,0,0,0*3A
2014-08-01T00:00:37.521000Z $PSXN,22,0.03,-0.80*1F
2014-08-01T00:00:37.521000Z $PSXN,23,0.76,0.68,218.26,-2.34*10
2014-08-01T00:00:38.285000Z $INZDA,000038.17,01,08,2014,,*75
2014-08-01T00:00:38.285000Z $INGGA,000038.16,2200.188903,S,01756.426221,W,1,12,0.7,-1.08,M,4.67,M,,*65
2014-08-01T00:00:38.402000Z $INVTG,217.76,T,242.44,M,9.0,N,16.6,K,A*0A
2014-08-01T00:00:38.523000Z $INRMC,000038.16,A,2200.188903,S,01756.426221,W,9.0,217.76,010814,24.7,W,A*3A
2014-08-01T00:00:38.523000Z $INHDT,217.80,T*19
2014-08-01T00:00:38.523000Z $PSXN,20,1,0,0,0*3A
2014-08-01T00:00:38.523000Z $PSXN,22,0.04,-0.80*18
2014-08-01T00:00:38.523000Z $PSXN,23,0.76,-2.84,217.80,-0.99*3B
2014-08-01T00:00:39.285000Z $INZDA,000039.17,01,08,2014,,*74
2014-08-01T00:00:39.285000Z $INGGA,000039.16,2200.191007,S,01756.427899,W,1,12,0.7,-3.15,M,4.67,M,,*67
2014-08-01T00:00:39.402000Z $INVTG,215.72,T,240.40,M,9.8,N,18.2,K,A*08
2014-08-01T00:00:39.522000Z $INRMC,000039.16,A,2200.191007,S,01756.427899,W,9.8,215.72,010814,24.7,W,A*38
2014-08-01T00:00:39.522000Z $INHDT,217.58,T*1C
2014-08-01T00:00:39.522000Z $PSXN,20,1,0,0,0*3A
2014-08-01T00:00:39.522000Z $PSXN,22,0.04,-0.80*18
2014-08-01T00:00:39.522000Z $PSXN,23,0.70,-5.22,217.58,1.05*1A
2014-08-01T00:00:40.285000Z $INZDA,000040.17,01,08,2014,,*7A
2014-08-01T00:00:40.285000Z $INGGA,000040.16,2200.193327,S,01756.429668,W,1,12,0.7,-4.71,M,4.67,M,,*61
2014-08-01T00:00:40.402000Z $INVTG,215.71,T,240.39,M,10.5,N,19.5,K,A*36
2014-08-01T00:00:40.519000Z $INRMC,000040.16,A,2200.193327,S,01756.429668,W,10.5,215.71,010814,24.7,W,A*0D
2014-08-01T00:00:40.519000Z $INHDT,217.77,T*11
2014-08-01T00:00:40.519000Z $PSXN,20,1,0,0,0*3A
2014-08-01T00:00:40.519000Z $PSXN,22,0.04,-0.80*18
2014-08-01T00:00:40.519000Z $PSXN,23,0.21,-3.84,217.77,2.59*13
2014-08-01T00:00:41.285000Z $INZDA,000041.17,01,08,2014,,*7B
2014-08-01T00:00:41.285000Z $INGGA,000041.16,2200.195731,S,01756.431520,W,1,12,0.7,-4.77,M,4.67,M,,*65
2014-08-01T00:00:41.402000Z $INVTG,216.16,T,240.84,M,10.6,N,19.6,K,A*32
2014-08-01T00:00:41.519000Z $INRMC,000041.16,A,2200.195731,S,01756.431520,W,10.6,216.16,010814,24.7,W,A*0E
2014-08-01T00:00:41.519000Z $INHDT,218.19,T*16
2014-08-01T00:00:41.519000Z $PSXN,20,1,0,0,0*3A
2014-08-01T00:00:41.519000Z $PSXN,22,0.04,-0.80*18
2014-08-01T00:00:41.519000Z $PSXN,23,-0.40,0.71,218.19,2.66*16
2014-08-01T00:00:42.285000Z $INZDA,000042.17,01,08,2014,,*78
2014-08-01T00:00:42.285000Z $INGGA,000042.16,2200.198046,S,01756.433330,W,1,12,0.7,-3.33,M,4.67,M,,*6E
2014-08-01T00:00:42.402000Z $INVTG,216.67,T,241.35,M,9.9,N,18.3,K,A*0C
2014-08-01T00:00:42.522000Z $INRMC,000042.16,A,2200.198046,S,01756.433330,W,9.9,216.67,010814,24.7,W,A*33
2014-08-01T00:00:42.522000Z $INHDT,218.64,T*1C
2014-08-01T00:00:42.522000Z $PSXN,20,1,0,0,0*3A
2014-08-01T00:00:42.522000Z $PSXN,22,0.04,-0.80*18
2014-08-01T00:00:42.522000Z $PSXN,23,-0.49,5.09,218.64,1.26*18
2014-08-01T00:00:43.285000Z $INZDA,000043.17,01,08,2014,,*79
2014-08-01T00:00:43.285000Z $INGGA,000043.16,2200.200122,S,01756.435021,W,1,12,0.7,-1.33,M,4.67,M,,*69
2014-08-01T00:00:43.402000Z $INVTG,218.16,T,242.84,M,8.8,N,16.3,K,A*03
2014-08-01T00:00:43.523000Z $INRMC,000043.16,A,2200.200122,S,01756.435021,W,8.8,218.16,010814,24.7,W,A*3E
2014-08-01T00:00:43.523000Z $INHDT,219.00,T*1F
2014-08-01T00:00:43.523000Z $PSXN,20,1,0,0,0*3A
2014-08-01T00:00:43.523000Z $PSXN,22,0.04,-0.80*18
2014-08-01T00:00:43.523000Z $PSXN,23,-0.19,6.45,219.00,-0.67*3C
2014-08-01T00:00:44.286000Z $INZDA,000044.17,01,08,2014,,*7E
2014-08-01T00:00:44.286000Z $INGGA,000044.16,2200.201907,S,01756.436594,W,1,12,0.7,0.15,M,4.67,M,,*40
2014-08-01T00:00:44.402000Z $INVTG,220.70,T,245.38,M,7.9,N,14.6,K,A*01
2014-08-01T00:00:44.521000Z $INRMC,000044.16,A,2200.201907,S,01756.436594,W,7.9,220.70,010814,24.7,W,A*3A
2014-08-01T00:00:44.521000Z $INHDT,219.05,T*1A
2014-08-01T00:00:44.521000Z $PSXN,20,1,0,0,0*3A
2014-08-01T00:00:44.521000Z $PSXN,22,0.04,-0.80*18
2014-08-01T00:00:44.521000Z $PSXN,23,0.12,4.48,219.05,-2.10*12
2014-08-01T00:00:45.285000Z $INZDA,000045.17,01,08,2014,,*7F
2014-08-01T00:00:45.285000Z $INGGA,000045.16,2200.203498,S,01756.438123,W,1,12,0.7,0.43,M,4.67,M,,*4D
2014-08-01T00:00:45.402000Z $INVTG,222.29,T,246.97,M,7.6,N,14.0,K,A*00
2014-08-01T00:00:45.521000Z $INRMC,000045.16,A,2200.203498,S,01756.438123,W,7.6,222.29,010814,24.7,W,A*35
2014-08-01T00:00:45.521000Z $INHDT,218.74,T*1D
2014-08-01T00:00:45.521000Z $PSXN,20,1,0,0,0*3A
2014-08-01T00:00:45.521000Z $PSXN,22,0.04,-0.80*18
2014-08-01T00:00:45.521000Z $PSXN,23,0.58,0.43,218.74,-2.36*10
2014-08-01T00:00:46.285000Z $INZDA,000046.17,01,08,2014,,*7C
2014-08-01T00:00:46.285000Z $INGGA,000046.16,2200.205072,S,01756.439695,W,1,12,0.7,-0.52,M,4.67,M,,*6E
2014-08-01T00:00:46.402000Z $INVTG,222.73,T,247.41,M,8.0,N,14.7,K,A*0B
2014-08-01T00:00:46.523000Z $INRMC,000046.16,A,2200.205072,S,01756.439695,W,8.0,222.73,010814,24.7,W,A*3D
2014-08-01T00:00:46.523000Z $INHDT,218.26,T*1A
2014-08-01T00:00:46.523000Z $PSXN,20,1,0,0,0*3A
2014-08-01T00:00:46.523000Z $PSXN,22,0.04,-0.80*18
2014-08-01T00:00:46.523000Z $PSXN,23,1.20,-3.63,218.26,-1.44*33
2014-08-01T00:00:47.285000Z $INZDA,000047.17,01,08,2014,,*7D
2014-08-01T00:00:47.286000Z $INGGA,000047.16,2200.206785,S,01756.441383,W,1,12,0.7,-2.12,M,4.67,M,,*68
2014-08-01T00:00:47.402000Z $INVTG,222.31,T,246.99,M,8.9,N,16.4,K,A*01
2014-08-01T00:00:47.522000Z $INRMC,000047.16,A,2200.206785,S,01756.441383,W,8.9,222.31,010814,24.7,W,A*32
2014-08-01T00:00:47.522000Z $INHDT,217.84,T*1D
2014-08-01T00:00:47.522000Z $PSXN,20,1,0,0,0*3A
2014-08-01T00:00:47.522000Z $PSXN,22,0.04,-0.80*18
2014-08-01T00:00:47.522000Z $PSXN,23,1.46,-5.37,217.84,0.09*16
2014-08-01T00:00:48.285000Z $INZDA,000048.17,01,08,2014,,*72
2014-08-01T00:00:48.285000Z $INGGA,000048.16,2200.208742,S,01756.443249,W,1,12,0.7,-3.47,M,4.67,M,,*66
2014-08-01T00:00:48.402000Z $INVTG,220.97,T,245.65,M,9.9,N,18.4,K,A*00
2014-08-01T00:00:48.522000Z $INRMC,000048.16,A,2200.208742,S,01756.443249,W,9.9,220.97,010814,24.7,W,A*32
2014-08-01T00:00:48.522000Z $INHDT,217.52,T*16
2014-08-01T00:00:48.522000Z $PSXN,20,1,0,0,0*3A
2014-08-01T00:00:48.522000Z $PSXN,22,0.04,-0.80*18
2014-08-01T00:00:48.522000Z $PSXN,23,1.24,-4.00,217.52,1.39*1E
2014-08-01T00:00:49.285000Z $INZDA,000049.17,01,08,2014,,*73
2014-08-01T00:00:49.285000Z $INGGA,000049.16,2200.210944,S,01756.445223,W,1,12,0.7,-3.97,M,4.67,M,,*61
2014-08-01T00:00:49.402000Z $INVTG,219.30,T,243.98,M,10.5,N,19.5,K,A*37
2014-08-01T00:00:49.519000Z $INRMC,000049.16,A,2200.210944,S,01756.445223,W,10.5,219.30,010814,24.7,W,A*0B
2014-08-01T00:00:49.519000Z $INHDT,217.26,T*15
2014-08-01T00:00:49.519000Z $PSXN,20,1,0,0,0*3A
2014-08-01T00:00:49.519000Z $PSXN,22,0.04,-0.80*18
2014-08-01T00:00:49.519000Z $PSXN,23,0.80,-0.77,217.26,1.88*1C
2014-08-01T00:00:50.285000Z $INZDA,000050.17,01,08,2014,,*7B
2014-08-01T00:00:50.285000Z $INGGA,000050.16,2200.213230,S,01756.447184,W,1,12,0.7,-3.59,M,4.67,M,,*6C
2014-08-01T00:00:50.402000Z $INVTG,218.30,T,242.98,M,10.3,N,19.1,K,A*35
2014-08-01T00:00:50.523000Z $INRMC,000050.16,A,2200.213230,S,01756.447184,W,10.3,218.30,010814,24.7,W,A*03
2014-08-01T00:00:50.523000Z $INHDT,217.20,T*13
2014-08-01T00:00:50.523000Z $PSXN,20,1,0,0,0*3A
2014-08-01T00:00:50.523000Z $PSXN,22,0.04,-0.80*18
2014-08-01T00:00:50.523000Z $PSXN,23,0.46,2.52,217.20,1.44*38
2014-08-01T00:00:51.285000Z $INZDA,000051.17,01,08,2014,,*7A
2014-08-01T00:00:51.285000Z $INGGA,000051.16,2200.215402,S,01756.449028,W,1,12,0.7,-2.49,M,4.67,M,,*65
2014-08-01T00:00:51.402000Z $INVTG,218.22,T,242.90,M,9.5,N,17.6,K,A*09
2014-08-01T00:00:51.521000Z $INRMC,000051.16,A,2200.215402,S,01756.449028,W,9.5,218.22,010814,24.7,W,A*37
2014-08-01T00:00:51.521000Z $INHDT,217.41,T*14
2014-08-01T00:00:51.521000Z $PSXN,20,1,0,0,0*3A
2014-08-01T00:00:51.521000Z $PSXN,22,0.04,-0.80*18
2014-08-01T00:00:51.521000Z $PSXN,23,0.08,4.52,217.41,0.33*32
2014-08-01T00:00:52.285000Z $INZDA,000052.17,01,08,2014,,*79
2014-08-01T00:00:52.285000Z $INGGA,000052.16,2200.217369,S,01756.450696,W,1,12,0.7,-1.22,M,4.67,M,,*6B
2014-08-01T00:00:52.402000Z $INVTG,218.52,T,243.20,M,8.5,N,15.8,K,A*09
2014-08-01T00:00:52.523000Z $INRMC,000052.16,A,2200.217369,S,01756.450696,W,8.5,218.52,010814,24.7,W,A*31
2014-08-01T00:00:52.523000Z $INHDT,217.85,T*1C
2014-08-01T00:00:52.523000Z $PSXN,20,1,0,0,0*3A
2014-08-01T00:00:52.523000Z $PSXN,22,0.04,-0.80*18
2014-08-01T00:00:52.523000Z $PSXN,23,-0.48,4.56,217.85,-0.94*37
2014-08-01T00:00:53.285000Z $INZDA,000053.17,01,08,2014,,*78
2014-08-01T00:00:53.285000Z $INGGA,000053.16,2200.219131,S,01756.452216,W,1,12,0.7,-0.40,M,4.67,M,,*60
2014-08-01T00:00:53.402000Z $INVTG,218.81,T,243.49,M,7.8,N,14.5,K,A*06
2014-08-01T00:00:53.523000Z $INRMC,000053.16,A,2200.219131,S,01756.452216,W,7.8,218.81,010814,24.7,W,A*33
2014-08-01T00:00:53.523000Z $INHDT,218.32,T*1F
2014-08-01T00:00:53.523000Z $PSXN,20,1,0,0,0*3A
2014-08-01T00:00:53.523000Z $PSXN,22,0.04,-0.80*18
2014-08-01T00:00:53.523000Z $PSXN,23,-1.10,2.86,218.32,-1.75*3D
2014-08-01T00:00:54.285000Z $INZDA,000054.17,01,08,2014,,*7F
2014-08-01T00:00:54.285000Z $INGGA,000054.16,2200.220793,S,01756.453654,W,1,12,0.7,-0.31,M,4.67,M,,*66
2014-08-01T00:00:54.402000Z $INVTG,219.11,T,243.79,M,7.6,N,14.0,K,A*06
2014-08-01T00:00:54.523000Z $INRMC,000054.16,A,2200.220793,S,01756.453654,W,7.6,219.11,010814,24.7,W,A*35
2014-08-01T00:00:54.523000Z $INHDT,218.63,T*1B
2014-08-01T00:00:54.523000Z $PSXN,20,1,0,0,0*3A
2014-08-01T00:00:54.523000Z $PSXN,22,0.04,-0.80*18
2014-08-01T00:00:54.523000Z $PSXN,23,-1.50,0.20,218.63,-1.78*3E
2014-08-01T00:00:55.285000Z $INZDA,000055.17,01,08,2014,,*7E
2014-08-01T00:00:55.285000Z $INGGA,000055.16,2200.222442,S,01756.455114,W,1,12,0.7,-1.05,M,4.67,M,,*69
2014-08-01T00:00:55.402000Z $INVTG,219.39,T,244.07,M,7.9,N,14.6,K,A*0B
2014-08-01T00:00:55.519000Z $INRMC,000055.16,A,2200.222442,S,01756.455114,W,7.9,219.39,010814,24.7,W,A*39
2014-08-01T00:00:55.519000Z $INHDT,218.75,T*1C
2014-08-01T00:00:55.519000Z $PSXN,20,1,0,0,0*3A
2014-08-01T00:00:55.519000Z $PSXN,22,0.04,-0.80*18
2014-08-01T00:00:55.519000Z $PSXN,23,-1.56,-2.32,218.75,-1.03*1F
2014-08-01T00:00:56.286000Z $INZDA,000056.17,01,08,2014,,*7D
2014-08-01T00:00:56.286000Z $INGGA,000056.16,2200.224223,S,01756.456686,W,1,12,0.7,-2.28,M,4.67,M,,*6E
2014-08-01T00:00:56.402000Z $INVTG,219.26,T,243.94,M,8.7,N,16.2,K,A*0F
2014-08-01T00:00:56.523000Z $INRMC,000056.16,A,2200.224223,S,01756.456686,W,8.7,219.26,010814,24.7,W,A*3D
2014-08-01T00:00:56.523000Z $INHDT,218.69,T*11
2014-08-01T00:00:56.523000Z $PSXN,20,1,0,0,0*3A
2014-08-01T00:00:56.523000Z $PSXN,22,0.04,-0.80*18
2014-08-01T00:00:56.523000Z $PSXN,23,-1.49,-3.86,218.69,0.20*3F
2014-08-01T00:00:57.285000Z $INZDA,000057.17,01,08,2014,,*7C
2014-08-01T00:00:57.285000Z $INGGA,000057.16,2200.226222,S,01756.458415,W,1,12,0.7,-3.50,M,4.67,M,,*64
2014-08-01T00:00:57.402000Z $INVTG,218.45,T,243.13,M,9.7,N,18.0,K,A*09
2014-08-01T00:00:57.523000Z $INRMC,000057.16,A,2200.226222,S,01756.458415,W,9.7,218.45,010814,24.7,W,A*3C
2014-08-01T00:00:57.523000Z $INHDT,218.42,T*18
2014-08-01T00:00:57.523000Z $PSXN,20,1,0,0,0*3A
2014-08-01T00:00:57.523000Z $PSXN,22,0.04,-0.80*18
2014-08-01T00:00:57.523000Z $PSXN,23,-1.30,-3.88,218.42,1.40*31
2014-08-01T00:00:58.285000Z $INZDA,000058.17,01,08,2014,,*73
2014-08-01T00:00:58.285000Z $INGGA,000058.16,2200.228455,S,01756.460259,W,1,12,0.7,-4.21,M,4.67,M,,*67
2014-08-01T00:00:58.402000Z $INVTG,216.83,T,241.51,M,10.4,N,19.3,K,A*30
2014-08-01T00:00:58.519000Z $INRMC,000058.16,A,2200.228455,S,01756.460259,W,10.4,216.83,010814,24.7,W,A*01
2014-08-01T00:00:58.519000Z $INHDT,217.98,T*10
2014-08-01T00:00:58.519000Z $PSXN,20,1,0,0,0*3A
2014-08-01T00:00:58.519000Z $PSXN,22,0.04,-0.80*18
2014-08-01T00:00:58.525000Z $PSXN,23,-0.97,-2.11,217.98,2.09*3A
2014-08-01T00:00:59.286000Z $INZDA,000059.17,01,08,2014,,*72
2014-08-01T00:00:59.286000Z $INGGA,000059.16,2200.230844,S,01756.462108,W,1,12,0.7,-4.04,M,4.67,M,,*61
2014-08-01T00:00:59.402000Z $INVTG,215.59,T,240.27,M,10.6,N,19.6,K,A*33
2014-08-01T00:00:59.519000Z $INRMC,000059.16,A,2200.230844,S,01756.462108,W,10.6,215.59,010814,24.7,W,A*06
2014-08-01T00:00:59.519000Z $INHDT,217.54,T*10
2014-08-01T00:00:59.519000Z $PSXN,20,1,0,0,0*3A
2014-08-01T00:00:59.519000Z $PSXN,22,0.04,-0.80*18
2014-08-01T00:00:59.519000Z $PSXN,23,-0.50,0.76,217.54,1.94*18
2014-08-01T00:01:00.285000Z $INZDA,000100.17,01,08,2014,,*7F
2014-08-01T00:01:00.285000Z $INGGA,000100.16,2200.233216,S,01756.463917,W,1,12,0.7,-3.06,M,4.67,M,,*60
2014-08-01T00:01:00.402000Z $INVTG,216.55,T,241.23,M,10.1,N,18.8,K,A*31
2014-08-01T00:01:00.519000Z $INRMC,000100.16,A,2200.233216,S,01756.463917,W,10.1,216.55,010814,24.7,W,A*0A
2014-08-01T00:01:00.519000Z $INHDT,217.39,T*1B
2014-08-01T00:01:00.519000Z $PSXN,20,1,0,0,0*3A
2014-08-01T00:01:00.519000Z $PSXN,22,0.04,-0.80*18
2014-08-01T00:01:00.519000Z $PSXN,23,-0.09,3.18,217.39,1.01*18
2014-08-01T00:01:01.285000Z $INZDA,000101.17,01,08,2014,,*7E
2014-08-01T00:01:01.285000Z $INGGA,000101.16,2200.235382,S,01756.465719,W,1,12,0.7,-1.78,M,4.67,M,,*66
2014-08-01T00:01:01.402000Z $INVTG,219.41,T,244.09,M,9.5,N,17.5,K,A*08
2014-08-01T00:01:01.522000Z $INRMC,000101.16,A,2200.235382,S,01756.465719,W,9.5,219.41,010814,24.7,W,A*31
2014-08-01T00:01:01.522000Z $INHDT,217.59,T*1D
2014-08-01T00:01:01.522000Z $PSXN,20,1,0,0,0*3A
2014-08-01T00:01:01.522000Z $PSXN,22,0.04,-0.80*18
2014-08-01T00:01:01.522000Z $PSXN,23,0.23,3.93,217.59,-0.26*11
2014-08-01T00:01:02.285000Z $INZDA,000102.17,01,08,2014,,*7D
2014-08-01T00:01:02.285000Z $INGGA,000102.16,2200.237311,S,01756.467506,W,1,12,0.7,-0.81,M,4.67,M,,*64
2014-08-01T00:01:02.402000Z $INVTG,222.11,T,246.79,M,8.9,N,16.5,K,A*0C
2014-08-01T00:01:02.522000Z $INRMC,000102.16,A,2200.237311,S,01756.467506,W,8.9,222.11,010814,24.7,W,A*34
2014-08-01T00:01:02.522000Z $INHDT,217.95,T*1D
2014-08-01T00:01:02.522000Z $PSXN,20,1,0,0,0*3A
2014-08-01T00:01:02.522000Z $PSXN,22,0.04,-0.80*18
2014-08-01T00:01:02.522000Z $PSXN,23,0.52,2.79,217.95,-1.22*17
2014-08-01T00:01:03.285000Z $INZDA,000103.17,01,08,2014,,*7C
2014-08-01T00:01:03.285000Z $INGGA,000103.16,2200.239068,S,01756.469296,W,1,12,0.7,-0.66,M,4.67,M,,*6F
2014-08-01T00:01:03.402000Z $INVTG,223.60,T,248.28,M,8.6,N,15.9,K,A*01
2014-08-01T00:01:03.522000Z $INRMC,000103.16,A,2200.239068,S,01756.469296,W,8.6,223.60,010814,24.7,W,A*3E
2014-08-01T00:01:03.522000Z $INHDT,218.30,T*1D
2014-08-01T00:01:03.522000Z $PSXN,20,1,0,0,0*3A
2014-08-01T00:01:03.522000Z $PSXN,22,0.04,-0.80*18
2014-08-01T00:01:03.522000Z $PSXN,23,0.82,0.56,218.30,-1.43*12
2014-08-01T00:01:04.285000Z $INZDA,000104.17,01,08,2014,,*7B
2014-08-01T00:01:04.285000Z $INGGA,000104.16,2200.240785,S,01756.471052,W,1,12,0.7,-1.25,M,4.67,M,,*67
2014-08-01T00:01:04.402000Z $INVTG,222.83,T,247.51,M,8.5,N,15.8,K,A*0E
2014-08-01T00:01:04.523000Z $INRMC,000104.16,A,2200.240785,S,01756.471052,W,8.5,222.83,010814,24.7,W,A*3F
2014-08-01T00:01:04.523000Z $INHDT,218.60,T*18
2014-08-01T00:01:04.523000Z $PSXN,20,1,0,0,0*3A
2014-08-01T00:01:04.523000Z $PSXN,22,0.04,-0.80*18
2014-08-01T00:01:04.523000Z $PSXN,23,0.85,-1.19,218.60,-0.91*39
2014-08-01T00:01:05.285000Z $INZDA,000105.17,01,08,2014,,*7A
2014-08-01T00:01:05.285000Z $INGGA,000105.16,2200.242575,S,01756.472748,W,1,12,0.7,-2.10,M,4.67,M,,*63
2014-08-01T00:01:05.402000Z $INVTG,220.00,T,244.68,M,8.7,N,16.1,K,A*06
2014-08-01T00:01:05.523000Z $INRMC,000105.16,A,2200.242575,S,01756.472748,W,8.7,220.00,010814,24.7,W,A*35
2014-08-01T00:01:05.523000Z $INHDT,218.77,T*1E
2014-08-01T00:01:05.523000Z $PSXN,20,1,0,0,0*3A
2014-08-01T00:01:05.523000Z $PSXN,22,0.04,-0.80*18
2014-08-01T00:01:05.523000Z $PSXN,23,0.54,-1.51,218.77,-0.11*37
2014-08-01T00:01:06.285000Z $INZDA,000106.17,01,08,2014,,*79
2014-08-01T00:01:06.285000Z $INGGA,000106.16,2200.244492,S,01756.474398,W,1,12,0.7,-2.69,M,4.67,M,,*6F
2014-08-01T00:01:06.402000Z $INVTG,217.50,T,242.18,M,9.0,N,16.6,K,A*07
2014-08-01T00:01:06.522000Z $INRMC,000106.16,A,2200.244492,S,01756.474398,W,9.0,217.50,010814,24.7,W,A*30
2014-08-01T00:01:06.522000Z $INHDT,218.74,T*1D
2014-08-01T00:01:06.522000Z $PSXN,20,1,0,0,0*3A
2014-08-01T00:01:06.522000Z $PSXN,22,0.04,-0.80*18
2014-08-01T00:01:06.522000Z $PSXN,23,0.14,-0.75,218.74,0.46*18
2014-08-01T00:01:07.285000Z $INZDA,000107.17,01,08,2014,,*78
2014-08-01T00:01:07.285000Z $INGGA,000107.16,2200.246520,S,01756.476021,W,1,12,0.7,-2.82,M,4.67,M,,*62
2014-08-01T00:01:07.402000Z $INVTG,216.87,T,241.55,M,9.2,N,16.9,K,A*0B
2014-08-01T00:01:07.522000Z $INRMC,000107.16,A,2200.246520,S,01756.476021,W,9.2,216.87,010814,24.7,W,A*31
2014-08-01T00:01:07.522000Z $INHDT,218.66,T*1E
2014-08-01T00:01:07.522000Z $PSXN,20,1,0,0,0*3A
2014-08-01T00:01:07.522000Z $PSXN,22,0.04,-0.80*18
2014-08-01T00:01:07.522000Z $PSXN,23,-0.21,0.15,218.66,0.60*1F
2014-08-01T00:01:08.285000Z $INZDA,000108.17,01,08,2014,,*77
2014-08-01T00:01:08.285000Z $INGGA,000108.16,2200.248574,S,01756.477689,W,1,12,0.7,-2.66,M,4.67,M,,*6D
2014-08-01T00:01:08.402000Z $INVTG,217.64,T,242.32,M,9.3,N,17.1,K,A*0D
2014-08-01T00:01:08.522000Z $INRMC,000108.16,A,2200.248574,S,01756.477689,W,9.3,217.64,010814,24.7,W,A*39
2014-08-01T00:01:08.522000Z $INHDT,218.61,T*19
2014-08-01T00:01:08.522000Z $PSXN,20,1,0,0,0*3A
2014-08-01T00:01:08.522000Z $PSXN,22,0.04,-0.80*18
2014-08-01T00:01:08.522000Z $PSXN,23,-0.47,0.51,218.61,0.46*1C
2014-08-01T00:01:09.285000Z $INZDA,000109.17,01,08,2014,,*76
2014-08-01T00:01:09.285000Z $INGGA,000109.16,2200.250608,S,01756.479405,W,1,12,0.7,-2.45,M,4.67,M,,*64
2014-08-01T00:01:09.402000Z $INVTG,218.62,T,243.30,M,9.3,N,17.2,K,A*04
2014-08-01T00:01:09.522000Z $INRMC,000109.16,A,2200.250608,S,01756.479405,W,9.3,218.62,010814,24.7,W,A*38
2014-08-01T00:01:09.522000Z $INHDT,218.48,T*12
2014-08-01T00:01:09.522000Z $PSXN,20,1,0,0,0*3A
2014-08-01T00:01:09.522000Z $PSXN,22,0.04,-0.80*18
2014-08-01T00:01:09.522000Z $PSXN,23,-0.61,0.34,218.48,0.25*15
2014-08-01T00:01:10.285000Z $INZDA,000110.17,01,08,2014,,*7E
2014-08-01T00:01:10.285000Z $INGGA,000110.16,2200.252636,S,01756.481154,W,1,12,0.7,-2.28,M,4.67,M,,*6E
2014-08-01T00:01:10.402000Z $INVTG,218.72,T,243.40,M,9.3,N,17.3,K,A*03
2014-08-01T00:01:10.523000Z $INRMC,000110.16,A,2200.252636,S,01756.481154,W,9.3,218.72,010814,24.7,W,A*38
2014-08-01T00:01:10.523000Z $INHDT,218.18,T*17
2014-08-01T00:01:10.523000Z $PSXN,20,1,0,0,0*3A
2014-08-01T00:01:10.523000Z $PSXN,22,0.04,-0.80*18
2014-08-01T00:01:10.523000Z $PSXN,23,-0.56,-0.10,218.18,0.06*3E
2014-08-01T00:01:11.285000Z $INZDA,000111.17,01,08,2014,,*7F
2014-08-01T00:01:11.285000Z $INGGA,000111.16,2200.254665,S,01756.482893,W,1,12,0.7,-2.09,M,4.67,M,,*6D
2014-08-01T00:01:11.402000Z $INVTG,218.70,T,243.38,M,9.3,N,17.2,K,A*0F
2014-08-01T00:01:11.519000Z $INRMC,000111.16,A,2200.254665,S,01756.482893,W,9.3,218.70,010814,24.7,W,A*3A
2014-08-01T00:01:11.519000Z $INHDT,217.84,T*1D
2014-08-01T00:01:11.519000Z $PSXN,20,1,0,0,0*3A
2014-08-01T00:01:11.519000Z $PSXN,22,0.04,-0.80*18
2014-08-01T00:01:11.519000Z $PSXN,23,-0.41,-0.15,217.84,-0.14*19
2014-08-01T00:01:12.285000Z $INZDA,000112.17,01,08,2014,,*7C
2014-08-01T00:01:12.286000Z $INGGA,000112.16,2200.256672,S,01756.484635,W,1,12,0.7,-1.91,M,4.67,M,,*6C
2014-08-01T00:01:12.402000Z $INVTG,219.17,T,243.85,M,9.3,N,17.2,K,A*09
2014-08-01T00:01:12.523000Z $INRMC,000112.16,A,2200.256672,S,01756.484635,W,9.3,219.17,010814,24.7,W,A*39
2014-08-01T00:01:12.523000Z $INHDT,217.72,T*14
2014-08-01T00:01:12.523000Z $PSXN,20,1,0,0,0*3A
2014-08-01T00:01:12.523000Z $PSXN,22,0.04,-0.80*18
2014-08-01T00:01:12.523000Z $PSXN,23,-0.31,0.33,217.72,-0.34*3C
2014-08-01T00:01:13.285000Z $INZDA,000113.17,01,08,2014,,*7D
2014-08-01T00:01:13.285000Z $INGGA,000113.16,2200.258683,S,01756.486395,W,1,12,0.7,-1.95,M,4.67,M,,*64
2014-08-01T00:01:13.402000Z $INVTG,218.91,T,243.59,M,9.4,N,17.4,K,A*06
2014-08-01T00:01:13.523000Z $INRMC,000113.16,A,2200.258683,S,01756.486395,W,9.4,218.91,010814,24.7,W,A*3D
2014-08-01T00:01:13.523000Z $INHDT,217.82,T*1B
2014-08-01T00:01:13.523000Z $PSXN,20,1,0,0,0*3A
2014-08-01T00:01:13.523000Z $PSXN,22,0.04,-0.80*18
2014-08-01T00:01:13.523000Z $PSXN,23,-0.43,0.56,217.82,-0.32*33
2014-08-01T00:01:14.285000Z $INZDA,000114.17,01,08,2014,,*7A
2014-08-01T00:01:14.285000Z $INGGA,000114.16,2200.260753,S,01756.488155,W,1,12,0.7,-2.42,M,4.67,M,,*6D
2014-08-01T00:01:14.402000Z $INVTG,217.91,T,242.59,M,9.6,N,17.7,K,A*09
2014-08-01T00:01:14.523000Z $INRMC,000114.16,A,2200.260753,S,01756.488155,W,9.6,217.91,010814,24.7,W,A*30
2014-08-01T00:01:14.523000Z $INHDT,218.00,T*1E
2014-08-01T00:01:14.523000Z $PSXN,20,1,0,0,0*3A
2014-08-01T00:01:14.523000Z $PSXN,22,0.04,-0.80*18
2014-08-01T00:01:14.523000Z $PSXN,23,-0.65,-0.10,218.00,0.13*33
2014-08-01T00:01:15.286000Z $INZDA,000115.17,01,08,2014,,*7B
2014-08-01T00:01:15.286000Z $INGGA,000115.16,2200.262873,S,01756.489932,W,1,12,0.7,-3.11,M,4.67,M,,*6C
2014-08-01T00:01:15.402000Z $INVTG,217.81,T,242.49,M,9.7,N,18.0,K,A*00
2014-08-01T00:01:15.523000Z $INRMC,000115.16,A,2200.262873,S,01756.489932,W,9.7,217.81,010814,24.7,W,A*36
2014-08-01T00:01:15.523000Z $INHDT,218.08,T*16
2014-08-01T00:01:15.523000Z $PSXN,20,1,0,0,0*3A
2014-08-01T00:01:15.523000Z $PSXN,22,0.04,-0.80*18
2014-08-01T00:01:15.523000Z $PSXN,23,-0.57,-0.99,218.08,0.76*38
2014-08-01T00:01:16.285000Z $INZDA,000116.17,01,08,2014,,*78
2014-08-01T00:01:16.285000Z $INGGA,000116.16,2200.265000,S,01756.491730,W,1,12,0.7,-3.49,M,4.67,M,,*6C
2014-08-01T00:01:16.402000Z $INVTG,218.58,T,243.26,M,9.7,N,18.0,K,A*03
2014-08-01T00:01:16.523000Z $INRMC,000116.16,A,2200.265000,S,01756.491730,W,9.7,218.58,010814,24.7,W,A*30
2014-08-01T00:01:16.523000Z $INHDT,218.14,T*1B
2014-08-01T00:01:16.523000Z $PSXN,20,1,0,0,0*3A
2014-08-01T00:01:16.523000Z $PSXN,22,0.04,-0.80*18
2014-08-01T00:01:16.523000Z $PSXN,23,-0.11,-0.90,218.14,1.10*3F
2014-08-01T00:01:17.285000Z $INZDA,000117.17,01,08,2014,,*79
2014-08-01T00:01:17.285000Z $INGGA,000117.16,2200.267100,S,01756.493558,W,1,12,0.7,-3.29,M,4.67,M,,*66
2014-08-01T00:01:17.402000Z $INVTG,219.56,T,244.24,M,9.7,N,17.9,K,A*0F
2014-08-01T00:01:17.521000Z $INRMC,000117.16,A,2200.267100,S,01756.493558,W,9.7,219.56,010814,24.7,W,A*33
2014-08-01T00:01:17.521000Z $INHDT,218.37,T*1A
2014-08-01T00:01:17.521000Z $PSXN,20,1,0,0,0*3A
2014-08-01T00:01:17.521000Z $PSXN,22,0.04,-0.80*18
2014-08-01T00:01:17.521000Z $PSXN,23,0.42,0.42,218.37,0.89*36
2014-08-01T00:01:18.285000Z $INZDA,000118.17,01,08,2014,,*76
2014-08-01T00:01:18.285000Z $INGGA,000118.16,2200.269141,S,01756.495396,W,1,12,0.7,-2.68,M,4.67,M,,*64
2014-08-01T00:01:18.402000Z $INVTG,220.71,T,245.39,M,9.5,N,17.6,K,A*00
2014-08-01T00:01:18.521000Z $INRMC,000118.16,A,2200.269141,S,01756.495396,W,9.5,220.71,010814,24.7,W,A*38
2014-08-01T00:01:18.521000Z $INHDT,218.67,T*1F
2014-08-01T00:01:18.521000Z $PSXN,20,1,0,0,0*3A
2014-08-01T00:01:18.521000Z $PSXN,22,0.04,-0.80*18
2014-08-01T00:01:18.521000Z $PSXN,23,0.69,1.86,218.67,0.27*37
2014-08-01T00:01:19.285000Z $INZDA,000119.17,01,08,2014,,*77
2014-08-01T00:01:19.285000Z $INGGA,000119.16,2200.271129,S,01756.497232,W,1,12,0.7,-2.09,M,4.67,M,,*68
2014-08-01T00:01:19.402000Z $INVTG,220.96,T,245.64,M,9.3,N,17.2,K,A*03
2014-08-01T00:01:19.522000Z $INRMC,000119.16,A,2200.271129,S,01756.497232,W,9.3,220.96,010814,24.7,W,A*3C
2014-08-01T00:01:19.522000Z $INHDT,218.79,T*10
2014-08-01T00:01:19.522000Z $PSXN,20,1,0,0,0*3A
2014-08-01T00:01:19.522000Z $PSXN,22,0.04,-0.80*18
2014-08-01T00:01:19.522000Z $PSXN,23,0.73,2.08,218.79,-0.29*15
2014-08-01T00:01:20.285000Z $INZDA,000120.17,01,08,2014,,*7D
2014-08-01T00:01:20.285000Z $INGGA,000120.16,2200.273066,S,01756.499002,W,1,12,0.7,-1.80,M,4.67,M,,*67
2014-08-01T00:01:20.402000Z $INVTG,219.61,T,244.29,M,8.9,N,16.5,K,A*04
2014-08-01T00:01:20.522000Z $INRMC,000120.16,A,2200.273066,S,01756.499002,W,8.9,219.61,010814,24.7,W,A*38
2014-08-01T00:01:20.522000Z $INHDT,218.67,T*1F
2014-08-01T00:01:20.522000Z $PSXN,20,1,0,0,0*3A
2014-08-01T00:01:20.522000Z $PSXN,22,0.04,-0.80*18
2014-08-01T00:01:20.522000Z $PSXN,23,0.66,1.19,218.67,-0.57*14
2014-08-01T00:01:21.285000Z $INZDA,000121.17,01,08,2014,,*7C
2014-08-01T00:01:21.285000Z $INGGA,000121.16,2200.274983,S,01756.500643,W,1,12,0.7,-1.69,M,4.67,M,,*66
2014-08-01T00:01:21.402000Z $INVTG,217.50,T,242.18,M,8.7,N,16.1,K,A*06
2014-08-01T00:01:21.522000Z $INRMC,000121.16,A,2200.274983,S,01756.500643,W,8.7,217.50,010814,24.7,W,A*3C
2014-08-01T00:01:21.522000Z $INHDT,218.51,T*1A
2014-08-01T00:01:21.522000Z $PSXN,20,1,0,0,0*3A
2014-08-01T00:01:21.522000Z $PSXN,22,0.04,-0.80*18
2014-08-01T00:01:21.522000Z $PSXN,23,0.44,0.31,218.51,-0.69*17
2014-08-01T00:01:22.285000Z $INZDA,000122.17,01,08,2014,,*7F
2014-08-01T00:01:22.285000Z $INGGA,000122.16,2200.276904,S,01756.502204,W,1,12,0.7,-1.60,M,4.67,M,,*64
2014-08-01T00:01:22.402000Z $INVTG,217.16,T,241.84,M,8.7,N,16.1,K,A*02
2014-08-01T00:01:22.523000Z $INRMC,000122.16,A,2200.276904,S,01756.502204,W,8.7,217.16,010814,24.7,W,A*35
2014-08-01T00:01:22.523000Z $INHDT,218.49,T*13
2014-08-01T00:01:22.523000Z $PSXN,20,1,0,0,0*3A
2014-08-01T00:01:22.523000Z $PSXN,22,0.04,-0.80*18
2014-08-01T00:01:22.523000Z $PSXN,23,0.11,-0.15,218.49,-0.78*35
2014-08-01T00:01:23.285000Z $INZDA,000123.17,01,08,2014,,*7E
2014-08-01T00:01:23.285000Z $INGGA,000123.16,2200.278846,S,01756.503809,W,1,12,0.7,-1.62,M,4.67,M,,*68
2014-08-01T00:01:23.402000Z $INVTG,218.73,T,243.41,M,9.0,N,16.6,K,A*04
2014-08-01T00:01:23.519000Z $INRMC,000123.16,A,2200.278846,S,01756.503809,W,9.0,218.73,010814,24.7,W,A*31
2014-08-01T00:01:23.519000Z $INHDT,218.62,T*1A
2014-08-01T00:01:23.519000Z $PSXN,20,1,0,0,0*3A
2014-08-01T00:01:23.519000Z $PSXN,22,0.04,-0.80*18
2014-08-01T00:01:23.519000Z $PSXN,23,-0.16,-0.67,218.62,-0.75*1E
2014-08-01T00:01:24.285000Z $INZDA,000124.17,01,08,2014,,*79
2014-08-01T00:01:24.285000Z $INGGA,000124.16,2200.280803,S,01756.505557,W,1,12,0.7,-1.83,M,4.67,M,,*66
2014-08-01T00:01:24.402000Z $INVTG,220.65,T,245.33,M,9.3,N,17.1,K,A*0E
2014-08-01T00:01:24.519000Z $INRMC,000124.16,A,2200.280803,S,01756.505557,W,9.3,220.65,010814,24.7,W,A*3F
2014-08-01T00:01:24.519000Z $INHDT,218.82,T*14
2014-08-01T00:01:24.519000Z $PSXN,20,1,0,0,0*3A
2014-08-01T00:01:24.519000Z $PSXN,22,0.04,-0.80*18
2014-08-01T00:01:24.519000Z $PSXN,23,-0.25,-1.26,218.82,-0.54*17
2014-08-01T00:01:25.285000Z $INZDA,000125.17,01,08,2014,,*78
2014-08-01T00:01:25.285000Z $INGGA,000125.16,2200.282764,S,01756.507399,W,1,12,0.7,-2.06,M,4.67,M,,*63
2014-08-01T00:01:25.402000Z $INVTG,222.18,T,246.86,M,9.4,N,17.4,K,A*09
2014-08-01T00:01:25.519000Z $INRMC,000125.16,A,2200.282764,S,01756.507399,W,9.4,222.18,010814,24.7,W,A*3B
2014-08-01T00:01:25.519000Z $INHDT,219.09,T*16
2014-08-01T00:01:25.519000Z $PSXN,20,1,0,0,0*3A
2014-08-01T00:01:25.519000Z $PSXN,22,0.04,-0.80*18
2014-08-01T00:01:25.519000Z $PSXN,23,-0.26,-0.89,219.09,-0.29*18
2014-08-01T00:01:26.285000Z $INZDA,000126.17,01,08,2014,,*7B
2014-08-01T00:01:26.285000Z $INGGA,000126.16,2200.284694,S,01756.509290,W,1,12,0.7,-2.23,M,4.67,M,,*69
2014-08-01T00:01:26.402000Z $INVTG,222.73,T,247.42,M,9.4,N,17.4,K,A*0D
2014-08-01T00:01:26.523000Z $INRMC,000126.16,A,2200.284694,S,01756.509290,W,9.4,222.73,010814,24.7,W,A*3B
2014-08-01T00:01:26.523000Z $INHDT,219.26,T*1B
2014-08-01T00:01:26.523000Z $PSXN,20,1,0,0,0*3A
2014-08-01T00:01:26.523000Z $PSXN,22,0.04,-0.80*18
2014-08-01T00:01:26.523000Z $PSXN,23,-0.24,0.40,219.26,-0.10*35
2014-08-01T00:01:27.285000Z $INZDA,000127.17,01,08,2014,,*7A
2014-08-01T00:01:27.285000Z $INGGA,000127.16,2200.286627,S,01756.511207,W,1,12,0.7,-2.39,M,4.67,M,,*6E
2014-08-01T00:01:27.402000Z $INVTG,222.43,T,247.11,M,9.5,N,17.5,K,A*08
2014-08-01T00:01:27.522000Z $INRMC,000127.16,A,2200.286627,S,01756.511207,W,9.5,222.43,010814,24.7,W,A*35
2014-08-01T00:01:27.522000Z $INHDT,219.17,T*19
2014-08-01T00:01:27.522000Z $PSXN,20,1,0,0,0*3A
2014-08-01T00:01:27.522000Z $PSXN,22,0.04,-0.80*18
2014-08-01T00:01:27.522000Z $PSXN,23,-0.25,1.20,219.17,0.08*15
2014-08-01T00:01:28.285000Z $INZDA,000128.17,01,08,2014,,*75
2014-08-01T00:01:28.285000Z $INGGA,000128.16,2200.288633,S,01756.513092,W,1,12,0.7,-2.80,M,4.67,M,,*64
2014-08-01T00:01:28.402000Z $INVTG,219.98,T,244.66,M,9.7,N,17.9,K,A*0B
2014-08-01T00:01:28.522000Z $INRMC,000128.16,A,2200.288633,S,01756.513092,W,9.7,219.98,010814,24.7,W,A*31
2014-08-01T00:01:28.522000Z $INHDT,218.79,T*10
2014-08-01T00:01:28.522000Z $PSXN,20,1,0,0,0*3A
2014-08-01T00:01:28.522000Z $PSXN,22,0.04,-0.80*18
2014-08-01T00:01:28.522000Z $PSXN,23,-0.31,0.41,218.79,0.50*12
2014-08-01T00:01:29.285000Z $INZDA,000129.17,01,08,2014,,*74
2014-08-01T00:01:29.285000Z $INGGA,000129.16,2200.290768,S,01756.514917,W,1,12,0.7,-3.49,M,4.67,M,,*64
2014-08-01T00:01:29.402000Z $INVTG,217.17,T,241.85,M,9.9,N,18.3,K,A*01
2014-08-01T00:01:29.523000Z $INRMC,000129.16,A,2200.290768,S,01756.514917,W,9.9,217.17,010814,24.7,W,A*32
2014-08-01T00:01:29.523000Z $INHDT,218.33,T*1E
2014-08-01T00:01:29.523000Z $PSXN,20,1,0,0,0*3A
2014-08-01T00:01:29.523000Z $PSXN,22,0.04,-0.80*18
2014-08-01T00:01:29.523000Z $PSXN,23,-0.27,-1.31,218.33,1.17*32
2014-08-01T00:01:30.285000Z $INZDA,000130.17,01,08,2014,,*7C
2014-08-01T00:01:30.285000Z $INGGA,000130.16,2200.293009,S,01756.516669,W,1,12,0.7,-3.99,M,4.67,M,,*66
2014-08-01T00:01:30.402000Z $INVTG,215.37,T,240.05,M,10.0,N,18.5,K,A*3F
2014-08-01T00:01:30.519000Z $INRMC,000130.16,A,2200.293009,S,01756.516669,W,10.0,215.37,010814,24.7,W,A*0C
2014-08-01T00:01:30.519000Z $INHDT,218.16,T*19
2014-08-01T00:01:30.519000Z $PSXN,20,1,0,0,0*3A
2014-08-01T00:01:30.519000Z $PSXN,22,0.04,-0.80*18
2014-08-01T00:01:30.525000Z $PSXN,23,-0.28,-1.72,218.16,1.63*3E
2014-08-01T00:01:31.286000Z $INZDA,000131.17,01,08,2014,,*7D
2014-08-01T00:01:31.286000Z $INGGA,000131.16,2200.295272,S,01756.518374,W,1,12,0.7,-3.79,M,4.67,M,,*66
2014-08-01T00:01:31.402000Z $INVTG,215.07,T,239.75,M,9.8,N,18.2,K,A*02
2014-08-01T00:01:31.522000Z $INRMC,000131.16,A,2200.295272,S,01756.518374,W,9.8,215.07,010814,24.7,W,A*31
2014-08-01T00:01:31.522000Z $INHDT,218.34,T*19
2014-08-01T00:01:31.522000Z $PSXN,20,1,0,0,0*3A
2014-08-01T00:01:31.522000Z $PSXN,22,0.04,-0.80*18
2014-08-01T00:01:31.522000Z $PSXN,23,-0.48,0.12,218.34,1.40*13
2014-08-01T00:01:32.285000Z $INZDA,000132.17,01,08,2014,,*7E
2014-08-01T00:01:32.285000Z $INGGA,000132.16,2200.297465,S,01756.520042,W,1,12,0.7,-2.79,M,4.67,M,,*6B
2014-08-01T00:01:32.402000Z $INVTG,216.81,T,241.49,M,9.4,N,17.4,K,A*0A
2014-08-01T00:01:32.522000Z $INRMC,000132.16,A,2200.297465,S,01756.520042,W,9.4,216.81,010814,24.7,W,A*3C
2014-08-01T00:01:32.522000Z $INHDT,218.76,T*1F
2014-08-01T00:01:32.522000Z $PSXN,20,1,0,0,0*3A
2014-08-01T00:01:32.522000Z $PSXN,22,0.04,-0.80*18
2014-08-01T00:01:32.522000Z $PSXN,23,-0.53,2.75,218.76,0.40*1D
2014-08-01T00:01:33.285000Z $INZDA,000133.17,01,08,2014,,*7F
2014-08-01T00:01:33.285000Z $INGGA,000133.16,2200.299460,S,01756.521754,W,1,12,0.7,-1.51,M,4.67,M,,*69
2014-08-01T00:01:33.402000Z $INVTG,220.90,T,245.58,M,8.9,N,16.5,K,A*07
2014-08-01T00:01:33.523000Z $INRMC,000133.16,A,2200.299460,S,01756.521754,W,8.9,220.90,010814,24.7,W,A*3E
2014-08-01T00:01:33.523000Z $INHDT,219.31,T*1D
2014-08-01T00:01:33.523000Z $PSXN,20,1,0,0,0*3A
2014-08-01T00:01:33.523000Z $PSXN,22,0.04,-0.80*18
2014-08-01T00:01:33.523000Z $PSXN,23,-0.14,3.83,219.31,-0.86*33
2014-08-01T00:01:34.286000Z $INZDA,000134.17,01,08,2014,,*78
2014-08-01T00:01:34.286000Z $INGGA,000134.16,2200.301253,S,01756.523542,W,1,12,0.7,-0.68,M,4.67,M,,*64
2014-08-01T00:01:34.402000Z $INVTG,225.14,T,249.82,M,8.7,N,16.0,K,A*0E
2014-08-01T00:01:34.522000Z $INRMC,000134.16,A,2200.301253,S,01756.523542,W,8.7,225.14,010814,24.7,W,A*3F
2014-08-01T00:01:34.522000Z $INHDT,219.79,T*11
2014-08-01T00:01:34.522000Z $PSXN,20,1,0,0,0*3A
2014-08-01T00:01:34.522000Z $PSXN,22,0.04,-0.80*18
2014-08-01T00:01:34.522000Z $PSXN,23,0.33,2.36,219.79,-1.65*14
2014-08-01T00:01:35.285000Z $INZDA,000135.17,01,08,2014,,*79
2014-08-01T00:01:35.285000Z $INGGA,000135.16,2200.302897,S,01756.525397,W,1,12,0.7,-0.66,M,4.67,M,,*62
2014-08-01T00:01:35.402000Z $INVTG,226.87,T,251.55,M,8.5,N,15.7,K,A*02
2014-08-01T00:01:35.523000Z $INRMC,000135.16,A,2200.302897,S,01756.525397,W,8.5,226.87,010814,24.7,W,A*3C
2014-08-01T00:01:35.523000Z $INHDT,219.92,T*14
2014-08-01T00:01:35.523000Z $PSXN,20,1,0,0,0*3A
2014-08-01T00:01:35.523000Z $PSXN,22,0.04,-0.80*18
2014-08-01T00:01:35.523000Z $PSXN,23,0.66,-0.42,219.92,-1.68*30
2014-08-01T00:01:36.285000Z $INZDA,000136.17,01,08,2014,,*7A
2014-08-01T00:01:36.285000Z $INGGA,000136.16,2200.304506,S,01756.527242,W,1,12,0.7,-1.07,M,4.67,M,,*6F
2014-08-01T00:01:36.402000Z $INVTG,225.64,T,250.32,M,8.5,N,15.7,K,A*0C
2014-08-01T00:01:36.523000Z $INRMC,000136.16,A,2200.304506,S,01756.527242,W,8.5,225.64,010814,24.7,W,A*39
2014-08-01T00:01:36.523000Z $INHDT,219.46,T*1D
2014-08-01T00:01:36.523000Z $PSXN,20,1,0,0,0*3A
2014-08-01T00:01:36.523000Z $PSXN,22,0.04,-0.80*18
2014-08-01T00:01:36.523000Z $PSXN,23,0.90,-1.99,219.46,-1.28*33
2014-08-01T00:01:37.285000Z $INZDA,000137.17,01,08,2014,,*7B
2014-08-01T00:01:37.285000Z $INGGA,000137.16,2200.306215,S,01756.528967,W,1,12,0.7,-1.53,M,4.67,M,,*6B
2014-08-01T00:01:37.402000Z $INVTG,221.69,T,246.37,M,8.5,N,15.8,K,A*08
2014-08-01T00:01:37.523000Z $INRMC,000137.16,A,2200.306215,S,01756.528967,W,8.5,221.69,010814,24.7,W,A*35
2014-08-01T00:01:37.523000Z $INHDT,218.82,T*14
2014-08-01T00:01:37.523000Z $PSXN,20,1,0,0,0*3A
2014-08-01T00:01:37.523000Z $PSXN,22,0.04,-0.80*18
2014-08-01T00:01:37.523000Z $PSXN,23,0.98,-1.29,218.82,-0.83*39
2014-08-01T00:01:38.285000Z $INZDA,000138.17,01,08,2014,,*74
2014-08-01T00:01:38.285000Z $INGGA,000138.16,2200.308060,S,01756.530621,W,1,12,0.7,-1.81,M,4.67,M,,*61
2014-08-01T00:01:38.402000Z $INVTG,218.64,T,243.32,M,8.7,N,16.2,K,A*04
2014-08-01T00:01:38.522000Z $INRMC,000138.16,A,2200.308060,S,01756.530621,W,8.7,218.64,010814,24.7,W,A*35
2014-08-01T00:01:38.522000Z $INHDT,218.26,T*1A
2014-08-01T00:01:38.522000Z $PSXN,20,1,0,0,0*3A
2014-08-01T00:01:38.522000Z $PSXN,22,0.04,-0.80*18
2014-08-01T00:01:38.522000Z $PSXN,23,0.73,0.47,218.26,-0.52*1A
2014-08-01T00:01:39.285000Z $INZDA,000139.17,01,08,2014,,*75
2014-08-01T00:01:39.285000Z $INGGA,000139.16,2200.310015,S,01756.532233,W,1,12,0.7,-2.10,M,4.67,M,,*65
2014-08-01T00:01:39.402000Z $INVTG,217.72,T,242.41,M,9.0,N,16.6,K,A*0B
2014-08-01T00:01:39.523000Z $INRMC,000139.16,A,2200.310015,S,01756.532233,W,9.0,217.72,010814,24.7,W,A*34
2014-08-01T00:01:39.523000Z $INHDT,218.03,T*1D
2014-08-01T00:01:39.523000Z $PSXN,20,1,0,0,0*3A
2014-08-01T00:01:39.523000Z $PSXN,22,0.04,-0.80*18
2014-08-01T00:01:39.523000Z $PSXN,23,-0.00,1.15,218.03,-0.18*3C
2014-08-01T00:01:40.285000Z $INZDA,000140.17,01,08,2014,,*7B
2014-08-01T00:01:40.285000Z $INGGA,000140.16,2200.312034,S,01756.533902,W,1,12,0.7,-2.71,M,4.67,M,,*65
2014-08-01T00:01:40.402000Z $INVTG,217.22,T,241.90,M,9.3,N,17.1,K,A*04
2014-08-01T00:01:40.523000Z $INRMC,000140.16,A,2200.312034,S,01756.533902,W,9.3,217.22,010814,24.7,W,A*35
2014-08-01T00:01:40.523000Z $INHDT,217.88,T*11
2014-08-01T00:01:40.523000Z $PSXN,20,1,0,0,0*3A
2014-08-01T00:01:40.523000Z $PSXN,22,0.04,-0.80*18
2014-08-01T00:01:40.523000Z $PSXN,23,-0.72,-0.12,217.88,0.47*39
2014-08-01T00:01:41.285000Z $INZDA,000141.17,01,08,2014,,*7A
2014-08-01T00:01:41.285000Z $INGGA,000141.16,2200.314153,S,01756.535581,W,1,12,0.7,-3.59,M,4.67,M,,*68
2014-08-01T00:01:41.402000Z $INVTG,215.82,T,240.50,M,9.6,N,17.9,K,A*0C
2014-08-01T00:01:41.523000Z $INRMC,000141.16,A,2200.314153,S,01756.535581,W,9.6,215.82,010814,24.7,W,A*3E
2014-08-01T00:01:41.523000Z $INHDT,217.59,T*1D
2014-08-01T00:01:41.523000Z $PSXN,20,1,0,0,0*3A
2014-08-01T00:01:41.523000Z $PSXN,22,0.04,-0.80*18
2014-08-01T00:01:41.523000Z $PSXN,23,-0.92,-2.09,217.59,1.36*34
2014-08-01T00:01:42.285000Z $INZDA,000142.17,01,08,2014,,*79
2014-08-01T00:01:42.285000Z $INGGA,000142.16,2200.316372,S,01756.537299,W,1,12,0.7,-4.26,M,4.67,M,,*6B
2014-08-01T00:01:42.402000Z $INVTG,215.70,T,240.38,M,10.0,N,18.5,K,A*32
2014-08-01T00:01:42.519000Z $INRMC,000142.16,A,2200.316372,S,01756.537299,W,10.0,215.70,010814,24.7,W,A*01
2014-08-01T00:01:42.519000Z $INHDT,217.37,T*15
2014-08-01T00:01:42.519000Z $PSXN,20,1,0,0,0*3A
2014-08-01T00:01:42.519000Z $PSXN,22,0.04,-0.80*18
2014-08-01T00:01:42.525000Z $PSXN,23,-0.71,-2.51,217.37,2.01*3B
2014-08-01T00:01:43.285000Z $INZDA,000143.17,01,08,2014,,*78
2014-08-01T00:01:43.285000Z $INGGA,000143.16,2200.318631,S,01756.539065,W,1,12,0.7,-4.13,M,4.67,M,,*6F
2014-08-01T00:01:43.402000Z $INVTG,217.65,T,242.33,M,10.0,N,18.5,K,A*3D
2014-08-01T00:01:43.519000Z $INRMC,000143.16,A,2200.318631,S,01756.539065,W,10.0,217.65,010814,24.7,W,A*05
2014-08-01T00:01:43.519000Z $INHDT,217.69,T*1E
2014-08-01T00:01:43.519000Z $PSXN,20,1,0,0,0*3A
2014-08-01T00:01:43.519000Z $PSXN,22,0.04,-0.80*18
2014-08-01T00:01:43.525000Z $PSXN,23,-0.44,-0.44,217.69,1.86*3C
2014-08-01T00:01:44.285000Z $INZDA,000144.17,01,08,2014,,*7F
2014-08-01T00:01:44.285000Z $INGGA,000144.16,2200.320751,S,01756.540917,W,1,12,0.7,-3.01,M,4.67,M,,*62
2014-08-01T00:01:44.402000Z $INVTG,220.72,T,245.40,M,9.6,N,17.7,K,A*0F
2014-08-01T00:01:44.522000Z $INRMC,000144.16,A,2200.320751,S,01756.540917,W,9.6,220.72,010814,24.7,W,A*30
2014-08-01T00:01:44.522000Z $INHDT,218.44,T*1E
2014-08-01T00:01:44.522000Z $PSXN,20,1,0,0,0*3A
2014-08-01T00:01:44.522000Z $PSXN,22,0.04,-0.80*18
2014-08-01T00:01:44.522000Z $PSXN,23,-0.26,2.79,218.44,0.74*15
2014-08-01T00:01:45.285000Z $INZDA,000145.17,01,08,2014,,*7E
2014-08-01T00:01:45.285000Z $INGGA,000145.16,2200.322654,S,01756.542744,W,1,12,0.7,-1.38,M,4.67,M,,*67
2014-08-01T00:01:45.402000Z $INVTG,223.40,T,248.08,M,8.8,N,16.2,K,A*07
2014-08-01T00:01:45.523000Z $INRMC,000145.16,A,2200.322654,S,01756.542744,W,8.8,223.40,010814,24.7,W,A*30
2014-08-01T00:01:45.523000Z $INHDT,219.15,T*1B
2014-08-01T00:01:45.523000Z $PSXN,20,1,0,0,0*3A
2014-08-01T00:01:45.523000Z $PSXN,22,0.04,-0.80*18
2014-08-01T00:01:45.523000Z $PSXN,23,-0.23,4.92,219.15,-0.87*37
2014-08-01T00:01:46.285000Z $INZDA,000146.17,01,08,2014,,*7D
2014-08-01T00:01:46.285000Z $INGGA,000146.16,2200.324328,S,01756.544490,W,1,12,0.7,-0.08,M,4.67,M,,*62
2014-08-01T00:01:46.402000Z $INVTG,224.72,T,249.41,M,8.0,N,14.9,K,A*0C
2014-08-01T00:01:46.523000Z $INRMC,000146.16,A,2200.324328,S,01756.544490,W,8.0,224.72,010814,24.7,W,A*39
2014-08-01T00:01:46.523000Z $INHDT,219.36,T*1A
2014-08-01T00:01:46.523000Z $PSXN,20,1,0,0,0*3A
2014-08-01T00:01:46.523000Z $PSXN,22,0.04,-0.80*18
2014-08-01T00:01:46.523000Z $PSXN,23,-0.04,4.50,219.36,-2.13*32
2014-08-01T00:01:47.286000Z $INZDA,000147.17,01,08,2014,,*7C
2014-08-01T00:01:47.286000Z $INGGA,000147.16,2200.325882,S,01756.546130,W,1,12,0.7,0.14,M,4.67,M,,*44
2014-08-01T00:01:47.402000Z $INVTG,223.35,T,248.03,M,7.7,N,14.2,K,A*0C
2014-08-01T00:01:47.521000Z $INRMC,000147.16,A,2200.325882,S,01756.546130,W,7.7,223.35,010814,24.7,W,A*33
2014-08-01T00:01:47.521000Z $INHDT,219.19,T*17
2014-08-01T00:01:47.521000Z $PSXN,20,1,0,0,0*3A
2014-08-01T00:01:47.521000Z $PSXN,22,0.04,-0.80*18
2014-08-01T00:01:47.521000Z $PSXN,23,0.39,1.66,219.19,-2.34*19
2014-08-01T00:01:48.285000Z $INZDA,000148.17,01,08,2014,,*73
2014-08-01T00:01:48.285000Z $INGGA,000148.16,2200.327448,S,01756.547682,W,1,12,0.7,-0.73,M,4.67,M,,*60
2014-08-01T00:01:48.402000Z $INVTG,221.46,T,246.14,M,7.7,N,14.3,K,A*03
2014-08-01T00:01:48.523000Z $INRMC,000148.16,A,2200.327448,S,01756.547682,W,7.7,221.46,010814,24.7,W,A*3D
2014-08-01T00:01:48.523000Z $INHDT,218.97,T*10
2014-08-01T00:01:48.523000Z $PSXN,20,1,0,0,0*3A
2014-08-01T00:01:48.523000Z $PSXN,22,0.04,-0.80*18
