2017-11-04:05:12:19.479303 $INZDA,000000.17,07,08,2014,,*78
2017-11-04:05:12:19.729748 $INGGA,000000.16,3934.831698,S,03727.695242,W,1,12,0.7,0.82,M,-3.04,M,,*6F
2017-11-04:05:12:19.984911 $INVTG,227.19,T,245.64,M,10.8,N,20.0,K,A*36
2017-11-04:05:12:20.240177 $INRMC,000000.16,A,3934.831698,S,03727.695242,W,10.8,227.19,070814,18.5,W,A*00
2017-11-04:05:12:20.495430 $INHDT,235.18,T*18
2017-11-04:05:12:20.748665 $PSXN,20,1,0,0,0*3A
2017-11-04:05:12:21.000716 $PSXN,22,-0.05,-0.68*32
2017-11-04:05:12:21.256010 $PSXN,23,-2.82,1.00,235.18,-1.66*3D
2017-11-04:05:12:21.511263 $INZDA,000001.17,07,08,2014,,*79
2017-11-04:05:12:21.765827 $INGGA,000001.16,3934.833674,S,03727.698164,W,1,12,0.7,0.03,M,-3.04,M,,*6D
2017-11-04:05:12:22.016470 $INVTG,230.21,T,248.66,M,10.8,N,20.0,K,A*34
2017-11-04:05:12:22.267012 $INRMC,000001.16,A,3934.833674,S,03727.698164,W,10.8,230.21,070814,18.5,W,A*06
2017-11-04:05:12:22.520671 $INHDT,235.50,T*14
2017-11-04:05:12:22.770997 $PSXN,20,1,0,0,0*3A
2017-11-04:05:12:23.022713 $PSXN,22,-0.05,-0.68*32
2017-11-04:05:12:23.274388 $PSXN,23,-2.68,-2.25,235.50,-0.88*1D
2017-11-04:05:12:23.525550 $INZDA,000002.17,07,08,2014,,*7A
2017-11-04:05:12:23.775697 $INGGA,000002.16,3934.835563,S,03727.701242,W,1,12,0.7,-1.24,M,-3.04,M,,*42
2017-11-04:05:12:24.030406 $INVTG,232.29,T,250.74,M,11.2,N,20.7,K,A*38
2017-11-04:05:12:24.285581 $INRMC,000002.16,A,3934.835563,S,03727.701242,W,11.2,232.29,070814,18.5,W,A*01
2017-11-04:05:12:24.539452 $INHDT,235.73,T*15
2017-11-04:05:12:24.790884 $PSXN,20,1,0,0,0*3A
2017-11-04:05:12:25.042829 $PSXN,22,-0.05,-0.68*32
2017-11-04:05:12:25.295830 $PSXN,23,-2.27,-3.37,235.73,0.34*3F
2017-11-04:05:12:25.551120 $INZDA,000003.17,07,08,2014,,*7B
2017-11-04:05:12:25.806433 $INGGA,000003.16,3934.837475,S,03727.704471,W,1,12,0.7,-2.05,M,-3.04,M,,*44
2017-11-04:05:12:26.061750 $INVTG,232.26,T,250.71,M,11.6,N,21.4,K,A*34
2017-11-04:05:12:26.314871 $INRMC,000003.16,A,3934.837475,S,03727.704471,W,11.6,232.26,070814,18.5,W,A*0C
2017-11-04:05:12:26.567007 $INHDT,235.52,T*16
2017-11-04:05:12:26.819311 $PSXN,20,1,0,0,0*3A
2017-11-04:05:12:27.071958 $PSXN,22,-0.05,-0.68*32
2017-11-04:05:12:27.327301 $PSXN,23,-1.66,-1.70,235.52,1.11*3D
2017-11-04:05:12:27.581758 $INZDA,000004.17,07,08,2014,,*7C
2017-11-04:05:12:27.832506 $INGGA,000004.16,3934.839517,S,03727.707744,W,1,12,0.7,-1.97,M,-3.04,M,,*46
2017-11-04:05:12:28.085464 $INVTG,230.17,T,248.62,M,11.7,N,21.6,K,A*3C
2017-11-04:05:12:28.335724 $INRMC,000004.16,A,3934.839517,S,03727.707744,W,11.7,230.17,070814,18.5,W,A*07
2017-11-04:05:12:28.586228 $INHDT,235.02,T*13
2017-11-04:05:12:28.837837 $PSXN,20,1,0,0,0*3A
2017-11-04:05:12:29.091908 $PSXN,22,-0.05,-0.68*32
2017-11-04:05:12:29.347271 $PSXN,23,-1.14,1.03,235.02,0.91*1D
2017-11-04:05:12:29.602754 $INZDA,000005.17,07,08,2014,,*7D
2017-11-04:05:12:29.852994 $INGGA,000005.16,3934.841607,S,03727.710901,W,1,12,0.7,-1.09,M,-3.04,M,,*44
2017-11-04:05:12:30.107905 $INVTG,228.97,T,247.42,M,11.3,N,21.0,K,A*32
2017-11-04:05:12:30.363333 $INRMC,000005.16,A,3934.841607,S,03727.710901,W,11.3,228.97,070814,18.5,W,A*07
2017-11-04:05:12:30.618630 $INHDT,234.72,T*15
2017-11-04:05:12:30.873959 $PSXN,20,1,0,0,0*3A
2017-11-04:05:12:31.125998 $PSXN,22,-0.05,-0.68*32
2017-11-04:05:12:31.378723 $PSXN,23,-1.09,2.80,234.72,-0.01*3B
2017-11-04:05:12:31.629593 $INZDA,000006.17,07,08,2014,,*7E
2017-11-04:05:12:31.884189 $INGGA,000006.16,3934.843654,S,03727.713922,W,1,12,0.7,-0.22,M,-3.04,M,,*49
2017-11-04:05:12:32.139299 $INVTG,229.19,T,247.64,M,11.0,N,20.3,K,A*30
2017-11-04:05:12:32.394171 $INRMC,000006.16,A,3934.843654,S,03727.713922,W,11.0,229.19,070814,18.5,W,A*06
2017-11-04:05:12:32.649491 $INHDT,234.87,T*1F
2017-11-04:05:12:32.905250 $PSXN,20,1,0,0,0*3A
2017-11-04:05:12:33.157275 $PSXN,22,-0.05,-0.68*32
2017-11-04:05:12:33.410308 $PSXN,23,-1.47,2.72,234.87,-0.88*37
2017-11-04:05:12:33.665606 $INZDA,000007.17,07,08,2014,,*7F
2017-11-04:05:12:33.920912 $INGGA,000007.16,3934.845607,S,03727.716908,W,1,12,0.7,-0.19,M,-3.04,M,,*4D
2017-11-04:05:12:34.176229 $INVTG,229.94,T,248.39,M,10.8,N,20.0,K,A*38
2017-11-04:05:12:34.431640 $INRMC,000007.16,A,3934.845607,S,03727.716908,W,10.8,229.94,070814,18.5,W,A*06
2017-11-04:05:12:34.685615 $INHDT,235.25,T*16
2017-11-04:05:12:34.936022 $PSXN,20,1,0,0,0*3A
2017-11-04:05:12:35.186212 $PSXN,22,-0.05,-0.68*32
2017-11-04:05:12:35.441559 $PSXN,23,-1.90,0.96,235.25,-0.92*37
2017-11-04:05:12:35.696904 $INZDA,000008.17,07,08,2014,,*70
2017-11-04:05:12:35.952205 $INGGA,000008.16,3934.847554,S,03727.719908,W,1,12,0.7,-1.09,M,-3.04,M,,*4A
2017-11-04:05:12:36.202808 $INVTG,229.61,T,248.06,M,11.0,N,20.3,K,A*34
2017-11-04:05:12:36.457498 $INRMC,000008.16,A,3934.847554,S,03727.719908,W,11.0,229.61,070814,18.5,W,A*02
2017-11-04:05:12:36.709179 $INHDT,235.42,T*17
2017-11-04:05:12:36.962581 $PSXN,20,1,0,0,0*3A
2017-11-04:05:12:37.217781 $PSXN,22,-0.05,-0.68*32
2017-11-04:05:12:37.473082 $PSXN,23,-2.22,-1.29,235.42,-0.06*19
2017-11-04:05:12:37.728403 $INZDA,000009.17,07,08,2014,,*71
2017-11-04:05:12:37.983698 $INGGA,000009.16,3934.849565,S,03727.722930,W,1,12,0.7,-2.09,M,-3.04,M,,*47
2017-11-04:05:12:38.239086 $INVTG,228.84,T,247.29,M,11.2,N,20.8,K,A*35
2017-11-04:05:12:38.489241 $INRMC,000009.16,A,3934.849565,S,03727.722930,W,11.2,228.84,070814,18.5,W,A*04
2017-11-04:05:12:38.744386 $INHDT,235.29,T*1A
2017-11-04:05:12:38.999729 $PSXN,20,1,0,0,0*3A
2017-11-04:05:12:39.255027 $PSXN,22,-0.05,-0.68*32
2017-11-04:05:12:39.510353 $PSXN,23,-2.16,-2.42,235.29,0.90*3F
2017-11-04:05:12:39.765699 $INZDA,000010.17,07,08,2014,,*79
2017-11-04:05:12:40.021797 $INGGA,000010.16,3934.851626,S,03727.725978,W,1,12,0.7,-2.35,M,-3.04,M,,*46
2017-11-04:05:12:40.276727 $INVTG,228.71,T,247.16,M,11.3,N,20.9,K,A*33
2017-11-04:05:12:40.526812 $INRMC,000010.16,A,3934.851626,S,03727.725978,W,11.3,228.71,070814,18.5,W,A*01
2017-11-04:05:12:40.781774 $INHDT,235.17,T*17
2017-11-04:05:12:41.035640 $PSXN,20,1,0,0,0*3A
2017-11-04:05:12:41.285825 $PSXN,22,-0.05,-0.68*32
2017-11-04:05:12:41.538279 $PSXN,23,-1.72,-1.34,235.17,1.12*3A
2017-11-04:05:12:41.791535 $INZDA,000011.17,07,08,2014,,*78
2017-11-04:05:12:42.046962 $INGGA,000011.16,3934.853688,S,03727.728990,W,1,12,0.7,-1.63,M,-3.04,M,,*4A
2017-11-04:05:12:42.297088 $INVTG,228.62,T,247.07,M,11.1,N,20.5,K,A*3F
2017-11-04:05:12:42.551993 $INRMC,000011.16,A,3934.853688,S,03727.728990,W,11.1,228.62,070814,18.5,W,A*0D
2017-11-04:05:12:42.807294 $INHDT,235.37,T*15
2017-11-04:05:12:43.062630 $PSXN,20,1,0,0,0*3A
2017-11-04:05:12:43.317956 $PSXN,22,-0.05,-0.68*32
2017-11-04:05:12:43.573286 $PSXN,23,-1.47,1.43,235.37,0.41*14
2017-11-04:05:12:43.828664 $INZDA,000012.17,07,08,2014,,*7B
2017-11-04:05:12:44.084027 $INGGA,000012.16,3934.855665,S,03727.731944,W,1,12,0.7,-0.46,M,-3.04,M,,*4B
2017-11-04:05:12:44.334382 $INVTG,228.95,T,247.40,M,10.7,N,19.8,K,A*34
2017-11-04:05:12:44.589153 $INRMC,000012.16,A,3934.855665,S,03727.731944,W,10.7,228.95,070814,18.5,W,A*05
2017-11-04:05:12:44.842621 $INHDT,235.74,T*12
2017-11-04:05:12:45.093739 $PSXN,20,1,0,0,0*3A
2017-11-04:05:12:45.349064 $PSXN,22,-0.05,-0.68*32
2017-11-04:05:12:45.599230 $PSXN,23,-1.52,3.65,235.74,-0.77*39
2017-11-04:05:12:45.854594 $INZDA,000013.17,07,08,2014,,*7A
2017-11-04:05:12:46.109913 $INGGA,000013.16,3934.857565,S,03727.734821,W,1,12,0.7,0.31,M,-3.04,M,,*61
2017-11-04:05:12:46.365217 $INVTG,229.58,T,248.03,M,10.4,N,19.2,K,A*35
2017-11-04:05:12:46.619036 $INRMC,000013.16,A,3934.857565,S,03727.734821,W,10.4,229.58,070814,18.5,W,A*01
2017-11-04:05:12:46.870359 $INHDT,235.95,T*1D
2017-11-04:05:12:47.125664 $PSXN,20,1,0,0,0*3A
2017-11-04:05:12:47.378860 $PSXN,22,-0.05,-0.68*32
2017-11-04:05:12:47.630709 $PSXN,23,-1.66,3.30,235.95,-1.52*37
2017-11-04:05:12:47.885715 $INZDA,000014.17,07,08,2014,,*7D
2017-11-04:05:12:48.138709 $INGGA,000014.16,3934.859397,S,03727.737685,W,1,12,0.7,-0.04,M,-3.04,M,,*4B
2017-11-04:05:12:48.391036 $INVTG,230.62,T,249.08,M,10.4,N,19.2,K,A*3E
2017-11-04:05:12:48.646338 $INRMC,000014.16,A,3934.859397,S,03727.737685,W,10.4,230.62,070814,18.5,W,A*01
2017-11-04:05:12:48.901661 $INHDT,235.84,T*1D
2017-11-04:05:12:49.156754 $PSXN,20,1,0,0,0*3A
2017-11-04:05:12:49.411985 $PSXN,22,-0.05,-0.68*32
2017-11-04:05:12:49.665488 $PSXN,23,-1.69,0.37,235.84,-1.17*3D
2017-11-04:05:12:49.917488 $INZDA,000015.17,07,08,2014,,*7C
2017-11-04:05:12:50.172554 $INGGA,000015.16,3934.861210,S,03727.740642,W,1,12,0.7,-1.46,M,-3.04,M,,*43
2017-11-04:05:12:50.427923 $INVTG,231.44,T,249.89,M,10.7,N,19.8,K,A*3B
2017-11-04:05:12:50.683244 $INRMC,000015.16,A,3934.861210,S,03727.740642,W,10.7,231.44,070814,18.5,W,A*08
2017-11-04:05:12:50.936082 $INHDT,235.59,T*1D
2017-11-04:05:12:51.188678 $PSXN,20,1,0,0,0*3A
2017-11-04:05:12:51.439198 $PSXN,22,-0.05,-0.68*32
2017-11-04:05:12:51.693733 $PSXN,23,-1.39,-3.08,235.59,0.19*38
2017-11-04:05:12:51.949030 $INZDA,000016.17,07,08,2014,,*7F
2017-11-04:05:12:52.202413 $INGGA,000016.16,3934.863097,S,03727.743709,W,1,12,0.7,-2.87,M,-3.04,M,,*4C
2017-11-04:05:12:52.453932 $INVTG,231.08,T,249.53,M,11.1,N,20.6,K,A*37
2017-11-04:05:12:52.704707 $INRMC,000016.16,A,3934.863097,S,03727.743709,W,11.1,231.08,070814,18.5,W,A*06
2017-11-04:05:12:52.969646 $INHDT,235.56,T*12
2017-11-04:05:12:53.219854 $PSXN,20,1,0,0,0*3A
2017-11-04:05:12:53.471593 $PSXN,22,-0.05,-0.68*32
2017-11-04:05:12:53.725142 $PSXN,23,-1.17,-3.94,235.56,1.54*36
2017-11-04:05:12:53.975256 $INZDA,000017.17,07,08,2014,,*7E
2017-11-04:05:12:54.230449 $INGGA,000017.16,3934.865089,S,03727.746831,W,1,12,0.7,-3.15,M,-3.04,M,,*4F
2017-11-04:05:12:54.485772 $INVTG,230.27,T,248.72,M,11.4,N,21.1,K,A*3A
2017-11-04:05:12:54.740785 $INRMC,000017.16,A,3934.865089,S,03727.746831,W,11.4,230.27,070814,18.5,W,A*06
2017-11-04:05:12:54.992237 $INHDT,235.79,T*1F
2017-11-04:05:12:55.242895 $PSXN,20,1,0,0,0*3A
2017-11-04:05:12:55.495972 $PSXN,22,-0.05,-0.68*32
2017-11-04:05:12:55.750192 $PSXN,23,-1.55,-1.30,235.79,1.79*3E
2017-11-04:05:12:56.000804 $INZDA,000018.17,07,08,2014,,*71
2017-11-04:05:12:56.255706 $INGGA,000018.16,3934.867107,S,03727.749926,W,1,12,0.7,-2.02,M,-3.04,M,,*4A
2017-11-04:05:12:56.509161 $INVTG,229.71,T,248.17,M,11.1,N,20.6,K,A*31
2017-11-04:05:12:56.764238 $INRMC,000018.16,A,3934.867107,S,03727.749926,W,11.1,229.71,070814,18.5,W,A*0A
2017-11-04:05:12:57.016196 $INHDT,235.89,T*10
2017-11-04:05:12:57.271627 $PSXN,20,1,0,0,0*3A
2017-11-04:05:12:57.521804 $PSXN,22,-0.05,-0.68*32
2017-11-04:05:12:57.773608 $PSXN,23,-2.04,2.78,235.89,0.69*14
2017-11-04:05:12:58.026241 $INZDA,000019.17,07,08,2014,,*70
2017-11-04:05:12:58.281571 $INGGA,000019.16,3934.869059,S,03727.752876,W,1,12,0.7,-0.34,M,-3.04,M,,*46
2017-11-04:05:12:58.532851 $INVTG,229.57,T,248.02,M,10.5,N,19.4,K,A*3C
2017-11-04:05:12:58.786333 $INRMC,000019.16,A,3934.869059,S,03727.752876,W,10.5,229.57,070814,18.5,W,A*00
2017-11-04:05:12:59.040040 $INHDT,235.79,T*1F
2017-11-04:05:12:59.291649 $PSXN,20,1,0,0,0*3A
2017-11-04:05:12:59.544441 $PSXN,22,-0.05,-0.68*32
2017-11-04:05:12:59.796818 $PSXN,23,-2.19,5.18,235.79,-0.93*3E
2017-11-04:05:13:00.047356 $INZDA,000020.17,07,08,2014,,*7A
2017-11-04:05:13:00.301430 $INGGA,000020.16,3934.870893,S,03727.755657,W,1,12,0.7,0.73,M,-3.04,M,,*6E
2017-11-04:05:13:00.556476 $INVTG,229.80,T,248.26,M,9.9,N,18.3,K,A*02
2017-11-04:05:13:00.806797 $INRMC,000020.16,A,3934.870893,S,03727.755657,W,9.9,229.80,070814,18.5,W,A*38
2017-11-04:05:13:01.060402 $INHDT,235.75,T*13
2017-11-04:05:13:01.311408 $PSXN,20,1,0,0,0*3A
2017-11-04:05:13:01.566716 $PSXN,22,-0.05,-0.68*32
2017-11-04:05:13:01.821836 $PSXN,23,-2.19,4.37,235.75,-1.94*38
2017-11-04:05:13:02.076966 $INZDA,000021.17,07,08,2014,,*7B
2017-11-04:05:13:02.327158 $INGGA,000021.16,3934.872628,S,03727.758353,W,1,12,0.7,0.52,M,-3.04,M,,*6C
2017-11-04:05:13:02.582428 $INVTG,230.41,T,248.86,M,9.6,N,17.9,K,A*07
2017-11-04:05:13:02.833587 $INRMC,000021.16,A,3934.872628,S,03727.758353,W,9.6,230.41,070814,18.5,W,A*33
2017-11-04:05:13:03.087410 $INHDT,235.89,T*10
2017-11-04:05:13:03.342724 $PSXN,20,1,0,0,0*3A
2017-11-04:05:13:03.596633 $PSXN,22,-0.05,-0.68*32
2017-11-04:05:13:03.847352 $PSXN,23,-2.34,0.91,235.89,-1.70*36
2017-11-04:05:13:04.102254 $INZDA,000022.17,07,08,2014,,*78
2017-11-04:05:13:04.352759 $INGGA,000022.16,3934.874333,S,03727.761049,W,1,12,0.7,-0.73,M,-3.04,M,,*4A
2017-11-04:05:13:04.603593 $INVTG,230.28,T,248.73,M,9.8,N,18.2,K,A*08
2017-11-04:05:13:04.857762 $INRMC,000022.16,A,3934.874333,S,03727.761049,W,9.8,230.28,070814,18.5,W,A*3A
2017-11-04:05:13:05.113040 $INHDT,236.00,T*12
2017-11-04:05:13:05.367503 $PSXN,20,1,0,0,0*3A
2017-11-04:05:13:05.618271 $PSXN,22,-0.05,-0.68*32
2017-11-04:05:13:05.873413 $PSXN,23,-2.50,-2.85,236.00,-0.48*16
2017-11-04:05:13:06.128528 $INZDA,000023.17,07,08,2014,,*79
2017-11-04:05:13:06.379028 $INGGA,000023.16,3934.876146,S,03727.763843,W,1,12,0.7,-2.15,M,-3.04,M,,*4B
2017-11-04:05:13:06.633850 $INVTG,229.67,T,248.12,M,10.5,N,19.5,K,A*3F
2017-11-04:05:13:06.889244 $INRMC,000023.16,A,3934.876146,S,03727.763843,W,10.5,229.67,070814,18.5,W,A*0F
2017-11-04:05:13:07.144552 $INHDT,235.91,T*19
2017-11-04:05:13:07.399906 $PSXN,20,1,0,0,0*3A
2017-11-04:05:13:07.655256 $PSXN,22,-0.05,-0.68*32
2017-11-04:05:13:07.908357 $PSXN,23,-2.37,-4.42,235.91,0.89*31
2017-11-04:05:13:08.160643 $INZDA,000024.17,07,08,2014,,*7E
2017-11-04:05:13:08.415532 $INGGA,000024.16,3934.878101,S,03727.766814,W,1,12,0.7,-2.98,M,-3.04,M,,*43
2017-11-04:05:13:08.670594 $INVTG,229.76,T,248.22,M,11.2,N,20.8,K,A*3D
2017-11-04:05:13:08.920801 $INRMC,000024.16,A,3934.878101,S,03727.766814,W,11.2,229.76,070814,18.5,W,A*04
2017-11-04:05:13:09.173018 $INHDT,235.67,T*10
2017-11-04:05:13:09.425604 $PSXN,20,1,0,0,0*3A
2017-11-04:05:13:09.680940 $PSXN,22,-0.05,-0.68*32
2017-11-04:05:13:09.935741 $PSXN,23,-2.09,-2.93,235.67,1.70*38
2017-11-04:05:13:10.185941 $INZDA,000025.17,07,08,2014,,*7F
2017-11-04:05:13:10.441307 $INGGA,000025.16,3934.880167,S,03727.769945,W,1,12,0.7,-2.88,M,-3.04,M,,*4E
2017-11-04:05:13:10.692281 $INVTG,229.79,T,248.24,M,11.6,N,21.4,K,A*3D
2017-11-04:05:13:10.946454 $INRMC,000025.16,A,3934.880167,S,03727.769945,W,11.6,229.79,070814,18.5,W,A*03
2017-11-04:05:13:11.200660 $INHDT,235.47,T*12
2017-11-04:05:13:11.451340 $PSXN,20,1,0,0,0*3A
2017-11-04:05:13:11.701874 $PSXN,22,-0.05,-0.68*32
2017-11-04:05:13:11.952559 $PSXN,23,-1.93,0.33,235.47,1.60*1E
2017-11-04:05:13:12.205834 $INZDA,000026.17,07,08,2014,,*7C
2017-11-04:05:13:12.456176 $INGGA,000026.16,3934.882236,S,03727.773073,W,1,12,0.7,-1.98,M,-3.04,M,,*4D
2017-11-04:05:13:12.710873 $INVTG,229.46,T,247.91,M,11.2,N,20.8,K,A*39
2017-11-04:05:13:12.966199 $INRMC,000026.16,A,3934.882236,S,03727.773073,W,11.2,229.46,070814,18.5,W,A*0A
2017-11-04:05:13:13.221045 $INHDT,235.23,T*10
2017-11-04:05:13:13.471187 $PSXN,20,1,0,0,0*3A
2017-11-04:05:13:13.724793 $PSXN,22,-0.05,-0.68*32
2017-11-04:05:13:13.976181 $PSXN,23,-1.79,3.15,235.23,0.73*1C
2017-11-04:05:13:14.226468 $INZDA,000027.17,07,08,2014,,*7D
2017-11-04:05:13:14.481187 $INGGA,000027.16,3934.884229,S,03727.776033,W,1,12,0.7,-0.83,M,-3.04,M,,*4E
2017-11-04:05:13:14.731308 $INVTG,228.70,T,247.15,M,10.5,N,19.5,K,A*30
2017-11-04:05:13:14.985969 $INRMC,000027.16,A,3934.884229,S,03727.776033,W,10.5,228.70,070814,18.5,W,A*00
2017-11-04:05:13:15.241310 $INHDT,234.92,T*1B
2017-11-04:05:13:15.495636 $PSXN,20,1,0,0,0*3A
2017-11-04:05:13:15.746209 $PSXN,22,-0.05,-0.68*32
2017-11-04:05:13:15.996862 $PSXN,23,-1.52,4.06,234.92,-0.37*36
2017-11-04:05:13:16.247703 $INZDA,000028.17,07,08,2014,,*72
2017-11-04:05:13:16.501072 $INGGA,000028.16,3934.886107,S,03727.778773,W,1,12,0.7,-0.08,M,-3.04,M,,*42
2017-11-04:05:13:16.756870 $INVTG,228.28,T,246.74,M,9.9,N,18.3,K,A*08
2017-11-04:05:13:17.007637 $INRMC,000028.16,A,3934.886107,S,03727.778773,W,9.9,228.28,070814,18.5,W,A*36
2017-11-04:05:13:17.261867 $INHDT,234.69,T*1F
2017-11-04:05:13:17.517222 $PSXN,20,1,0,0,0*3A
2017-11-04:05:13:17.771718 $PSXN,22,-0.05,-0.68*32
2017-11-04:05:13:18.022392 $PSXN,23,-1.16,3.09,234.69,-1.09*36
2017-11-04:05:13:18.277765 $INZDA,000029.17,07,08,2014,,*73
2017-11-04:05:13:18.528028 $INGGA,000029.16,3934.887884,S,03727.781376,W,1,12,0.7,0.06,M,-3.04,M,,*64
2017-11-04:05:13:18.782624 $INVTG,229.13,T,247.58,M,9.5,N,17.5,K,A*0B
2017-11-04:05:13:19.037383 $INRMC,000029.16,A,3934.887884,S,03727.781376,W,9.5,229.13,070814,18.5,W,A*36
2017-11-04:05:13:19.289876 $INHDT,234.76,T*11
2017-11-04:05:13:19.542249 $PSXN,20,1,0,0,0*3A
2017-11-04:05:13:19.792728 $PSXN,22,-0.05,-0.68*32
2017-11-04:05:13:20.047848 $PSXN,23,-0.89,1.11,234.76,-1.21*3E
2017-11-04:05:13:20.302692 $INZDA,000030.17,07,08,2014,,*7B
2017-11-04:05:13:20.557996 $INGGA,000030.16,3934.889576,S,03727.783984,W,1,12,0.7,-0.32,M,-3.04,M,,*4D
2017-11-04:05:13:20.813347 $INVTG,231.17,T,249.62,M,9.6,N,17.8,K,A*0F
2017-11-04:05:13:21.068659 $INRMC,000030.16,A,3934.889576,S,03727.783984,W,9.6,231.17,070814,18.5,W,A*3B
2017-11-04:05:13:21.318827 $INHDT,235.04,T*15
2017-11-04:05:13:21.573262 $PSXN,20,1,0,0,0*3A
2017-11-04:05:13:21.823592 $PSXN,22,-0.05,-0.68*32
2017-11-04:05:13:22.079025 $PSXN,23,-0.79,-1.15,235.04,-0.84*12
2017-11-04:05:13:22.329214 $INZDA,000031.17,07,08,2014,,*7A
2017-11-04:05:13:22.584109 $INGGA,000031.16,3934.891252,S,03727.786800,W,1,12,0.7,-1.07,M,-3.04,M,,*4B
2017-11-04:05:13:22.839116 $INVTG,232.73,T,251.19,M,10.3,N,19.0,K,A*30
2017-11-04:05:13:23.094467 $INRMC,000031.16,A,3934.891252,S,03727.786800,W,10.3,232.73,070814,18.5,W,A*06
2017-11-04:05:13:23.349755 $INHDT,235.21,T*12
2017-11-04:05:13:23.605081 $PSXN,20,1,0,0,0*3A
2017-11-04:05:13:23.860854 $PSXN,22,-0.05,-0.68*32
2017-11-04:05:13:24.111184 $PSXN,23,-0.79,-3.19,235.21,-0.10*16
2017-11-04:05:13:24.366369 $INZDA,000032.17,07,08,2014,,*79
2017-11-04:05:13:24.621221 $INGGA,000032.16,3934.893070,S,03727.789840,W,1,12,0.7,-2.00,M,-3.04,M,,*47
2017-11-04:05:13:24.876585 $INVTG,231.74,T,250.19,M,11.2,N,20.7,K,A*38
2017-11-04:05:13:25.126735 $INRMC,000032.16,A,3934.893070,S,03727.789840,W,11.2,231.74,070814,18.4,W,A*0B
2017-11-04:05:13:25.377398 $INHDT,235.08,T*19
2017-11-04:05:13:25.632082 $PSXN,20,1,0,0,0*3A
2017-11-04:05:13:25.886493 $PSXN,22,-0.05,-0.68*32
2017-11-04:05:13:26.136946 $PSXN,23,-0.94,-4.03,235.08,0.80*36
2017-11-04:05:13:26.392040 $INZDA,000033.17,07,08,2014,,*78
2017-11-04:05:13:26.647341 $INGGA,000033.16,3934.895108,S,03727.793046,W,1,12,0.7,-2.77,M,-3.04,M,,*4B
2017-11-04:05:13:26.902840 $INVTG,229.56,T,248.00,M,11.9,N,22.0,K,A*3E
2017-11-04:05:13:27.157770 $INRMC,000033.16,A,3934.895108,S,03727.793046,W,11.9,229.56,070814,18.4,W,A*05
2017-11-04:05:13:27.409073 $INHDT,234.81,T*19
2017-11-04:05:13:27.662923 $PSXN,20,1,0,0,0*3A
2017-11-04:05:13:27.918012 $PSXN,22,-0.05,-0.68*32
2017-11-04:05:13:28.168715 $PSXN,23,-1.14,-2.71,234.81,1.54*34
2017-11-04:05:13:28.423395 $INZDA,000034.17,07,08,2014,,*7F
2017-11-04:05:13:28.678529 $INGGA,000034.16,3934.897337,S,03727.796256,W,1,12,0.7,-2.91,M,-3.04,M,,*4E
2017-11-04:05:13:28.929121 $INVTG,226.90,T,245.35,M,12.0,N,22.2,K,A*38
2017-11-04:05:13:29.183804 $INRMC,000034.16,A,3934.897337,S,03727.796256,W,12.0,226.90,070814,18.4,W,A*07
2017-11-04:05:13:29.433923 $INHDT,234.58,T*1D
2017-11-04:05:13:29.685315 $PSXN,20,1,0,0,0*3A
2017-11-04:05:13:29.936297 $PSXN,22,-0.05,-0.68*32
2017-11-04:05:13:30.187973 $PSXN,23,-1.29,0.52,234.58,1.65*12
2017-11-04:05:13:30.438406 $INZDA,000035.17,07,08,2014,,*7E
2017-11-04:05:13:30.693145 $INGGA,000035.16,3934.899611,S,03727.799292,W,1,12,0.7,-2.13,M,-3.04,M,,*4D
2017-11-04:05:13:30.948311 $INVTG,225.84,T,244.29,M,11.4,N,21.1,K,A*35
2017-11-04:05:13:31.203105 $INRMC,000035.16,A,3934.899611,S,03727.799292,W,11.4,225.84,070814,18.4,W,A*0F
2017-11-04:05:13:31.455349 $INHDT,234.48,T*1C
2017-11-04:05:13:31.708803 $PSXN,20,1,0,0,0*3A
2017-11-04:05:13:31.963280 $PSXN,22,-0.05,-0.68*32
2017-11-04:05:13:32.213791 $PSXN,23,-1.61,3.99,234.48,0.88*19
2017-11-04:05:13:32.469119 $INZDA,000036.17,07,08,2014,,*7D
2017-11-04:05:13:32.724417 $INGGA,000036.16,3934.901700,S,03727.802111,W,1,12,0.7,-0.75,M,-3.04,M,,*48
2017-11-04:05:13:32.979737 $INVTG,227.03,T,245.48,M,10.3,N,19.1,K,A*33
2017-11-04:05:13:33.234602 $INRMC,000036.16,A,3934.901700,S,03727.802111,W,10.3,227.03,070814,18.4,W,A*03
2017-11-04:05:13:33.490006 $INHDT,234.53,T*16
2017-11-04:05:13:33.745340 $PSXN,20,1,0,0,0*3A
2017-11-04:05:13:34.000653 $PSXN,22,-0.05,-0.68*32
2017-11-04:05:13:34.255965 $PSXN,23,-2.15,5.48,234.53,-0.47*37
2017-11-04:05:13:34.511325 $INZDA,000037.17,07,08,2014,,*7C
2017-11-04:05:13:34.766645 $INGGA,000037.16,3934.903553,S,03727.804761,W,1,12,0.7,0.38,M,-3.04,M,,*6C
2017-11-04:05:13:35.017052 $INVTG,228.61,T,247.06,M,9.6,N,17.8,K,A*0A
2017-11-04:05:13:35.272098 $INRMC,000037.16,A,3934.903553,S,03727.804761,W,9.6,228.61,070814,18.4,W,A*35
2017-11-04:05:13:35.527492 $INHDT,234.58,T*1D
2017-11-04:05:13:35.782826 $PSXN,20,1,0,0,0*3A
2017-11-04:05:13:36.038166 $PSXN,22,-0.05,-0.68*32
2017-11-04:05:13:36.293503 $PSXN,23,-2.48,3.90,234.58,-1.55*35
2017-11-04:05:13:36.544268 $INZDA,000038.17,07,08,2014,,*73
2017-11-04:05:13:36.798671 $INGGA,000038.16,3934.905284,S,03727.807363,W,1,12,0.7,0.46,M,-3.04,M,,*64
2017-11-04:05:13:37.052526 $INVTG,229.82,T,248.27,M,9.5,N,17.6,K,A*07
2017-11-04:05:13:37.303151 $INRMC,000038.16,A,3934.905284,S,03727.807363,W,9.5,229.82,070814,18.4,W,A*3B
2017-11-04:05:13:37.558044 $INHDT,234.59,T*1C
2017-11-04:05:13:37.811948 $PSXN,20,1,0,0,0*3A
2017-11-04:05:13:38.064037 $PSXN,22,-0.05,-0.68*32
2017-11-04:05:13:38.318302 $PSXN,23,-2.35,0.03,234.59,-1.63*32
2017-11-04:05:13:38.568488 $INZDA,000039.17,07,08,2014,,*72
2017-11-04:05:13:38.818627 $INGGA,000039.16,3934.906962,S,03727.810044,W,1,12,0.7,-0.41,M,-3.04,M,,*4F
2017-11-04:05:13:39.073896 $INVTG,231.72,T,250.17,M,9.8,N,18.2,K,A*0D
2017-11-04:05:13:39.329308 $INRMC,000039.16,A,3934.906962,S,03727.810044,W,9.8,231.72,070814,18.4,W,A*31
2017-11-04:05:13:39.584673 $INHDT,234.65,T*13
2017-11-04:05:13:39.839996 $PSXN,20,1,0,0,0*3A
2017-11-04:05:13:40.091368 $PSXN,22,-0.05,-0.68*32
2017-11-04:05:13:40.345102 $PSXN,23,-2.23,-3.60,234.65,-0.79*1B
2017-11-04:05:13:40.600428 $INZDA,000040.17,07,08,2014,,*7C
2017-11-04:05:13:40.856218 $INGGA,000040.16,3934.908677,S,03727.812917,W,1,12,0.7,-1.58,M,-3.04,M,,*40
2017-11-04:05:13:41.107029 $INVTG,232.32,T,250.77,M,10.5,N,19.5,K,A*3F
2017-11-04:05:13:41.360907 $INRMC,000040.16,A,3934.908677,S,03727.812917,W,10.5,232.32,070814,18.4,W,A*05
2017-11-04:05:13:41.616254 $INHDT,234.60,T*16
2017-11-04:05:13:41.866916 $PSXN,20,1,0,0,0*3A
2017-11-04:05:13:42.120732 $PSXN,22,-0.05,-0.68*32
2017-11-04:05:13:42.371098 $PSXN,23,-2.35,-4.59,234.60,0.33*37
2017-11-04:05:13:42.626402 $INZDA,000041.17,07,08,2014,,*7D
2017-11-04:05:13:42.881396 $INGGA,000041.16,3934.910552,S,03727.815960,W,1,12,0.7,-2.38,M,-3.04,M,,*4E
2017-11-04:05:13:43.133092 $INVTG,230.48,T,248.93,M,11.2,N,20.8,K,A*32
2017-11-04:05:13:43.383708 $INRMC,000041.16,A,3934.910552,S,03727.815960,W,11.2,230.48,070814,18.4,W,A*07
2017-11-04:05:13:43.636599 $INHDT,234.27,T*15
2017-11-04:05:13:43.891917 $PSXN,20,1,0,0,0*3A
2017-11-04:05:13:44.144656 $PSXN,22,-0.05,-0.68*32
2017-11-04:05:13:44.396914 $PSXN,23,-2.52,-2.61,234.27,1.10*38
2017-11-04:05:13:44.652248 $INZDA,000042.17,07,08,2014,,*7E
2017-11-04:05:13:44.907624 $INGGA,000042.16,3934.912661,S,03727.819063,W,1,12,0.7,-2.52,M,-3.04,M,,*46
2017-11-04:05:13:45.162751 $INVTG,227.39,T,245.84,M,11.7,N,21.6,K,A*33
2017-11-04:05:13:45.418048 $INRMC,000042.16,A,3934.912661,S,03727.819063,W,11.7,227.39,070814,18.4,W,A*06
2017-11-04:05:13:45.668176 $INHDT,233.85,T*1A
2017-11-04:05:13:45.919096 $PSXN,20,1,0,0,0*3A
2017-11-04:05:13:46.172566 $PSXN,22,-0.05,-0.68*32
2017-11-04:05:13:46.424228 $PSXN,23,-2.65,0.46,233.85,1.25*1F
2017-11-04:05:13:46.674417 $INZDA,000043.17,07,08,2014,,*7F
2017-11-04:05:13:46.927192 $INGGA,000043.16,3934.914897,S,03727.822072,W,1,12,0.7,-2.11,M,-3.04,M,,*49
2017-11-04:05:13:47.182508 $INVTG,225.13,T,243.58,M,11.5,N,21.3,K,A*39
2017-11-04:05:13:47.436103 $INRMC,000043.16,A,3934.914897,S,03727.822072,W,11.5,225.13,070814,18.4,W,A*06
2017-11-04:05:13:47.686865 $INHDT,233.55,T*17
2017-11-04:05:13:47.937151 $PSXN,20,1,0,0,0*3A
2017-11-04:05:13:48.191047 $PSXN,22,-0.05,-0.68*32
2017-11-04:05:13:48.442107 $PSXN,23,-2.60,2.68,233.55,0.86*11
2017-11-04:05:13:48.697414 $INZDA,000044.17,07,08,2014,,*78
2017-11-04:05:13:48.948530 $INGGA,000044.16,3934.917122,S,03727.824921,W,1,12,0.7,-1.41,M,-3.04,M,,*45
2017-11-04:05:13:49.202407 $INVTG,224.72,T,243.17,M,11.0,N,20.3,K,A*30
2017-11-04:05:13:49.455307 $INRMC,000044.16,A,3934.917122,S,03727.824921,W,11.0,224.72,070814,18.4,W,A*0F
2017-11-04:05:13:49.707385 $INHDT,233.57,T*15
2017-11-04:05:13:49.961504 $PSXN,20,1,0,0,0*3A
2017-11-04:05:13:50.212426 $PSXN,22,-0.05,-0.68*32
2017-11-04:05:13:50.467413 $PSXN,23,-2.39,3.20,233.57,0.20*1E
2017-11-04:05:13:50.722724 $INZDA,000045.17,07,08,2014,,*79
2017-11-04:05:13:50.978010 $INGGA,000045.16,3934.919203,S,03727.827650,W,1,12,0.7,-0.77,M,-3.04,M,,*44
2017-11-04:05:13:51.228183 $INVTG,226.48,T,244.93,M,10.4,N,19.2,K,A*3E
2017-11-04:05:13:51.483492 $INRMC,000045.16,A,3934.919203,S,03727.827650,W,10.4,226.48,070814,18.4,W,A*04
2017-11-04:05:13:51.733624 $INHDT,233.85,T*1A
2017-11-04:05:13:51.988541 $PSXN,20,1,0,0,0*3A
2017-11-04:05:13:52.243785 $PSXN,22,-0.05,-0.68*32
2017-11-04:05:13:52.495427 $PSXN,23,-2.04,2.22,233.85,-0.43*34
2017-11-04:05:13:52.748858 $INZDA,000046.17,07,08,2014,,*7A
2017-11-04:05:13:53.003101 $INGGA,000046.16,3934.921084,S,03727.830354,W,1,12,0.7,-0.43,M,-3.04,M,,*41
2017-11-04:05:13:53.253461 $INVTG,229.46,T,247.91,M,9.9,N,18.4,K,A*0C
2017-11-04:05:13:53.508102 $INRMC,000046.16,A,3934.921084,S,03727.830354,W,9.9,229.46,070814,18.4,W,A*32
2017-11-04:05:13:53.758748 $INHDT,234.10,T*11
2017-11-04:05:13:54.014055 $PSXN,20,1,0,0,0*3A
2017-11-04:05:13:54.269445 $PSXN,22,-0.05,-0.68*32
2017-11-04:05:13:54.524763 $PSXN,23,-1.53,0.69,234.10,-0.77*34
2017-11-04:05:13:54.780057 $INZDA,000047.17,07,08,2014,,*7B
2017-11-04:05:13:55.035425 $INGGA,000047.16,3934.922837,S,03727.833080,W,1,12,0.7,-0.49,M,-3.04,M,,*40
2017-11-04:05:13:55.290708 $INVTG,230.56,T,249.01,M,9.9,N,18.3,K,A*05
2017-11-04:05:13:55.540760 $INRMC,000047.16,A,3934.922837,S,03727.833080,W,9.9,230.56,070814,18.4,W,A*30
2017-11-04:05:13:55.795311 $INHDT,234.18,T*19
2017-11-04:05:13:56.045753 $PSXN,20,1,0,0,0*3A
2017-11-04:05:13:56.300206 $PSXN,22,-0.05,-0.68*32
2017-11-04:05:13:56.550686 $PSXN,23,-1.08,-0.55,234.18,-0.73*14
2017-11-04:05:13:56.801974 $INZDA,000048.17,07,08,2014,,*74
2017-11-04:05:13:57.055756 $INGGA,000048.16,3934.924625,S,03727.835850,W,1,12,0.7,-0.97,M,-3.04,M,,*44
2017-11-04:05:13:57.311201 $INVTG,229.35,T,247.80,M,10.3,N,19.1,K,A*3E
2017-11-04:05:13:57.566311 $INRMC,000048.16,A,3934.924625,S,03727.835850,W,10.3,229.35,070814,18.4,W,A*08
2017-11-04:05:13:57.821586 $INHDT,234.08,T*18
2017-11-04:05:13:58.076793 $PSXN,20,1,0,0,0*3A
2017-11-04:05:13:58.330117 $PSXN,22,-0.05,-0.68*32
2017-11-04:05:13:58.581451 $PSXN,23,-0.83,-1.39,234.08,-0.27*1D
2017-11-04:05:13:58.836199 $INZDA,000049.17,07,08,2014,,*75
2017-11-04:05:13:59.086478 $INGGA,000049.16,3934.926582,S,03727.838696,W,1,12,0.7,-1.73,M,-3.04,M,,*4B
2017-11-04:05:13:59.341750 $INVTG,228.10,T,246.55,M,10.9,N,20.2,K,A*32
2017-11-04:05:13:59.592097 $INRMC,000049.16,A,3934.926582,S,03727.838696,W,10.9,228.10,070814,18.4,W,A*00
2017-11-04:05:13:59.847385 $INHDT,234.01,T*11
2017-11-04:05:14:00.102776 $PSXN,20,1,0,0,0*3A
2017-11-04:05:14:00.358118 $PSXN,22,-0.05,-0.68*32
2017-11-04:05:14:00.613406 $PSXN,23,-0.85,-2.06,234.01,0.47*36
2017-11-04:05:14:00.868679 $INZDA,000050.17,07,08,2014,,*7D
2017-11-04:05:14:01.121767 $INGGA,000050.16,3934.928651,S,03727.841682,W,1,12,0.7,-2.31,M,-3.04,M,,*4E
2017-11-04:05:14:01.374097 $INVTG,228.10,T,246.55,M,11.3,N,21.0,K,A*3A
2017-11-04:05:14:01.629449 $INRMC,000050.16,A,3934.928651,S,03727.841682,W,11.3,228.10,070814,18.4,W,A*0B
2017-11-04:05:14:01.884777 $INHDT,234.19,T*18
2017-11-04:05:14:02.140059 $PSXN,20,1,0,0,0*3A
2017-11-04:05:14:02.395352 $PSXN,22,-0.05,-0.68*32
2017-11-04:05:14:02.650634 $PSXN,23,-1.27,-1.88,234.19,1.02*33
2017-11-04:05:14:02.905858 $INZDA,000051.17,07,08,2014,,*7C
2017-11-04:05:14:03.155952 $INGGA,000051.16,3934.930762,S,03727.844714,W,1,12,0.7,-2.22,M,-3.04,M,,*4E
2017-11-04:05:14:03.411187 $INVTG,227.99,T,246.44,M,11.3,N,21.0,K,A*34
2017-11-04:05:14:03.666490 $INRMC,000051.16,A,3934.930762,S,03727.844714,W,11.3,227.99,070814,18.4,W,A*07
2017-11-04:05:14:03.919620 $INHDT,234.41,T*15
2017-11-04:05:14:04.171511 $PSXN,20,1,0,0,0*3A
2017-11-04:05:14:04.426793 $PSXN,22,-0.05,-0.68*32
2017-11-04:05:14:04.678725 $PSXN,23,-1.89,-0.20,234.41,0.93*30
2017-11-04:05:14:04.932040 $INZDA,000052.17,07,08,2014,,*7F
2017-11-04:05:14:05.186020 $INGGA,000052.16,3934.932866,S,03727.847688,W,1,12,0.7,-1.50,M,-3.04,M,,*45
2017-11-04:05:14:05.436247 $INVTG,227.36,T,245.81,M,11.1,N,20.6,K,A*3E
2017-11-04:05:14:05.686443 $INRMC,000052.16,A,3934.932866,S,03727.847688,W,11.1,227.36,070814,18.4,W,A*0D
2017-11-04:05:14:05.941718 $INHDT,234.34,T*17
2017-11-04:05:14:06.196932 $PSXN,20,1,0,0,0*3A
2017-11-04:05:14:06.452154 $PSXN,22,-0.05,-0.68*32
2017-11-04:05:14:06.702358 $PSXN,23,-2.18,2.12,234.34,0.22*1D
2017-11-04:05:14:06.957656 $INZDA,000053.17,07,08,2014,,*7E
2017-11-04:05:14:07.213004 $INGGA,000053.16,3934.934927,S,03727.850574,W,1,12,0.7,-0.66,M,-3.04,M,,*44
2017-11-04:05:14:07.468331 $INVTG,227.28,T,245.73,M,10.8,N,20.0,K,A*32
2017-11-04:05:14:07.720909 $INRMC,000053.16,A,3934.934927,S,03727.850574,W,10.8,227.28,070814,18.4,W,A*0F
2017-11-04:05:14:07.973407 $INHDT,234.07,T*17
2017-11-04:05:14:08.228781 $PSXN,20,1,0,0,0*3A
2017-11-04:05:14:08.483697 $PSXN,22,-0.05,-0.68*32
2017-11-04:05:14:08.733868 $PSXN,23,-2.13,3.18,234.07,-0.60*36
2017-11-04:05:14:08.989097 $INZDA,000054.17,07,08,2014,,*79
2017-11-04:05:14:09.244353 $INGGA,000054.16,3934.936937,S,03727.853396,W,1,12,0.7,-0.34,M,-3.04,M,,*4E
2017-11-04:05:14:09.499747 $INVTG,227.64,T,246.09,M,10.6,N,19.6,K,A*36
2017-11-04:05:14:09.753702 $INRMC,000054.16,A,3934.936937,S,03727.853396,W,10.6,227.64,070814,18.4,W,A*04
2017-11-04:05:14:10.004836 $INHDT,233.92,T*1C
2017-11-04:05:14:10.260112 $PSXN,20,1,0,0,0*3A
2017-11-04:05:14:10.515352 $PSXN,22,-0.05,-0.68*32
2017-11-04:05:14:10.769528 $PSXN,23,-2.07,1.93,233.92,-0.90*36
2017-11-04:05:14:11.020544 $INZDA,000055.17,07,08,2014,,*78
2017-11-04:05:14:11.275850 $INGGA,000055.16,3934.938901,S,03727.856213,W,1,12,0.7,-0.74,M,-3.04,M,,*49
2017-11-04:05:14:11.531242 $INVTG,228.41,T,246.86,M,10.5,N,19.4,K,A*38
2017-11-04:05:14:11.786260 $INRMC,000055.16,A,3934.938901,S,03727.856213,W,10.5,228.41,070814,18.4,W,A*0C
2017-11-04:05:14:12.036491 $INHDT,234.09,T*19
2017-11-04:05:14:12.291768 $PSXN,20,1,0,0,0*3A
2017-11-04:05:14:12.547018 $PSXN,22,-0.05,-0.68*32
2017-11-04:05:14:12.800580 $PSXN,23,-2.24,-0.60,234.09,-0.50*1E
2017-11-04:05:14:13.051114 $INZDA,000056.17,07,08,2014,,*7B
2017-11-04:05:14:13.301766 $INGGA,000056.16,3934.940795,S,03727.859056,W,1,12,0.7,-1.33,M,-3.04,M,,*48
2017-11-04:05:14:13.557053 $INVTG,229.60,T,248.05,M,10.5,N,19.4,K,A*3F
2017-11-04:05:14:13.812318 $INRMC,000056.16,A,3934.940795,S,03727.859056,W,10.5,229.60,070814,18.4,W,A*0D
2017-11-04:05:14:14.067556 $INHDT,234.43,T*17
2017-11-04:05:14:14.322896 $PSXN,20,1,0,0,0*3A
2017-11-04:05:14:14.572949 $PSXN,22,-0.05,-0.68*32
2017-11-04:05:14:14.827433 $PSXN,23,-2.56,-1.88,234.43,0.05*3F
2017-11-04:05:14:15.077784 $INZDA,000057.17,07,08,2014,,*7A
2017-11-04:05:14:15.329799 $INGGA,000057.16,3934.942673,S,03727.861950,W,1,12,0.7,-1.58,M,-3.04,M,,*4B
2017-11-04:05:14:15.582867 $INVTG,230.33,T,248.78,M,10.6,N,19.7,K,A*3B
2017-11-04:05:14:15.836500 $INRMC,000057.16,A,3934.942673,S,03727.861950,W,10.6,230.33,070814,18.4,W,A*0E
2017-11-04:05:14:16.087766 $INHDT,234.69,T*1F
2017-11-04:05:14:16.340782 $PSXN,20,1,0,0,0*3A
2017-11-04:05:14:16.590896 $PSXN,22,-0.05,-0.68*32
2017-11-04:05:14:16.842103 $PSXN,23,-2.78,-1.12,234.69,0.27*38
2017-11-04:05:14:17.092296 $INZDA,000058.17,07,08,2014,,*75
2017-11-04:05:14:17.347357 $INGGA,000058.16,3934.944580,S,03727.864882,W,1,12,0.7,-1.40,M,-3.04,M,,*4F
2017-11-04:05:14:17.600287 $INVTG,229.23,T,247.68,M,10.8,N,20.0,K,A*3F
2017-11-04:05:14:17.852301 $INRMC,000058.16,A,3934.944580,S,03727.864882,W,10.8,229.23,070814,18.4,W,A*04
2017-11-04:05:14:18.107584 $INHDT,234.71,T*16
2017-11-04:05:14:18.362845 $PSXN,20,1,0,0,0*3A
2017-11-04:05:14:18.614586 $PSXN,22,-0.05,-0.68*32
2017-11-04:05:14:18.868059 $PSXN,23,-2.70,0.54,234.71,0.09*1B
2017-11-04:05:14:19.123330 $INZDA,000059.17,07,08,2014,,*74
2017-11-04:05:14:19.378608 $INGGA,000059.16,3934.946590,S,03727.867802,W,1,12,0.7,-1.22,M,-3.04,M,,*42
2017-11-04:05:14:19.633891 $INVTG,227.79,T,246.24,M,11.0,N,20.3,K,A*3D
2017-11-04:05:14:19.884004 $INRMC,000059.16,A,3934.946590,S,03727.867802,W,11.0,227.79,070814,18.4,W,A*05
2017-11-04:05:14:20.134208 $INHDT,234.64,T*12
2017-11-04:05:14:20.388725 $PSXN,20,1,0,0,0*3A
2017-11-04:05:14:20.643972 $PSXN,22,-0.05,-0.68*32
2017-11-04:05:14:20.899321 $PSXN,23,-2.57,1.24,234.64,-0.05*3D
2017-11-04:05:14:21.153373 $INZDA,000100.17,07,08,2014,,*79
2017-11-04:05:14:21.403872 $INGGA,000100.16,3934.948688,S,03727.870727,W,1,12,0.7,-1.45,M,-3.04,M,,*44
2017-11-04:05:14:21.654141 $INVTG,226.64,T,245.09,M,11.2,N,20.7,K,A*3A
2017-11-04:05:14:21.904741 $INRMC,000100.16,A,3934.948688,S,03727.870727,W,11.2,226.64,070814,18.4,W,A*0D
2017-11-04:05:14:22.159066 $INHDT,234.55,T*10
2017-11-04:05:14:22.414352 $PSXN,20,1,0,0,0*3A
2017-11-04:05:14:22.669647 $PSXN,22,-0.05,-0.68*32
2017-11-04:05:14:22.921541 $PSXN,23,-2.46,0.25,234.55,0.21*14
2017-11-04:05:14:23.173336 $INZDA,000101.17,07,08,2014,,*78
2017-11-04:05:14:23.424453 $INGGA,000101.16,3934.950812,S,03727.873624,W,1,12,0.7,-1.85,M,-3.04,M,,*4C
2017-11-04:05:14:23.676574 $INVTG,226.16,T,244.61,M,11.0,N,20.4,K,A*31
2017-11-04:05:14:23.928076 $INRMC,000101.16,A,3934.950812,S,03727.873624,W,11.0,226.16,070814,18.4,W,A*0E
2017-11-04:05:14:24.182738 $INHDT,234.41,T*15
2017-11-04:05:14:24.434338 $PSXN,20,1,0,0,0*3A
2017-11-04:05:14:24.689632 $PSXN,22,-0.05,-0.68*32
2017-11-04:05:14:24.945006 $PSXN,23,-2.17,-0.81,234.41,0.59*39
2017-11-04:05:14:25.200307 $INZDA,000102.17,07,08,2014,,*7B
2017-11-04:05:14:25.451372 $INGGA,000102.16,3934.952903,S,03727.876456,W,1,12,0.7,-1.80,M,-3.04,M,,*4B
2017-11-04:05:14:25.705346 $INVTG,227.11,T,245.56,M,10.8,N,19.9,K,A*3C
2017-11-04:05:14:25.960697 $INRMC,000102.16,A,3934.952903,S,03727.876456,W,10.8,227.11,070814,18.4,W,A*03
2017-11-04:05:14:26.215620 $INHDT,234.54,T*11
2017-11-04:05:14:26.465918 $PSXN,20,1,0,0,0*3A
2017-11-04:05:14:26.721501 $PSXN,22,-0.05,-0.68*32
2017-11-04:05:14:26.976712 $PSXN,23,-1.55,-0.14,234.54,0.53*3E
2017-11-04:05:14:27.231170 $INZDA,000103.17,07,08,2014,,*7A
2017-11-04:05:14:27.486356 $INGGA,000103.16,3934.954828,S,03727.879321,W,1,12,0.7,-1.15,M,-3.04,M,,*40
2017-11-04:05:14:27.736601 $INVTG,231.22,T,249.67,M,10.4,N,19.3,K,A*33
2017-11-04:05:14:27.986768 $INRMC,000103.16,A,3934.954828,S,03727.879321,W,10.4,231.22,070814,18.4,W,A*0F
2017-11-04:05:14:28.241911 $INHDT,235.00,T*11
2017-11-04:05:14:28.497314 $PSXN,20,1,0,0,0*3A
2017-11-04:05:14:28.752846 $PSXN,22,0.40,-0.68*1E
2017-11-04:05:14:29.007978 $PSXN,23,-0.91,1.61,235.00,-0.13*30
2017-11-04:05:14:29.262684 $INZDA,000104.17,07,08,2014,,*7D
2017-11-04:05:14:29.514325 $INGGA,000104.16,3934.956573,S,03727.882288,W,1,12,0.7,-0.37,M,-3.04,M,,*41
2017-11-04:05:14:29.768446 $INVTG,233.87,T,252.32,M,10.3,N,19.1,K,A*31
2017-11-04:05:14:30.022845 $INRMC,000104.16,A,3934.956573,S,03727.882288,W,10.3,233.87,070814,18.4,W,A*05
2017-11-04:05:14:30.273386 $INHDT,235.49,T*1C
2017-11-04:05:14:30.528796 $PSXN,20,1,0,0,0*3A
2017-11-04:05:14:30.779346 $PSXN,22,0.45,-0.68*1B
2017-11-04:05:14:31.033508 $PSXN,23,-0.61,2.35,235.49,-0.87*3D
2017-11-04:05:14:31.288825 $INZDA,000105.17,07,08,2014,,*7C
2017-11-04:05:14:31.544153 $INGGA,000105.16,3934.958288,S,03727.885274,W,1,12,0.7,-0.25,M,-3.04,M,,*4A
2017-11-04:05:14:31.798602 $INVTG,232.03,T,250.48,M,10.4,N,19.2,K,A*37
2017-11-04:05:14:32.053082 $INRMC,000105.16,A,3934.958288,S,03727.885274,W,10.4,232.03,070814,18.4,W,A*07
2017-11-04:05:14:32.304819 $INHDT,235.49,T*1C
2017-11-04:05:14:32.560318 $PSXN,20,1,0,0,0*3A
2017-11-04:05:14:32.815591 $PSXN,22,0.45,-0.68*1B
2017-11-04:05:14:33.069858 $PSXN,23,-0.59,0.98,235.49,-0.99*3C
2017-11-04:05:14:33.320045 $INZDA,000106.17,07,08,2014,,*7F
2017-11-04:05:14:33.575380 $INGGA,000106.16,3934.960161,S,03727.888168,W,1,12,0.7,-0.96,M,-3.04,M,,*4D
2017-11-04:05:14:33.825617 $INVTG,228.51,T,246.96,M,10.6,N,19.6,K,A*39
2017-11-04:05:14:34.077737 $INRMC,000106.16,A,3934.960161,S,03727.888168,W,10.6,228.51,070814,18.4,W,A*06
2017-11-04:05:14:34.330726 $INHDT,235.25,T*16
2017-11-04:05:14:34.580955 $PSXN,20,1,0,0,0*3A
2017-11-04:05:14:34.835850 $PSXN,22,0.23,-0.68*1B
2017-11-04:05:14:35.090981 $PSXN,23,-0.50,-1.39,235.25,-0.32*19
2017-11-04:05:14:35.341665 $INZDA,000107.17,07,08,2014,,*7E
2017-11-04:05:14:35.595924 $INGGA,000107.16,3934.962135,S,03727.891038,W,1,12,0.7,-1.91,M,-3.04,M,,*45
2017-11-04:05:14:35.851679 $INVTG,228.17,T,246.62,M,10.8,N,20.0,K,A*32
2017-11-04:05:14:36.106708 $INRMC,000107.16,A,3934.962135,S,03727.891038,W,10.8,228.17,070814,18.4,W,A*04
2017-11-04:05:14:36.362064 $INHDT,235.34,T*16
2017-11-04:05:14:36.617404 $PSXN,20,1,0,0,0*3A
2017-11-04:05:14:36.872685 $PSXN,22,0.23,-0.68*1B
2017-11-04:05:14:37.128025 $PSXN,23,-0.57,-2.41,235.34,0.57*3C
2017-11-04:05:14:37.381788 $INZDA,000108.17,07,08,2014,,*71
2017-11-04:05:14:37.632736 $INGGA,000108.16,3934.964123,S,03727.893987,W,1,12,0.7,-2.35,M,-3.04,M,,*49
2017-11-04:05:14:37.886446 $INVTG,230.08,T,248.53,M,11.0,N,20.3,K,A*33
2017-11-04:05:14:38.136653 $INRMC,000108.16,A,3934.964123,S,03727.893987,W,11.0,230.08,070814,18.4,W,A*0B
2017-11-04:05:14:38.387822 $INHDT,235.79,T*1F
2017-11-04:05:14:38.643138 $PSXN,20,1,0,0,0*3A
2017-11-04:05:14:38.898099 $PSXN,22,0.23,-0.68*1B
2017-11-04:05:14:39.149994 $PSXN,23,-1.33,-1.22,235.79,0.97*3C
2017-11-04:05:14:39.403097 $INZDA,000109.17,07,08,2014,,*70
2017-11-04:05:14:39.653244 $INGGA,000109.16,3934.966055,S,03727.897065,W,1,12,0.7,-1.98,M,-3.04,M,,*4F
2017-11-04:05:14:39.903356 $INVTG,231.63,T,250.08,M,11.1,N,20.5,K,A*3F
2017-11-04:05:14:40.158484 $INRMC,000109.16,A,3934.966055,S,03727.897065,W,11.1,231.63,070814,18.4,W,A*04
2017-11-04:05:14:40.413837 $INHDT,236.07,T*15
2017-11-04:05:14:40.665500 $PSXN,20,1,0,0,0*3A
2017-11-04:05:14:40.918973 $PSXN,22,0.23,-0.68*1B
2017-11-04:05:14:41.172721 $PSXN,23,-2.12,0.90,236.07,0.61*1A
2017-11-04:05:14:41.423387 $INZDA,000110.17,07,08,2014,,*78
2017-11-04:05:14:41.673797 $INGGA,000110.16,3934.967964,S,03727.900191,W,1,12,0.7,-1.35,M,-3.04,M,,*4F
2017-11-04:05:14:41.929181 $INVTG,231.13,T,249.58,M,10.9,N,20.2,K,A*3B
2017-11-04:05:14:42.184215 $INRMC,000110.16,A,3934.967964,S,03727.900191,W,10.9,231.13,070814,18.4,W,A*0D
2017-11-04:05:14:42.439231 $INHDT,235.86,T*1F
2017-11-04:05:14:42.689660 $PSXN,20,1,0,0,0*3A
2017-11-04:05:14:42.944951 $PSXN,22,0.23,-0.68*1B
2017-11-04:05:14:43.200316 $PSXN,23,-2.14,2.10,235.86,-0.10*37
2017-11-04:05:14:43.455310 $INZDA,000111.17,07,08,2014,,*79
2017-11-04:05:14:43.705986 $INGGA,000111.16,3934.969868,S,03727.903197,W,1,12,0.7,-0.86,M,-3.04,M,,*41
2017-11-04:05:14:43.960471 $INVTG,230.04,T,248.49,M,10.6,N,19.6,K,A*3C
2017-11-04:05:14:44.215808 $INRMC,000111.16,A,3934.969868,S,03727.903197,W,10.6,230.04,070814,18.4,W,A*02
2017-11-04:05:14:44.470695 $INHDT,235.56,T*12
2017-11-04:05:14:44.726025 $PSXN,20,1,0,0,0*3A
2017-11-04:05:14:44.981252 $PSXN,22,0.23,-0.68*1B
2017-11-04:05:14:45.234362 $PSXN,23,-1.77,1.98,235.56,-0.62*3A
2017-11-04:05:14:45.486446 $INZDA,000112.17,07,08,2014,,*7A
2017-11-04:05:14:45.741823 $INGGA,000112.16,3934.971743,S,03727.906083,W,1,12,0.7,-0.79,M,-3.04,M,,*4C
2017-11-04:05:14:45.997090 $INVTG,229.67,T,248.12,M,10.4,N,19.2,K,A*39
2017-11-04:05:14:46.252392 $INRMC,000112.16,A,3934.971743,S,03727.906083,W,10.4,229.67,070814,18.4,W,A*00
2017-11-04:05:14:46.507682 $INHDT,235.56,T*12
2017-11-04:05:14:46.762977 $PSXN,20,1,0,0,0*3A
2017-11-04:05:14:47.018231 $PSXN,22,0.22,-0.68*1A
2017-11-04:05:14:47.268418 $PSXN,23,-1.74,1.01,235.56,-0.70*3A
2017-11-04:05:14:47.520292 $INZDA,000113.17,07,08,2014,,*7B
2017-11-04:05:14:47.773450 $INGGA,000113.16,3934.973595,S,03727.908933,W,1,12,0.7,-1.09,M,-3.04,M,,*4C
2017-11-04:05:14:48.028704 $INVTG,230.25,T,248.70,M,10.4,N,19.2,K,A*33
2017-11-04:05:14:48.284003 $INRMC,000113.16,A,3934.973595,S,03727.908933,W,10.4,230.25,070814,18.4,W,A*08
2017-11-04:05:14:48.534162 $INHDT,235.77,T*11
2017-11-04:05:14:48.789063 $PSXN,20,1,0,0,0*3A
2017-11-04:05:14:49.043874 $PSXN,22,0.22,-0.68*1A
2017-11-04:05:14:49.299129 $PSXN,23,-2.15,-0.33,235.77,-0.43*10
2017-11-04:05:14:49.553226 $INZDA,000114.17,07,08,2014,,*7C
2017-11-04:05:14:49.804662 $INGGA,000114.16,3934.975460,S,03727.911844,W,1,12,0.7,-1.53,M,-3.04,M,,*40
2017-11-04:05:14:50.060000 $INVTG,230.27,T,248.72,M,10.7,N,19.7,K,A*35
2017-11-04:05:14:50.315286 $INRMC,000114.16,A,3934.975460,S,03727.911844,W,10.7,230.27,070814,18.4,W,A*0A
2017-11-04:05:14:50.569627 $INHDT,235.81,T*18
2017-11-04:05:14:50.820601 $PSXN,20,1,0,0,0*3A
2017-11-04:05:14:51.072269 $PSXN,22,0.22,-0.68*1A
2017-11-04:05:14:51.325551 $PSXN,23,-2.36,-1.49,235.81,-0.01*12
2017-11-04:05:14:51.578621 $INZDA,000115.17,07,08,2014,,*7D
2017-11-04:05:14:51.830527 $INGGA,000115.16,3934.977374,S,03727.914819,W,1,12,0.7,-1.83,M,-3.04,M,,*41
2017-11-04:05:14:52.085867 $INVTG,230.73,T,249.18,M,11.0,N,20.4,K,A*36
2017-11-04:05:14:52.336356 $INRMC,000115.16,A,3934.977374,S,03727.914819,W,11.0,230.73,070814,18.4,W,A*01
2017-11-04:05:14:52.590973 $INHDT,235.70,T*16
2017-11-04:05:14:52.843467 $PSXN,20,1,0,0,0*3A
2017-11-04:05:14:53.095594 $PSXN,22,0.22,-0.68*1A
2017-11-04:05:14:53.346243 $PSXN,23,-2.06,-1.76,235.70,0.33*3F
2017-11-04:05:14:53.599541 $INZDA,000116.17,07,08,2014,,*7E
2017-11-04:05:14:53.851460 $INGGA,000116.16,3934.979308,S,03727.917931,W,1,12,0.7,-1.94,M,-3.04,M,,*49
2017-11-04:05:14:54.106506 $INVTG,232.03,T,250.48,M,11.2,N,20.8,K,A*30
2017-11-04:05:14:54.361830 $INRMC,000116.16,A,3934.979308,S,03727.917931,W,11.2,232.03,070814,18.4,W,A*08
2017-11-04:05:14:54.617182 $INHDT,235.68,T*1F
2017-11-04:05:14:54.872261 $PSXN,20,1,0,0,0*3A
2017-11-04:05:14:55.127156 $PSXN,22,0.22,-0.68*1A
2017-11-04:05:14:55.377329 $PSXN,23,-1.72,-0.96,235.68,0.46*3B
2017-11-04:05:14:55.632124 $INZDA,000117.17,07,08,2014,,*7F
2017-11-04:05:14:55.882914 $INGGA,000117.16,3934.981234,S,03727.921115,W,1,12,0.7,-1.81,M,-3.04,M,,*4E
2017-11-04:05:14:56.138940 $INVTG,231.96,T,250.40,M,11.2,N,20.7,K,A*38
2017-11-04:05:14:56.393581 $INRMC,000117.16,A,3934.981234,S,03727.921115,W,11.2,231.96,070814,18.4,W,A*04
2017-11-04:05:14:56.648913 $INHDT,235.64,T*13
2017-11-04:05:14:56.904235 $PSXN,20,1,0,0,0*3A
2017-11-04:05:14:57.159681 $PSXN,22,0.22,-0.68*1A
2017-11-04:05:14:57.415015 $PSXN,23,-1.56,0.70,235.64,0.35*10
2017-11-04:05:14:57.670354 $INZDA,000118.17,07,08,2014,,*70
2017-11-04:05:14:57.921150 $INGGA,000118.16,3934.983157,S,03727.924212,W,1,12,0.7,-1.46,M,-3.04,M,,*4F
2017-11-04:05:14:58.174276 $INVTG,230.64,T,249.09,M,10.9,N,20.2,K,A*3E
2017-11-04:05:14:58.429257 $INRMC,000118.16,A,3934.983157,S,03727.924212,W,10.9,230.64,070814,18.4,W,A*08
2017-11-04:05:14:58.684234 $INHDT,235.36,T*14
2017-11-04:05:14:58.935332 $PSXN,20,1,0,0,0*3A
2017-11-04:05:14:59.190720 $PSXN,22,0.22,-0.68*1A
2017-11-04:05:14:59.445732 $PSXN,23,-1.43,2.32,235.36,0.02*13
2017-11-04:05:14:59.701071 $INZDA,000119.17,07,08,2014,,*71
2017-11-04:05:14:59.952921 $INGGA,000119.16,3934.985106,S,03727.927195,W,1,12,0.7,-1.19,M,-3.04,M,,*49
2017-11-04:05:15:00.206427 $INVTG,229.16,T,247.61,M,10.8,N,20.0,K,A*30
2017-11-04:05:15:00.461785 $INRMC,000119.16,A,3934.985106,S,03727.927195,W,10.8,229.16,070814,18.4,W,A*08
2017-11-04:05:15:00.717877 $INHDT,235.08,T*19
2017-11-04:05:15:00.972597 $PSXN,20,1,0,0,0*3A
2017-11-04:05:15:01.227707 $PSXN,22,0.22,-0.68*1A
2017-11-04:05:15:01.478044 $PSXN,23,-1.35,2.27,235.08,-0.24*32
2017-11-04:05:15:01.732988 $INZDA,000120.17,07,08,2014,,*7B
2017-11-04:05:15:01.987406 $INGGA,000120.16,3934.987102,S,03727.930104,W,1,12,0.7,-1.31,M,-3.04,M,,*41
2017-11-04:05:15:02.238323 $INVTG,228.15,T,246.60,M,10.8,N,20.0,K,A*32
2017-11-04:05:15:02.488601 $INRMC,000120.16,A,3934.987102,S,03727.930104,W,10.8,228.15,070814,18.4,W,A*08
2017-11-04:05:15:02.742978 $INHDT,235.11,T*11
2017-11-04:05:15:02.997271 $PSXN,20,1,0,0,0*3A
2017-11-04:05:15:03.247626 $PSXN,22,0.22,-0.68*1A
2017-11-04:05:15:03.498034 $PSXN,23,-1.51,0.19,235.11,-0.10*30
2017-11-04:05:15:03.753373 $INZDA,000121.17,07,08,2014,,*7A
2017-11-04:05:15:04.008732 $INGGA,000121.16,3934.989082,S,03727.933018,W,1,12,0.7,-1.59,M,-3.04,M,,*46
2017-11-04:05:15:04.264071 $INVTG,229.08,T,247.53,M,10.7,N,19.9,K,A*32
2017-11-04:05:15:04.519359 $INRMC,000121.16,A,3934.989082,S,03727.933018,W,10.7,229.08,070814,18.4,W,A*03
2017-11-04:05:15:04.774695 $INHDT,235.38,T*1A
2017-11-04:05:15:05.029819 $PSXN,20,1,0,0,0*3A
2017-11-04:05:15:05.279977 $PSXN,22,0.22,-0.68*1A
2017-11-04:05:15:05.535270 $PSXN,23,-1.81,-1.73,235.38,0.16*3D
2017-11-04:05:15:05.790551 $INZDA,000122.17,07,08,2014,,*79
2017-11-04:05:15:06.045896 $INGGA,000122.16,3934.990997,S,03727.935938,W,1,12,0.7,-1.64,M,-3.04,M,,*43
2017-11-04:05:15:06.301234 $INVTG,230.21,T,248.66,M,10.7,N,19.7,K,A*36
2017-11-04:05:15:06.556547 $INRMC,000122.16,A,3934.990997,S,03727.935938,W,10.7,230.21,070814,18.4,W,A*0B
2017-11-04:05:15:06.808164 $INHDT,235.59,T*1D
2017-11-04:05:15:07.061868 $PSXN,20,1,0,0,0*3A
2017-11-04:05:15:07.317193 $PSXN,22,0.22,-0.68*1A
2017-11-04:05:15:07.572039 $PSXN,23,-1.86,-1.24,235.59,0.17*3E
2017-11-04:05:15:07.827084 $INZDA,000123.17,07,08,2014,,*78
2017-11-04:05:15:08.077346 $INGGA,000123.16,3934.992878,S,03727.938876,W,1,12,0.7,-1.25,M,-3.04,M,,*43
2017-11-04:05:15:08.332686 $INVTG,230.77,T,249.22,M,10.6,N,19.7,K,A*35
2017-11-04:05:15:08.587548 $INRMC,000123.16,A,3934.992878,S,03727.938876,W,10.6,230.77,070814,18.4,W,A*0C
2017-11-04:05:15:08.837919 $INHDT,235.73,T*15
2017-11-04:05:15:09.088315 $PSXN,20,1,0,0,0*3A
2017-11-04:05:15:09.342941 $PSXN,22,0.22,-0.68*1A
2017-11-04:05:15:09.598222 $PSXN,23,-1.67,0.98,235.73,-0.23*38
2017-11-04:05:15:09.853501 $INZDA,000124.17,07,08,2014,,*7F
2017-11-04:05:15:10.108820 $INGGA,000124.16,3934.994745,S,03727.941845,W,1,12,0.7,-0.74,M,-3.04,M,,*48
2017-11-04:05:15:10.364172 $INVTG,230.98,T,249.43,M,10.7,N,19.8,K,A*3D
2017-11-04:05:15:10.619583 $INRMC,000124.16,A,3934.994745,S,03727.941845,W,10.7,230.98,070814,18.4,W,A*02
2017-11-04:05:15:10.874887 $INHDT,235.72,T*14
2017-11-04:05:15:11.130196 $PSXN,20,1,0,0,0*3A
2017-11-04:05:15:11.385920 $PSXN,22,0.22,-0.68*1A
2017-11-04:05:15:11.636130 $PSXN,23,-1.55,2.14,235.72,-0.71*39
2017-11-04:05:15:11.890893 $INZDA,000125.17,07,08,2014,,*7E
2017-11-04:05:15:12.146230 $INGGA,000125.16,3934.996639,S,03727.944828,W,1,12,0.7,-0.78,M,-3.04,M,,*43
2017-11-04:05:15:12.401562 $INVTG,230.42,T,248.87,M,10.7,N,19.9,K,A*32
2017-11-04:05:15:12.656957 $INRMC,000125.16,A,3934.996639,S,03727.944828,W,10.7,230.42,070814,18.4,W,A*02
2017-11-04:05:15:12.909083 $INHDT,235.56,T*12
2017-11-04:05:15:13.162123 $PSXN,20,1,0,0,0*3A
2017-11-04:05:15:13.417465 $PSXN,22,0.22,-0.68*1A
2017-11-04:05:15:13.672342 $PSXN,23,-1.47,0.85,235.56,-0.65*33
2017-11-04:05:15:13.927692 $INZDA,000126.17,07,08,2014,,*7D
2017-11-04:05:15:14.182556 $INGGA,000126.16,3934.998551,S,03727.947824,W,1,12,0.7,-1.54,M,-3.04,M,,*43
2017-11-04:05:15:14.436775 $INVTG,229.64,T,248.09,M,10.9,N,20.1,K,A*34
2017-11-04:05:15:14.687745 $INRMC,000126.16,A,3934.998551,S,03727.947824,W,10.9,229.64,070814,18.4,W,A*0F
2017-11-04:05:15:14.938269 $INHDT,235.29,T*1A
2017-11-04:05:15:15.192519 $PSXN,20,1,0,0,0*3A
2017-11-04:05:15:15.447873 $PSXN,22,0.22,-0.68*1A
2017-11-04:05:15:15.703222 $PSXN,23,-1.39,-1.26,235.29,0.10*38
2017-11-04:05:15:15.953389 $INZDA,000127.17,07,08,2014,,*7C
2017-11-04:05:15:16.208383 $INGGA,000127.16,3935.000544,S,03727.950793,W,1,12,0.7,-2.44,M,-3.04,M,,*48
2017-11-04:05:15:16.463822 $INVTG,228.34,T,246.79,M,11.1,N,20.5,K,A*34
2017-11-04:05:15:16.719119 $INRMC,000127.16,A,3935.000544,S,03727.950793,W,11.1,228.34,070814,18.4,W,A*0B
2017-11-04:05:15:16.974459 $INHDT,235.05,T*14
2017-11-04:05:15:17.229770 $PSXN,20,1,0,0,0*3A
2017-11-04:05:15:17.485121 $PSXN,22,0.22,-0.68*1A
2017-11-04:05:15:17.735352 $PSXN,23,-1.50,-1.96,235.05,0.96*3C
2017-11-04:05:15:17.990411 $INZDA,000128.17,07,08,2014,,*73
2017-11-04:05:15:18.245814 $INGGA,000128.16,3935.002617,S,03727.953770,W,1,12,0.7,-2.62,M,-3.04,M,,*4A
2017-11-04:05:15:18.497371 $INVTG,228.09,T,246.54,M,11.2,N,20.8,K,A*3B
2017-11-04:05:15:18.750730 $INRMC,000128.16,A,3935.002617,S,03727.953770,W,11.2,228.09,070814,18.4,W,A*00
2017-11-04:05:15:19.006068 $INHDT,235.04,T*15
2017-11-04:05:15:19.261374 $PSXN,20,1,0,0,0*3A
2017-11-04:05:15:19.512355 $PSXN,22,0.22,-0.68*1A
2017-11-04:05:15:19.766342 $PSXN,23,-1.58,-0.68,235.04,1.12*38
2017-11-04:05:15:20.020112 $INZDA,000129.17,07,08,2014,,*72
2017-11-04:05:15:20.271406 $INGGA,000129.16,3935.004649,S,03727.956795,W,1,12,0.7,-1.83,M,-3.04,M,,*44
2017-11-04:05:15:20.526760 $INVTG,230.38,T,248.83,M,11.1,N,20.6,K,A*39
2017-11-04:05:15:20.780654 $INRMC,000129.16,A,3935.004649,S,03727.956795,W,11.1,230.38,070814,18.4,W,A*0A
2017-11-04:05:15:21.031789 $INHDT,235.31,T*13
2017-11-04:05:15:21.283940 $PSXN,20,1,0,0,0*3A
2017-11-04:05:15:21.537069 $PSXN,22,0.22,-0.68*1A
2017-11-04:05:15:21.792377 $PSXN,23,-1.51,1.29,235.31,0.35*1A
2017-11-04:05:15:22.043008 $INZDA,000130.17,07,08,2014,,*7A
2017-11-04:05:15:22.297638 $INGGA,000130.16,3935.006530,S,03727.959906,W,1,12,0.7,-0.69,M,-3.04,M,,*4D
2017-11-04:05:15:22.553001 $INVTG,233.34,T,251.79,M,10.9,N,20.1,K,A*35
2017-11-04:05:15:22.808606 $INRMC,000130.16,A,3935.006530,S,03727.959906,W,10.9,233.34,070814,18.4,W,A*00
2017-11-04:05:15:23.063685 $INHDT,235.73,T*15
2017-11-04:05:15:23.313849 $PSXN,20,1,0,0,0*3A
2017-11-04:05:15:23.568707 $PSXN,22,0.22,-0.68*1A
2017-11-04:05:15:23.824019 $PSXN,23,-1.44,2.24,235.73,-0.75*3F
2017-11-04:05:15:24.078944 $INZDA,000131.17,07,08,2014,,*7B
2017-11-04:05:15:24.334270 $INGGA,000131.16,3935.008283,S,03727.963023,W,1,12,0.7,-0.06,M,-3.04,M,,*43
2017-11-04:05:15:24.588249 $INVTG,234.15,T,252.60,M,10.6,N,19.6,K,A*38
2017-11-04:05:15:24.839435 $INRMC,000131.16,A,3935.008283,S,03727.963023,W,10.6,234.15,070814,18.4,W,A*0C
2017-11-04:05:15:25.094942 $INHDT,235.95,T*1D
2017-11-04:05:15:25.350153 $PSXN,20,1,0,0,0*3A
2017-11-04:05:15:25.603737 $PSXN,22,0.22,-0.68*1A
2017-11-04:05:15:25.855204 $PSXN,23,-1.46,1.74,235.95,-1.35*36
2017-11-04:05:15:26.106443 $INZDA,000132.17,07,08,2014,,*78
2017-11-04:05:15:26.360933 $INGGA,000132.16,3935.010029,S,03727.966046,W,1,12,0.7,-0.35,M,-3.04,M,,*4D
2017-11-04:05:15:26.615971 $INVTG,231.96,T,250.40,M,10.5,N,19.4,K,A*37
2017-11-04:05:15:26.871036 $INRMC,000132.16,A,3935.010029,S,03727.966046,W,10.5,231.96,070814,18.4,W,A*0F
2017-11-04:05:15:27.126299 $INHDT,235.74,T*12
2017-11-04:05:15:27.376447 $PSXN,20,1,0,0,0*3A
2017-11-04:05:15:27.631770 $PSXN,22,0.22,-0.68*1A
2017-11-04:05:15:27.887171 $PSXN,23,-1.43,0.44,235.74,-1.06*3E
2017-11-04:05:15:28.138745 $INZDA,000133.17,07,08,2014,,*79
2017-11-04:05:15:28.392543 $INGGA,000133.16,3935.011892,S,03727.968954,W,1,12,0.7,-1.25,M,-3.04,M,,*41
2017-11-04:05:15:28.647861 $INVTG,228.76,T,247.21,M,10.6,N,19.6,K,A*31
2017-11-04:05:15:28.902899 $INRMC,000133.16,A,3935.011892,S,03727.968954,W,10.6,228.76,070814,18.4,W,A*06
2017-11-04:05:15:29.158201 $INHDT,235.27,T*14
2017-11-04:05:15:29.413529 $PSXN,20,1,0,0,0*3A
2017-11-04:05:15:29.668568 $PSXN,22,0.22,-0.68*1A
2017-11-04:05:15:29.918953 $PSXN,23,-1.34,-0.81,235.27,-0.16*1C
2017-11-04:05:15:30.174237 $INZDA,000134.17,07,08,2014,,*7E
2017-11-04:05:15:30.429566 $INGGA,000134.16,3935.013903,S,03727.971828,W,1,12,0.7,-2.15,M,-3.04,M,,*4F
2017-11-04:05:15:30.684887 $INVTG,227.57,T,246.02,M,11.0,N,20.4,K,A*32
2017-11-04:05:15:30.935072 $INRMC,000134.16,A,3935.013903,S,03727.971828,W,11.0,227.57,070814,18.4,W,A*03
2017-11-04:05:15:31.190231 $INHDT,235.05,T*14
2017-11-04:05:15:31.445683 $PSXN,20,1,0,0,0*3A
2017-11-04:05:15:31.700997 $PSXN,22,0.22,-0.68*1A
2017-11-04:05:15:31.955845 $PSXN,23,-1.45,-1.61,235.05,0.73*3B
2017-11-04:05:15:32.206003 $INZDA,000135.17,07,08,2014,,*7F
2017-11-04:05:15:32.460947 $INGGA,000135.16,3935.015993,S,03727.974813,W,1,12,0.7,-2.56,M,-3.04,M,,*4B
2017-11-04:05:15:32.715325 $INVTG,228.38,T,246.83,M,11.4,N,21.1,K,A*3D
2017-11-04:05:15:32.970404 $INRMC,000135.16,A,3935.015993,S,03727.974813,W,11.4,228.38,070814,18.4,W,A*02
2017-11-04:05:15:33.220683 $INHDT,235.27,T*14
2017-11-04:05:15:33.471385 $PSXN,20,1,0,0,0*3A
2017-11-04:05:15:33.726491 $PSXN,22,0.22,-0.68*1A
2017-11-04:05:15:33.981802 $PSXN,23,-1.87,-1.74,235.27,1.12*37
2017-11-04:05:15:34.237160 $INZDA,000136.17,07,08,2014,,*7C
2017-11-04:05:15:34.492460 $INGGA,000136.16,3935.018074,S,03727.977935,W,1,12,0.7,-2.31,M,-3.04,M,,*42
2017-11-04:05:15:34.747783 $INVTG,230.20,T,248.64,M,11.5,N,21.2,K,A*38
2017-11-04:05:15:35.003112 $INRMC,000136.16,A,3935.018074,S,03727.977935,W,11.5,230.20,070814,18.4,W,A*0B
2017-11-04:05:15:35.258436 $INHDT,235.58,T*1C
2017-11-04:05:15:35.513865 $PSXN,20,1,0,0,0*3A
2017-11-04:05:15:35.768936 $PSXN,22,0.22,-0.68*1A
2017-11-04:05:15:36.024222 $PSXN,23,-2.17,-0.59,235.58,0.89*38
2017-11-04:05:15:36.274801 $INZDA,000137.17,07,08,2014,,*7D
2017-11-04:05:15:36.529949 $INGGA,000137.16,3935.020059,S,03727.981092,W,1,12,0.7,-1.54,M,-3.04,M,,*4A
2017-11-04:05:15:36.784972 $INVTG,231.47,T,249.92,M,11.2,N,20.7,K,A*33
2017-11-04:05:15:37.035332 $INRMC,000137.16,A,3935.020059,S,03727.981092,W,11.2,231.47,070814,18.4,W,A*04
2017-11-04:05:15:37.290496 $INHDT,235.76,T*10
2017-11-04:05:15:37.545523 $PSXN,20,1,0,0,0*3A
2017-11-04:05:15:37.795808 $PSXN,22,0.22,-0.68*1A
2017-11-04:05:15:38.050633 $PSXN,23,-2.15,1.67,235.76,0.14*13
2017-11-04:05:15:38.304423 $INZDA,000138.17,07,08,2014,,*72
2017-11-04:05:15:38.555747 $INGGA,000138.16,3935.021943,S,03727.984162,W,1,12,0.7,-0.62,M,-3.04,M,,*49
2017-11-04:05:15:38.807396 $INVTG,231.48,T,249.92,M,10.7,N,19.8,K,A*3D
2017-11-04:05:15:39.060124 $INRMC,000138.16,A,3935.021943,S,03727.984162,W,10.7,231.48,070814,18.4,W,A*08
2017-11-04:05:15:39.315197 $INHDT,235.79,T*1F
2017-11-04:05:15:39.565439 $PSXN,20,1,0,0,0*3A
2017-11-04:05:15:39.820723 $PSXN,22,0.22,-0.68*1A
2017-11-04:05:15:40.076063 $PSXN,23,-2.00,3.35,235.79,-0.74*36
2017-11-04:05:15:40.331403 $INZDA,000139.17,07,08,2014,,*73
2017-11-04:05:15:40.586105 $INGGA,000139.16,3935.023782,S,03727.987096,W,1,12,0.7,-0.12,M,-3.04,M,,*47
2017-11-04:05:15:40.841442 $INVTG,230.37,T,248.82,M,10.4,N,19.2,K,A*3D
2017-11-04:05:15:41.096855 $INRMC,000139.16,A,3935.023782,S,03727.987096,W,10.4,230.37,070814,18.4,W,A*0B
2017-11-04:05:15:41.347286 $INHDT,235.64,T*13
2017-11-04:05:15:41.602610 $PSXN,20,1,0,0,0*3A
2017-11-04:05:15:41.857917 $PSXN,22,0.22,-0.68*1A
2017-11-04:05:15:42.113265 $PSXN,23,-1.86,2.92,235.64,-1.21*3A
2017-11-04:05:15:42.367507 $INZDA,000140.17,07,08,2014,,*7D
2017-11-04:05:15:42.622669 $INGGA,000140.16,3935.025642,S,03727.989939,W,1,12,0.7,-0.39,M,-3.04,M,,*49
2017-11-04:05:15:42.875576 $INVTG,229.07,T,247.52,M,10.4,N,19.3,K,A*35
2017-11-04:05:15:43.127551 $INRMC,000140.16,A,3935.025642,S,03727.989939,W,10.4,229.07,070814,18.4,W,A*07
2017-11-04:05:15:43.378217 $INHDT,235.49,T*1C
2017-11-04:05:15:43.628631 $PSXN,20,1,0,0,0*3A
2017-11-04:05:15:43.883534 $PSXN,22,0.22,-0.68*1A
2017-11-04:05:15:44.136948 $PSXN,23,-1.88,0.29,235.49,-0.92*30
2017-11-04:05:15:44.387141 $INZDA,000141.17,07,08,2014,,*7C
2017-11-04:05:15:44.642487 $INGGA,000141.16,3935.027569,S,03727.992799,W,1,12,0.7,-1.32,M,-3.04,M,,*44
2017-11-04:05:15:44.893263 $INVTG,228.70,T,247.15,M,10.8,N,19.9,K,A*31
2017-11-04:05:15:45.147182 $INRMC,000141.16,A,3935.027569,S,03727.992799,W,10.8,228.70,070814,18.4,W,A*0D
2017-11-04:05:15:45.398155 $INHDT,235.47,T*12
2017-11-04:05:15:45.653493 $PSXN,20,1,0,0,0*3A
2017-11-04:05:15:45.909219 $PSXN,22,0.22,-0.68*1A
2017-11-04:05:15:46.164577 $PSXN,23,-1.97,-2.85,235.47,-0.01*13
2017-11-04:05:15:46.419882 $INZDA,000142.17,07,08,2014,,*7F
2017-11-04:05:15:46.675196 $INGGA,000142.16,3935.029558,S,03727.995777,W,1,12,0.7,-2.33,M,-3.04,M,,*4E
2017-11-04:05:15:46.930141 $INVTG,229.66,T,248.10,M,11.2,N,20.7,K,A*32
2017-11-04:05:15:47.185897 $INRMC,000142.16,A,3935.029558,S,03727.995777,W,11.2,229.66,070814,18.4,W,A*08
2017-11-04:05:15:47.441216 $INHDT,235.56,T*12
2017-11-04:05:15:47.696630 $PSXN,20,1,0,0,0*3A
2017-11-04:05:15:47.951974 $PSXN,22,0.22,-0.68*1A
2017-11-04:05:15:48.202077 $PSXN,23,-1.88,-3.83,235.56,0.94*3B
2017-11-04:05:15:48.457399 $INZDA,000143.17,07,08,2014,,*7E
2017-11-04:05:15:48.712812 $INGGA,000143.16,3935.031555,S,03727.998894,W,1,12,0.7,-2.66,M,-3.04,M,,*44
2017-11-04:05:15:48.968119 $INVTG,231.44,T,249.89,M,11.3,N,21.0,K,A*3D
2017-11-04:05:15:49.223120 $INRMC,000143.16,A,3935.031555,S,03727.998894,W,11.3,231.44,070814,18.4,W,A*0A
2017-11-04:05:15:49.473259 $INHDT,235.71,T*17
2017-11-04:05:15:49.728059 $PSXN,20,1,0,0,0*3A
2017-11-04:05:15:49.983397 $PSXN,22,0.22,-0.68*1A
2017-11-04:05:15:50.237431 $PSXN,23,-1.58,-1.30,235.71,1.24*33
2017-11-04:05:15:50.488830 $INZDA,000144.17,07,08,2014,,*79
2017-11-04:05:15:50.739224 $INGGA,000144.16,3935.033440,S,03728.002056,W,1,12,0.7,-1.95,M,-3.04,M,,*48
2017-11-04:05:15:50.989701 $INVTG,233.44,T,251.89,M,10.9,N,20.2,K,A*3E
2017-11-04:05:15:51.243425 $INRMC,000144.16,A,3935.033440,S,03728.002056,W,10.9,233.44,070814,18.4,W,A*00
2017-11-04:05:15:51.493749 $INHDT,235.77,T*11
2017-11-04:05:15:51.748784 $PSXN,20,1,0,0,0*3A
2017-11-04:05:15:52.004125 $PSXN,22,0.22,-0.68*1A
2017-11-04:05:15:52.258554 $PSXN,23,-1.25,2.93,235.77,0.55*1F
2017-11-04:05:15:52.514432 $INZDA,000145.17,07,08,2014,,*78
2017-11-04:05:15:52.769745 $INGGA,000145.16,3935.035213,S,03728.005133,W,1,12,0.7,-0.58,M,-3.04,M,,*4A
2017-11-04:05:15:53.024970 $INVTG,233.28,T,251.73,M,10.4,N,19.3,K,A*37
2017-11-04:05:15:53.279834 $INRMC,000145.16,A,3935.035213,S,03728.005133,W,10.4,233.28,070814,18.4,W,A*05
2017-11-04:05:15:53.530336 $INHDT,235.69,T*1E
2017-11-04:05:15:53.785225 $PSXN,20,1,0,0,0*3A
2017-11-04:05:15:54.040547 $PSXN,22,0.22,-0.68*1A
2017-11-04:05:15:54.295943 $PSXN,23,-1.00,5.14,235.69,-0.74*31
2017-11-04:05:15:54.551313 $INZDA,000146.17,07,08,2014,,*7B
2017-11-04:05:15:54.806627 $INGGA,000146.16,3935.036966,S,03728.008046,W,1,12,0.7,0.29,M,-3.04,M,,*66
2017-11-04:05:15:55.056806 $INVTG,230.74,T,249.19,M,10.1,N,18.8,K,A*37
2017-11-04:05:15:55.312976 $INRMC,000146.16,A,3935.036966,S,03728.008046,W,10.1,230.74,070814,18.4,W,A*0D
2017-11-04:05:15:55.568125 $INHDT,235.56,T*12
2017-11-04:05:15:55.823190 $PSXN,20,1,0,0,0*3A
2017-11-04:05:15:56.078462 $PSXN,22,0.22,-0.68*1A
2017-11-04:05:15:56.333903 $PSXN,23,-0.89,3.24,235.56,-1.54*3B
2017-11-04:05:15:56.588810 $INZDA,000147.17,07,08,2014,,*7A
2017-11-04:05:15:56.844119 $INGGA,000147.16,3935.038799,S,03728.010830,W,1,12,0.7,-0.07,M,-3.04,M,,*46
2017-11-04:05:15:57.098262 $INVTG,227.94,T,246.38,M,10.2,N,18.9,K,A*31
2017-11-04:05:15:57.348947 $INRMC,000147.16,A,3935.038799,S,03728.010830,W,10.2,227.94,070814,18.4,W,A*07
2017-11-04:05:15:57.604125 $INHDT,235.55,T*11
2017-11-04:05:15:57.854512 $PSXN,20,1,0,0,0*3A
2017-11-04:05:15:58.109741 $PSXN,22,0.22,-0.68*1A
2017-11-04:05:15:58.365010 $PSXN,23,-1.07,-1.15,235.55,-1.17*15
2017-11-04:05:15:58.620220 $INZDA,000148.17,07,08,2014,,*75
2017-11-04:05:15:58.870383 $INGGA,000148.16,3935.040731,S,03728.013576,W,1,12,0.7,-1.33,M,-3.04,M,,*4E
2017-11-04:05:15:59.122142 $INVTG,227.86,T,246.30,M,10.5,N,19.4,K,A*31
2017-11-04:05:15:59.372353 $INRMC,000148.16,A,3935.040731,S,03728.013576,W,10.5,227.86,070814,18.4,W,A*0D
2017-11-04:05:15:59.624821 $INHDT,235.77,T*11
2017-11-04:05:15:59.878823 $PSXN,20,1,0,0,0*3A
2017-11-04:05:16:00.129764 $PSXN,22,0.22,-0.68*1A
2017-11-04:05:16:00.379957 $PSXN,23,-1.38,-4.09,235.77,0.05*3E
2017-11-04:05:16:00.634302 $INZDA,000149.17,07,08,2014,,*74
2017-11-04:05:16:00.889354 $INGGA,000149.16,3935.042661,S,03728.016455,W,1,12,0.7,-2.42,M,-3.04,M,,*49
2017-11-04:05:16:01.140213 $INVTG,230.23,T,248.67,M,10.8,N,20.0,K,A*37
2017-11-04:05:16:01.394523 $INRMC,000149.16,A,3935.042661,S,03728.016455,W,10.8,230.23,070814,18.4,W,A*0B
2017-11-04:05:16:01.647856 $INHDT,236.17,T*14
2017-11-04:05:16:01.899548 $PSXN,20,1,0,0,0*3A
