2017-11-04T05:12:19.479303Z $INZDA,000000.17,07,08,2014,,*78
2017-11-04T05:12:19.729748Z $INGGA,000000.16,6204.831698,S,05767.695242,W,1,12,0.7,0.82,M,-3.04,M,,*6F
2017-11-04T05:12:19.984911Z $INVTG,227.19,T,245.64,M,10.8,N,20.0,K,A*36
2017-11-04T05:12:20.240177Z $INRMC,000000.16,A,6204.831698,S,05767.695242,W,10.8,227.19,070814,18.5,W,A*00
2017-11-04T05:12:20.495430Z $INHDT,235.18,T*18
2017-11-04T05:12:20.748665Z $PSXN,20,1,0,0,0*3A
2017-11-04T05:12:21.000716Z $PSXN,22,-0.05,-0.68*32
2017-11-04T05:12:21.256010Z $PSXN,23,-2.82,1.00,235.18,-1.66*3D
2017-11-04T05:12:21.511263Z $INZDA,000001.17,07,08,2014,,*79
2017-11-04T05:12:21.765827Z $INGGA,000001.16,6204.833674,S,05767.698164,W,1,12,0.7,0.03,M,-3.04,M,,*6D
2017-11-04T05:12:22.016470Z $INVTG,230.21,T,248.66,M,10.8,N,20.0,K,A*34
2017-11-04T05:12:22.267012Z $INRMC,000001.16,A,6204.833674,S,05767.698164,W,10.8,230.21,070814,18.5,W,A*06
2017-11-04T05:12:22.520671Z $INHDT,235.50,T*14
2017-11-04T05:12:22.770997Z $PSXN,20,1,0,0,0*3A
2017-11-04T05:12:23.022713Z $PSXN,22,-0.05,-0.68*32
2017-11-04T05:12:23.274388Z $PSXN,23,-2.68,-2.25,235.50,-0.88*1D
2017-11-04T05:12:23.525550Z $INZDA,000002.17,07,08,2014,,*7A
2017-11-04T05:12:23.775697Z $INGGA,000002.16,6204.835563,S,05767.701242,W,1,12,0.7,-1.24,M,-3.04,M,,*42
2017-11-04T05:12:24.030406Z $INVTG,232.29,T,250.74,M,11.2,N,20.7,K,A*38
2017-11-04T05:12:24.285581Z $INRMC,000002.16,A,6204.835563,S,05767.701242,W,11.2,232.29,070814,18.5,W,A*01
2017-11-04T05:12:24.539452Z $INHDT,235.73,T*15
2017-11-04T05:12:24.790884Z $PSXN,20,1,0,0,0*3A
2017-11-04T05:12:25.042829Z $PSXN,22,-0.05,-0.68*32
2017-11-04T05:12:25.295830Z $PSXN,23,-2.27,-3.37,235.73,0.34*3F
2017-11-04T05:12:25.551120Z $INZDA,000003.17,07,08,2014,,*7B
2017-11-04T05:12:25.806433Z $INGGA,000003.16,6204.837475,S,05767.704471,W,1,12,0.7,-2.05,M,-3.04,M,,*44
2017-11-04T05:12:26.061750Z $INVTG,232.26,T,250.71,M,11.6,N,21.4,K,A*34
2017-11-04T05:12:26.314871Z $INRMC,000003.16,A,6204.837475,S,05767.704471,W,11.6,232.26,070814,18.5,W,A*0C
2017-11-04T05:12:26.567007Z $INHDT,235.52,T*16
2017-11-04T05:12:26.819311Z $PSXN,20,1,0,0,0*3A
2017-11-04T05:12:27.071958Z $PSXN,22,-0.05,-0.68*32
2017-11-04T05:12:27.327301Z $PSXN,23,-1.66,-1.70,235.52,1.11*3D
2017-11-04T05:12:27.581758Z $INZDA,000004.17,07,08,2014,,*7C
2017-11-04T05:12:27.832506Z $INGGA,000004.16,6204.839517,S,05767.707744,W,1,12,0.7,-1.97,M,-3.04,M,,*46
2017-11-04T05:12:28.085464Z $INVTG,230.17,T,248.62,M,11.7,N,21.6,K,A*3C
2017-11-04T05:12:28.335724Z $INRMC,000004.16,A,6204.839517,S,05767.707744,W,11.7,230.17,070814,18.5,W,A*07
2017-11-04T05:12:28.586228Z $INHDT,235.02,T*13
2017-11-04T05:12:28.837837Z $PSXN,20,1,0,0,0*3A
2017-11-04T05:12:29.091908Z $PSXN,22,-0.05,-0.68*32
2017-11-04T05:12:29.347271Z $PSXN,23,-1.14,1.03,235.02,0.91*1D
2017-11-04T05:12:29.602754Z $INZDA,000005.17,07,08,2014,,*7D
2017-11-04T05:12:29.852994Z $INGGA,000005.16,6204.841607,S,05767.710901,W,1,12,0.7,-1.09,M,-3.04,M,,*44
2017-11-04T05:12:30.107905Z $INVTG,228.97,T,247.42,M,11.3,N,21.0,K,A*32
2017-11-04T05:12:30.363333Z $INRMC,000005.16,A,6204.841607,S,05767.710901,W,11.3,228.97,070814,18.5,W,A*07
2017-11-04T05:12:30.618630Z $INHDT,234.72,T*15
2017-11-04T05:12:30.873959Z $PSXN,20,1,0,0,0*3A
2017-11-04T05:12:31.125998Z $PSXN,22,-0.05,-0.68*32
2017-11-04T05:12:31.378723Z $PSXN,23,-1.09,2.80,234.72,-0.01*3B
2017-11-04T05:12:31.629593Z $INZDA,000006.17,07,08,2014,,*7E
2017-11-04T05:12:31.884189Z $INGGA,000006.16,6204.843654,S,05767.713922,W,1,12,0.7,-0.22,M,-3.04,M,,*49
2017-11-04T05:12:32.139299Z $INVTG,229.19,T,247.64,M,11.0,N,20.3,K,A*30
2017-11-04T05:12:32.394171Z $INRMC,000006.16,A,6204.843654,S,05767.713922,W,11.0,229.19,070814,18.5,W,A*06
2017-11-04T05:12:32.649491Z $INHDT,234.87,T*1F
2017-11-04T05:12:32.905250Z $PSXN,20,1,0,0,0*3A
2017-11-04T05:12:33.157275Z $PSXN,22,-0.05,-0.68*32
2017-11-04T05:12:33.410308Z $PSXN,23,-1.47,2.72,234.87,-0.88*37
2017-11-04T05:12:33.665606Z $INZDA,000007.17,07,08,2014,,*7F
2017-11-04T05:12:33.920912Z $INGGA,000007.16,6204.845607,S,05767.716908,W,1,12,0.7,-0.19,M,-3.04,M,,*4D
2017-11-04T05:12:34.176229Z $INVTG,229.94,T,248.39,M,10.8,N,20.0,K,A*38
2017-11-04T05:12:34.431640Z $INRMC,000007.16,A,6204.845607,S,05767.716908,W,10.8,229.94,070814,18.5,W,A*06
2017-11-04T05:12:34.685615Z $INHDT,235.25,T*16
2017-11-04T05:12:34.936022Z $PSXN,20,1,0,0,0*3A
2017-11-04T05:12:35.186212Z $PSXN,22,-0.05,-0.68*32
2017-11-04T05:12:35.441559Z $PSXN,23,-1.90,0.96,235.25,-0.92*37
2017-11-04T05:12:35.696904Z $INZDA,000008.17,07,08,2014,,*70
2017-11-04T05:12:35.952205Z $INGGA,000008.16,6204.847554,S,05767.719908,W,1,12,0.7,-1.09,M,-3.04,M,,*4A
2017-11-04T05:12:36.202808Z $INVTG,229.61,T,248.06,M,11.0,N,20.3,K,A*34
2017-11-04T05:12:36.457498Z $INRMC,000008.16,A,6204.847554,S,05767.719908,W,11.0,229.61,070814,18.5,W,A*02
2017-11-04T05:12:36.709179Z $INHDT,235.42,T*17
2017-11-04T05:12:36.962581Z $PSXN,20,1,0,0,0*3A
2017-11-04T05:12:37.217781Z $PSXN,22,-0.05,-0.68*32
2017-11-04T05:12:37.473082Z $PSXN,23,-2.22,-1.29,235.42,-0.06*19
2017-11-04T05:12:37.728403Z $INZDA,000009.17,07,08,2014,,*71
2017-11-04T05:12:37.983698Z $INGGA,000009.16,6204.849565,S,05767.722930,W,1,12,0.7,-2.09,M,-3.04,M,,*47
2017-11-04T05:12:38.239086Z $INVTG,228.84,T,247.29,M,11.2,N,20.8,K,A*35
2017-11-04T05:12:38.489241Z $INRMC,000009.16,A,6204.849565,S,05767.722930,W,11.2,228.84,070814,18.5,W,A*04
2017-11-04T05:12:38.744386Z $INHDT,235.29,T*1A
2017-11-04T05:12:38.999729Z $PSXN,20,1,0,0,0*3A
2017-11-04T05:12:39.255027Z $PSXN,22,-0.05,-0.68*32
2017-11-04T05:12:39.510353Z $PSXN,23,-2.16,-2.42,235.29,0.90*3F
2017-11-04T05:12:39.765699Z $INZDA,000010.17,07,08,2014,,*79
2017-11-04T05:12:40.021797Z $INGGA,000010.16,6204.851626,S,05767.725978,W,1,12,0.7,-2.35,M,-3.04,M,,*46
2017-11-04T05:12:40.276727Z $INVTG,228.71,T,247.16,M,11.3,N,20.9,K,A*33
2017-11-04T05:12:40.526812Z $INRMC,000010.16,A,6204.851626,S,05767.725978,W,11.3,228.71,070814,18.5,W,A*01
2017-11-04T05:12:40.781774Z $INHDT,235.17,T*17
2017-11-04T05:12:41.035640Z $PSXN,20,1,0,0,0*3A
2017-11-04T05:12:41.285825Z $PSXN,22,-0.05,-0.68*32
2017-11-04T05:12:41.538279Z $PSXN,23,-1.72,-1.34,235.17,1.12*3A
2017-11-04T05:12:41.791535Z $INZDA,000011.17,07,08,2014,,*78
2017-11-04T05:12:42.046962Z $INGGA,000011.16,6204.853688,S,05767.728990,W,1,12,0.7,-1.63,M,-3.04,M,,*4A
2017-11-04T05:12:42.297088Z $INVTG,228.62,T,247.07,M,11.1,N,20.5,K,A*3F
2017-11-04T05:12:42.551993Z $INRMC,000011.16,A,6204.853688,S,05767.728990,W,11.1,228.62,070814,18.5,W,A*0D
2017-11-04T05:12:42.807294Z $INHDT,235.37,T*15
2017-11-04T05:12:43.062630Z $PSXN,20,1,0,0,0*3A
2017-11-04T05:12:43.317956Z $PSXN,22,-0.05,-0.68*32
2017-11-04T05:12:43.573286Z $PSXN,23,-1.47,1.43,235.37,0.41*14
2017-11-04T05:12:43.828664Z $INZDA,000012.17,07,08,2014,,*7B
2017-11-04T05:12:44.084027Z $INGGA,000012.16,6204.855665,S,05767.731944,W,1,12,0.7,-0.46,M,-3.04,M,,*4B
2017-11-04T05:12:44.334382Z $INVTG,228.95,T,247.40,M,10.7,N,19.8,K,A*34
2017-11-04T05:12:44.589153Z $INRMC,000012.16,A,6204.855665,S,05767.731944,W,10.7,228.95,070814,18.5,W,A*05
2017-11-04T05:12:44.842621Z $INHDT,235.74,T*12
2017-11-04T05:12:45.093739Z $PSXN,20,1,0,0,0*3A
2017-11-04T05:12:45.349064Z $PSXN,22,-0.05,-0.68*32
2017-11-04T05:12:45.599230Z $PSXN,23,-1.52,3.65,235.74,-0.77*39
2017-11-04T05:12:45.854594Z $INZDA,000013.17,07,08,2014,,*7A
2017-11-04T05:12:46.109913Z $INGGA,000013.16,6204.857565,S,05767.734821,W,1,12,0.7,0.31,M,-3.04,M,,*61
2017-11-04T05:12:46.365217Z $INVTG,229.58,T,248.03,M,10.4,N,19.2,K,A*35
2017-11-04T05:12:46.619036Z $INRMC,000013.16,A,6204.857565,S,05767.734821,W,10.4,229.58,070814,18.5,W,A*01
2017-11-04T05:12:46.870359Z $INHDT,235.95,T*1D
2017-11-04T05:12:47.125664Z $PSXN,20,1,0,0,0*3A
2017-11-04T05:12:47.378860Z $PSXN,22,-0.05,-0.68*32
2017-11-04T05:12:47.630709Z $PSXN,23,-1.66,3.30,235.95,-1.52*37
2017-11-04T05:12:47.885715Z $INZDA,000014.17,07,08,2014,,*7D
2017-11-04T05:12:48.138709Z $INGGA,000014.16,6204.859397,S,05767.737685,W,1,12,0.7,-0.04,M,-3.04,M,,*4B
2017-11-04T05:12:48.391036Z $INVTG,230.62,T,249.08,M,10.4,N,19.2,K,A*3E
2017-11-04T05:12:48.646338Z $INRMC,000014.16,A,6204.859397,S,05767.737685,W,10.4,230.62,070814,18.5,W,A*01
2017-11-04T05:12:48.901661Z $INHDT,235.84,T*1D
2017-11-04T05:12:49.156754Z $PSXN,20,1,0,0,0*3A
2017-11-04T05:12:49.411985Z $PSXN,22,-0.05,-0.68*32
2017-11-04T05:12:49.665488Z $PSXN,23,-1.69,0.37,235.84,-1.17*3D
2017-11-04T05:12:49.917488Z $INZDA,000015.17,07,08,2014,,*7C
2017-11-04T05:12:50.172554Z $INGGA,000015.16,6204.861210,S,05767.740642,W,1,12,0.7,-1.46,M,-3.04,M,,*43
2017-11-04T05:12:50.427923Z $INVTG,231.44,T,249.89,M,10.7,N,19.8,K,A*3B
2017-11-04T05:12:50.683244Z $INRMC,000015.16,A,6204.861210,S,05767.740642,W,10.7,231.44,070814,18.5,W,A*08
2017-11-04T05:12:50.936082Z $INHDT,235.59,T*1D
2017-11-04T05:12:51.188678Z $PSXN,20,1,0,0,0*3A
2017-11-04T05:12:51.439198Z $PSXN,22,-0.05,-0.68*32
2017-11-04T05:12:51.693733Z $PSXN,23,-1.39,-3.08,235.59,0.19*38
2017-11-04T05:12:51.949030Z $INZDA,000016.17,07,08,2014,,*7F
2017-11-04T05:12:52.202413Z $INGGA,000016.16,6204.863097,S,05767.743709,W,1,12,0.7,-2.87,M,-3.04,M,,*4C
2017-11-04T05:12:52.453932Z $INVTG,231.08,T,249.53,M,11.1,N,20.6,K,A*37
2017-11-04T05:12:52.704707Z $INRMC,000016.16,A,6204.863097,S,05767.743709,W,11.1,231.08,070814,18.5,W,A*06
2017-11-04T05:12:52.969646Z $INHDT,235.56,T*12
2017-11-04T05:12:53.219854Z $PSXN,20,1,0,0,0*3A
2017-11-04T05:12:53.471593Z $PSXN,22,-0.05,-0.68*32
2017-11-04T05:12:53.725142Z $PSXN,23,-1.17,-3.94,235.56,1.54*36
2017-11-04T05:12:53.975256Z $INZDA,000017.17,07,08,2014,,*7E
2017-11-04T05:12:54.230449Z $INGGA,000017.16,6204.865089,S,05767.746831,W,1,12,0.7,-3.15,M,-3.04,M,,*4F
2017-11-04T05:12:54.485772Z $INVTG,230.27,T,248.72,M,11.4,N,21.1,K,A*3A
2017-11-04T05:12:54.740785Z $INRMC,000017.16,A,6204.865089,S,05767.746831,W,11.4,230.27,070814,18.5,W,A*06
2017-11-04T05:12:54.992237Z $INHDT,235.79,T*1F
2017-11-04T05:12:55.242895Z $PSXN,20,1,0,0,0*3A
2017-11-04T05:12:55.495972Z $PSXN,22,-0.05,-0.68*32
2017-11-04T05:12:55.750192Z $PSXN,23,-1.55,-1.30,235.79,1.79*3E
2017-11-04T05:12:56.000804Z $INZDA,000018.17,07,08,2014,,*71
2017-11-04T05:12:56.255706Z $INGGA,000018.16,6204.867107,S,05767.749926,W,1,12,0.7,-2.02,M,-3.04,M,,*4A
2017-11-04T05:12:56.509161Z $INVTG,229.71,T,248.17,M,11.1,N,20.6,K,A*31
2017-11-04T05:12:56.764238Z $INRMC,000018.16,A,6204.867107,S,05767.749926,W,11.1,229.71,070814,18.5,W,A*0A
2017-11-04T05:12:57.016196Z $INHDT,235.89,T*10
2017-11-04T05:12:57.271627Z $PSXN,20,1,0,0,0*3A
2017-11-04T05:12:57.521804Z $PSXN,22,-0.05,-0.68*32
2017-11-04T05:12:57.773608Z $PSXN,23,-2.04,2.78,235.89,0.69*14
2017-11-04T05:12:58.026241Z $INZDA,000019.17,07,08,2014,,*70
2017-11-04T05:12:58.281571Z $INGGA,000019.16,6204.869059,S,05767.752876,W,1,12,0.7,-0.34,M,-3.04,M,,*46
2017-11-04T05:12:58.532851Z $INVTG,229.57,T,248.02,M,10.5,N,19.4,K,A*3C
2017-11-04T05:12:58.786333Z $INRMC,000019.16,A,6204.869059,S,05767.752876,W,10.5,229.57,070814,18.5,W,A*00
2017-11-04T05:12:59.040040Z $INHDT,235.79,T*1F
2017-11-04T05:12:59.291649Z $PSXN,20,1,0,0,0*3A
2017-11-04T05:12:59.544441Z $PSXN,22,-0.05,-0.68*32
2017-11-04T05:12:59.796818Z $PSXN,23,-2.19,5.18,235.79,-0.93*3E
2017-11-04T05:13:00.047356Z $INZDA,000020.17,07,08,2014,,*7A
2017-11-04T05:13:00.301430Z $INGGA,000020.16,6204.870893,S,05767.755657,W,1,12,0.7,0.73,M,-3.04,M,,*6E
2017-11-04T05:13:00.556476Z $INVTG,229.80,T,248.26,M,9.9,N,18.3,K,A*02
2017-11-04T05:13:00.806797Z $INRMC,000020.16,A,6204.870893,S,05767.755657,W,9.9,229.80,070814,18.5,W,A*38
2017-11-04T05:13:01.060402Z $INHDT,235.75,T*13
2017-11-04T05:13:01.311408Z $PSXN,20,1,0,0,0*3A
2017-11-04T05:13:01.566716Z $PSXN,22,-0.05,-0.68*32
2017-11-04T05:13:01.821836Z $PSXN,23,-2.19,4.37,235.75,-1.94*38
2017-11-04T05:13:02.076966Z $INZDA,000021.17,07,08,2014,,*7B
2017-11-04T05:13:02.327158Z $INGGA,000021.16,6204.872628,S,05767.758353,W,1,12,0.7,0.52,M,-3.04,M,,*6C
2017-11-04T05:13:02.582428Z $INVTG,230.41,T,248.86,M,9.6,N,17.9,K,A*07
2017-11-04T05:13:02.833587Z $INRMC,000021.16,A,6204.872628,S,05767.758353,W,9.6,230.41,070814,18.5,W,A*33
2017-11-04T05:13:03.087410Z $INHDT,235.89,T*10
2017-11-04T05:13:03.342724Z $PSXN,20,1,0,0,0*3A
2017-11-04T05:13:03.596633Z $PSXN,22,-0.05,-0.68*32
2017-11-04T05:13:03.847352Z $PSXN,23,-2.34,0.91,235.89,-1.70*36
2017-11-04T05:13:04.102254Z $INZDA,000022.17,07,08,2014,,*78
2017-11-04T05:13:04.352759Z $INGGA,000022.16,6204.874333,S,05767.761049,W,1,12,0.7,-0.73,M,-3.04,M,,*4A
2017-11-04T05:13:04.603593Z $INVTG,230.28,T,248.73,M,9.8,N,18.2,K,A*08
2017-11-04T05:13:04.857762Z $INRMC,000022.16,A,6204.874333,S,05767.761049,W,9.8,230.28,070814,18.5,W,A*3A
2017-11-04T05:13:05.113040Z $INHDT,236.00,T*12
2017-11-04T05:13:05.367503Z $PSXN,20,1,0,0,0*3A
2017-11-04T05:13:05.618271Z $PSXN,22,-0.05,-0.68*32
2017-11-04T05:13:05.873413Z $PSXN,23,-2.50,-2.85,236.00,-0.48*16
2017-11-04T05:13:06.128528Z $INZDA,000023.17,07,08,2014,,*79
2017-11-04T05:13:06.379028Z $INGGA,000023.16,6204.876146,S,05767.763843,W,1,12,0.7,-2.15,M,-3.04,M,,*4B
2017-11-04T05:13:06.633850Z $INVTG,229.67,T,248.12,M,10.5,N,19.5,K,A*3F
2017-11-04T05:13:06.889244Z $INRMC,000023.16,A,6204.876146,S,05767.763843,W,10.5,229.67,070814,18.5,W,A*0F
2017-11-04T05:13:07.144552Z $INHDT,235.91,T*19
2017-11-04T05:13:07.399906Z $PSXN,20,1,0,0,0*3A
2017-11-04T05:13:07.655256Z $PSXN,22,-0.05,-0.68*32
2017-11-04T05:13:07.908357Z $PSXN,23,-2.37,-4.42,235.91,0.89*31
2017-11-04T05:13:08.160643Z $INZDA,000024.17,07,08,2014,,*7E
2017-11-04T05:13:08.415532Z $INGGA,000024.16,6204.878101,S,05767.766814,W,1,12,0.7,-2.98,M,-3.04,M,,*43
2017-11-04T05:13:08.670594Z $INVTG,229.76,T,248.22,M,11.2,N,20.8,K,A*3D
2017-11-04T05:13:08.920801Z $INRMC,000024.16,A,6204.878101,S,05767.766814,W,11.2,229.76,070814,18.5,W,A*04
2017-11-04T05:13:09.173018Z $INHDT,235.67,T*10
2017-11-04T05:13:09.425604Z $PSXN,20,1,0,0,0*3A
2017-11-04T05:13:09.680940Z $PSXN,22,-0.05,-0.68*32
2017-11-04T05:13:09.935741Z $PSXN,23,-2.09,-2.93,235.67,1.70*38
2017-11-04T05:13:10.185941Z $INZDA,000025.17,07,08,2014,,*7F
2017-11-04T05:13:10.441307Z $INGGA,000025.16,6204.880167,S,05767.769945,W,1,12,0.7,-2.88,M,-3.04,M,,*4E
2017-11-04T05:13:10.692281Z $INVTG,229.79,T,248.24,M,11.6,N,21.4,K,A*3D
2017-11-04T05:13:10.946454Z $INRMC,000025.16,A,6204.880167,S,05767.769945,W,11.6,229.79,070814,18.5,W,A*03
2017-11-04T05:13:11.200660Z $INHDT,235.47,T*12
2017-11-04T05:13:11.451340Z $PSXN,20,1,0,0,0*3A
2017-11-04T05:13:11.701874Z $PSXN,22,-0.05,-0.68*32
2017-11-04T05:13:11.952559Z $PSXN,23,-1.93,0.33,235.47,1.60*1E
2017-11-04T05:13:12.205834Z $INZDA,000026.17,07,08,2014,,*7C
2017-11-04T05:13:12.456176Z $INGGA,000026.16,6204.882236,S,05767.773073,W,1,12,0.7,-1.98,M,-3.04,M,,*4D
2017-11-04T05:13:12.710873Z $INVTG,229.46,T,247.91,M,11.2,N,20.8,K,A*39
2017-11-04T05:13:12.966199Z $INRMC,000026.16,A,6204.882236,S,05767.773073,W,11.2,229.46,070814,18.5,W,A*0A
2017-11-04T05:13:13.221045Z $INHDT,235.23,T*10
2017-11-04T05:13:13.471187Z $PSXN,20,1,0,0,0*3A
2017-11-04T05:13:13.724793Z $PSXN,22,-0.05,-0.68*32
2017-11-04T05:13:13.976181Z $PSXN,23,-1.79,3.15,235.23,0.73*1C
2017-11-04T05:13:14.226468Z $INZDA,000027.17,07,08,2014,,*7D
2017-11-04T05:13:14.481187Z $INGGA,000027.16,6204.884229,S,05767.776033,W,1,12,0.7,-0.83,M,-3.04,M,,*4E
2017-11-04T05:13:14.731308Z $INVTG,228.70,T,247.15,M,10.5,N,19.5,K,A*30
2017-11-04T05:13:14.985969Z $INRMC,000027.16,A,6204.884229,S,05767.776033,W,10.5,228.70,070814,18.5,W,A*00
2017-11-04T05:13:15.241310Z $INHDT,234.92,T*1B
2017-11-04T05:13:15.495636Z $PSXN,20,1,0,0,0*3A
2017-11-04T05:13:15.746209Z $PSXN,22,-0.05,-0.68*32
2017-11-04T05:13:15.996862Z $PSXN,23,-1.52,4.06,234.92,-0.37*36
2017-11-04T05:13:16.247703Z $INZDA,000028.17,07,08,2014,,*72
2017-11-04T05:13:16.501072Z $INGGA,000028.16,6204.886107,S,05767.778773,W,1,12,0.7,-0.08,M,-3.04,M,,*42
2017-11-04T05:13:16.756870Z $INVTG,228.28,T,246.74,M,9.9,N,18.3,K,A*08
2017-11-04T05:13:17.007637Z $INRMC,000028.16,A,6204.886107,S,05767.778773,W,9.9,228.28,070814,18.5,W,A*36
2017-11-04T05:13:17.261867Z $INHDT,234.69,T*1F
2017-11-04T05:13:17.517222Z $PSXN,20,1,0,0,0*3A
2017-11-04T05:13:17.771718Z $PSXN,22,-0.05,-0.68*32
2017-11-04T05:13:18.022392Z $PSXN,23,-1.16,3.09,234.69,-1.09*36
2017-11-04T05:13:18.277765Z $INZDA,000029.17,07,08,2014,,*73
2017-11-04T05:13:18.528028Z $INGGA,000029.16,6204.887884,S,05767.781376,W,1,12,0.7,0.06,M,-3.04,M,,*64
2017-11-04T05:13:18.782624Z $INVTG,229.13,T,247.58,M,9.5,N,17.5,K,A*0B
2017-11-04T05:13:19.037383Z $INRMC,000029.16,A,6204.887884,S,05767.781376,W,9.5,229.13,070814,18.5,W,A*36
2017-11-04T05:13:19.289876Z $INHDT,234.76,T*11
2017-11-04T05:13:19.542249Z $PSXN,20,1,0,0,0*3A
2017-11-04T05:13:19.792728Z $PSXN,22,-0.05,-0.68*32
2017-11-04T05:13:20.047848Z $PSXN,23,-0.89,1.11,234.76,-1.21*3E
2017-11-04T05:13:20.302692Z $INZDA,000030.17,07,08,2014,,*7B
2017-11-04T05:13:20.557996Z $INGGA,000030.16,6204.889576,S,05767.783984,W,1,12,0.7,-0.32,M,-3.04,M,,*4D
2017-11-04T05:13:20.813347Z $INVTG,231.17,T,249.62,M,9.6,N,17.8,K,A*0F
2017-11-04T05:13:21.068659Z $INRMC,000030.16,A,6204.889576,S,05767.783984,W,9.6,231.17,070814,18.5,W,A*3B
2017-11-04T05:13:21.318827Z $INHDT,235.04,T*15
2017-11-04T05:13:21.573262Z $PSXN,20,1,0,0,0*3A
2017-11-04T05:13:21.823592Z $PSXN,22,-0.05,-0.68*32
2017-11-04T05:13:22.079025Z $PSXN,23,-0.79,-1.15,235.04,-0.84*12
2017-11-04T05:13:22.329214Z $INZDA,000031.17,07,08,2014,,*7A
2017-11-04T05:13:22.584109Z $INGGA,000031.16,6204.891252,S,05767.786800,W,1,12,0.7,-1.07,M,-3.04,M,,*4B
2017-11-04T05:13:22.839116Z $INVTG,232.73,T,251.19,M,10.3,N,19.0,K,A*30
2017-11-04T05:13:23.094467Z $INRMC,000031.16,A,6204.891252,S,05767.786800,W,10.3,232.73,070814,18.5,W,A*06
2017-11-04T05:13:23.349755Z $INHDT,235.21,T*12
2017-11-04T05:13:23.605081Z $PSXN,20,1,0,0,0*3A
2017-11-04T05:13:23.860854Z $PSXN,22,-0.05,-0.68*32
2017-11-04T05:13:24.111184Z $PSXN,23,-0.79,-3.19,235.21,-0.10*16
2017-11-04T05:13:24.366369Z $INZDA,000032.17,07,08,2014,,*79
2017-11-04T05:13:24.621221Z $INGGA,000032.16,6204.893070,S,05767.789840,W,1,12,0.7,-2.00,M,-3.04,M,,*47
2017-11-04T05:13:24.876585Z $INVTG,231.74,T,250.19,M,11.2,N,20.7,K,A*38
2017-11-04T05:13:25.126735Z $INRMC,000032.16,A,6204.893070,S,05767.789840,W,11.2,231.74,070814,18.4,W,A*0B
2017-11-04T05:13:25.377398Z $INHDT,235.08,T*19
2017-11-04T05:13:25.632082Z $PSXN,20,1,0,0,0*3A
2017-11-04T05:13:25.886493Z $PSXN,22,-0.05,-0.68*32
2017-11-04T05:13:26.136946Z $PSXN,23,-0.94,-4.03,235.08,0.80*36
2017-11-04T05:13:26.392040Z $INZDA,000033.17,07,08,2014,,*78
2017-11-04T05:13:26.647341Z $INGGA,000033.16,6204.895108,S,05767.793046,W,1,12,0.7,-2.77,M,-3.04,M,,*4B
2017-11-04T05:13:26.902840Z $INVTG,229.56,T,248.00,M,11.9,N,22.0,K,A*3E
2017-11-04T05:13:27.157770Z $INRMC,000033.16,A,6204.895108,S,05767.793046,W,11.9,229.56,070814,18.4,W,A*05
2017-11-04T05:13:27.409073Z $INHDT,234.81,T*19
2017-11-04T05:13:27.662923Z $PSXN,20,1,0,0,0*3A
2017-11-04T05:13:27.918012Z $PSXN,22,-0.05,-0.68*32
2017-11-04T05:13:28.168715Z $PSXN,23,-1.14,-2.71,234.81,1.54*34
2017-11-04T05:13:28.423395Z $INZDA,000034.17,07,08,2014,,*7F
2017-11-04T05:13:28.678529Z $INGGA,000034.16,6204.897337,S,05767.796256,W,1,12,0.7,-2.91,M,-3.04,M,,*4E
2017-11-04T05:13:28.929121Z $INVTG,226.90,T,245.35,M,12.0,N,22.2,K,A*38
2017-11-04T05:13:29.183804Z $INRMC,000034.16,A,6204.897337,S,05767.796256,W,12.0,226.90,070814,18.4,W,A*07
2017-11-04T05:13:29.433923Z $INHDT,234.58,T*1D
2017-11-04T05:13:29.685315Z $PSXN,20,1,0,0,0*3A
2017-11-04T05:13:29.936297Z $PSXN,22,-0.05,-0.68*32
2017-11-04T05:13:30.187973Z $PSXN,23,-1.29,0.52,234.58,1.65*12
2017-11-04T05:13:30.438406Z $INZDA,000035.17,07,08,2014,,*7E
2017-11-04T05:13:30.693145Z $INGGA,000035.16,6204.899611,S,05767.799292,W,1,12,0.7,-2.13,M,-3.04,M,,*4D
2017-11-04T05:13:30.948311Z $INVTG,225.84,T,244.29,M,11.4,N,21.1,K,A*35
2017-11-04T05:13:31.203105Z $INRMC,000035.16,A,6204.899611,S,05767.799292,W,11.4,225.84,070814,18.4,W,A*0F
2017-11-04T05:13:31.455349Z $INHDT,234.48,T*1C
2017-11-04T05:13:31.708803Z $PSXN,20,1,0,0,0*3A
2017-11-04T05:13:31.963280Z $PSXN,22,-0.05,-0.68*32
2017-11-04T05:13:32.213791Z $PSXN,23,-1.61,3.99,234.48,0.88*19
2017-11-04T05:13:32.469119Z $INZDA,000036.17,07,08,2014,,*7D
2017-11-04T05:13:32.724417Z $INGGA,000036.16,6204.901700,S,05767.802111,W,1,12,0.7,-0.75,M,-3.04,M,,*48
2017-11-04T05:13:32.979737Z $INVTG,227.03,T,245.48,M,10.3,N,19.1,K,A*33
2017-11-04T05:13:33.234602Z $INRMC,000036.16,A,6204.901700,S,05767.802111,W,10.3,227.03,070814,18.4,W,A*03
2017-11-04T05:13:33.490006Z $INHDT,234.53,T*16
2017-11-04T05:13:33.745340Z $PSXN,20,1,0,0,0*3A
2017-11-04T05:13:34.000653Z $PSXN,22,-0.05,-0.68*32
2017-11-04T05:13:34.255965Z $PSXN,23,-2.15,5.48,234.53,-0.47*37
2017-11-04T05:13:34.511325Z $INZDA,000037.17,07,08,2014,,*7C
2017-11-04T05:13:34.766645Z $INGGA,000037.16,6204.903553,S,05767.804761,W,1,12,0.7,0.38,M,-3.04,M,,*6C
2017-11-04T05:13:35.017052Z $INVTG,228.61,T,247.06,M,9.6,N,17.8,K,A*0A
2017-11-04T05:13:35.272098Z $INRMC,000037.16,A,6204.903553,S,05767.804761,W,9.6,228.61,070814,18.4,W,A*35
2017-11-04T05:13:35.527492Z $INHDT,234.58,T*1D
2017-11-04T05:13:35.782826Z $PSXN,20,1,0,0,0*3A
2017-11-04T05:13:36.038166Z $PSXN,22,-0.05,-0.68*32
2017-11-04T05:13:36.293503Z $PSXN,23,-2.48,3.90,234.58,-1.55*35
2017-11-04T05:13:36.544268Z $INZDA,000038.17,07,08,2014,,*73
2017-11-04T05:13:36.798671Z $INGGA,000038.16,6204.905284,S,05767.807363,W,1,12,0.7,0.46,M,-3.04,M,,*64
2017-11-04T05:13:37.052526Z $INVTG,229.82,T,248.27,M,9.5,N,17.6,K,A*07
2017-11-04T05:13:37.303151Z $INRMC,000038.16,A,6204.905284,S,05767.807363,W,9.5,229.82,070814,18.4,W,A*3B
2017-11-04T05:13:37.558044Z $INHDT,234.59,T*1C
2017-11-04T05:13:37.811948Z $PSXN,20,1,0,0,0*3A
2017-11-04T05:13:38.064037Z $PSXN,22,-0.05,-0.68*32
2017-11-04T05:13:38.318302Z $PSXN,23,-2.35,0.03,234.59,-1.63*32
2017-11-04T05:13:38.568488Z $INZDA,000039.17,07,08,2014,,*72
2017-11-04T05:13:38.818627Z $INGGA,000039.16,6204.906962,S,05767.810044,W,1,12,0.7,-0.41,M,-3.04,M,,*4F
2017-11-04T05:13:39.073896Z $INVTG,231.72,T,250.17,M,9.8,N,18.2,K,A*0D
2017-11-04T05:13:39.329308Z $INRMC,000039.16,A,6204.906962,S,05767.810044,W,9.8,231.72,070814,18.4,W,A*31
2017-11-04T05:13:39.584673Z $INHDT,234.65,T*13
2017-11-04T05:13:39.839996Z $PSXN,20,1,0,0,0*3A
2017-11-04T05:13:40.091368Z $PSXN,22,-0.05,-0.68*32
2017-11-04T05:13:40.345102Z $PSXN,23,-2.23,-3.60,234.65,-0.79*1B
2017-11-04T05:13:40.600428Z $INZDA,000040.17,07,08,2014,,*7C
2017-11-04T05:13:40.856218Z $INGGA,000040.16,6204.908677,S,05767.812917,W,1,12,0.7,-1.58,M,-3.04,M,,*40
2017-11-04T05:13:41.107029Z $INVTG,232.32,T,250.77,M,10.5,N,19.5,K,A*3F
2017-11-04T05:13:41.360907Z $INRMC,000040.16,A,6204.908677,S,05767.812917,W,10.5,232.32,070814,18.4,W,A*05
2017-11-04T05:13:41.616254Z $INHDT,234.60,T*16
2017-11-04T05:13:41.866916Z $PSXN,20,1,0,0,0*3A
2017-11-04T05:13:42.120732Z $PSXN,22,-0.05,-0.68*32
2017-11-04T05:13:42.371098Z $PSXN,23,-2.35,-4.59,234.60,0.33*37
2017-11-04T05:13:42.626402Z $INZDA,000041.17,07,08,2014,,*7D
2017-11-04T05:13:42.881396Z $INGGA,000041.16,6204.910552,S,05767.815960,W,1,12,0.7,-2.38,M,-3.04,M,,*4E
2017-11-04T05:13:43.133092Z $INVTG,230.48,T,248.93,M,11.2,N,20.8,K,A*32
2017-11-04T05:13:43.383708Z $INRMC,000041.16,A,6204.910552,S,05767.815960,W,11.2,230.48,070814,18.4,W,A*07
2017-11-04T05:13:43.636599Z $INHDT,234.27,T*15
2017-11-04T05:13:43.891917Z $PSXN,20,1,0,0,0*3A
2017-11-04T05:13:44.144656Z $PSXN,22,-0.05,-0.68*32
2017-11-04T05:13:44.396914Z $PSXN,23,-2.52,-2.61,234.27,1.10*38
2017-11-04T05:13:44.652248Z $INZDA,000042.17,07,08,2014,,*7E
2017-11-04T05:13:44.907624Z $INGGA,000042.16,6204.912661,S,05767.819063,W,1,12,0.7,-2.52,M,-3.04,M,,*46
2017-11-04T05:13:45.162751Z $INVTG,227.39,T,245.84,M,11.7,N,21.6,K,A*33
2017-11-04T05:13:45.418048Z $INRMC,000042.16,A,6204.912661,S,05767.819063,W,11.7,227.39,070814,18.4,W,A*06
2017-11-04T05:13:45.668176Z $INHDT,233.85,T*1A
2017-11-04T05:13:45.919096Z $PSXN,20,1,0,0,0*3A
2017-11-04T05:13:46.172566Z $PSXN,22,-0.05,-0.68*32
2017-11-04T05:13:46.424228Z $PSXN,23,-2.65,0.46,233.85,1.25*1F
2017-11-04T05:13:46.674417Z $INZDA,000043.17,07,08,2014,,*7F
2017-11-04T05:13:46.927192Z $INGGA,000043.16,6204.914897,S,05767.822072,W,1,12,0.7,-2.11,M,-3.04,M,,*49
2017-11-04T05:13:47.182508Z $INVTG,225.13,T,243.58,M,11.5,N,21.3,K,A*39
2017-11-04T05:13:47.436103Z $INRMC,000043.16,A,6204.914897,S,05767.822072,W,11.5,225.13,070814,18.4,W,A*06
2017-11-04T05:13:47.686865Z $INHDT,233.55,T*17
2017-11-04T05:13:47.937151Z $PSXN,20,1,0,0,0*3A
2017-11-04T05:13:48.191047Z $PSXN,22,-0.05,-0.68*32
2017-11-04T05:13:48.442107Z $PSXN,23,-2.60,2.68,233.55,0.86*11
2017-11-04T05:13:48.697414Z $INZDA,000044.17,07,08,2014,,*78
2017-11-04T05:13:48.948530Z $INGGA,000044.16,6204.917122,S,05767.824921,W,1,12,0.7,-1.41,M,-3.04,M,,*45
2017-11-04T05:13:49.202407Z $INVTG,224.72,T,243.17,M,11.0,N,20.3,K,A*30
2017-11-04T05:13:49.455307Z $INRMC,000044.16,A,6204.917122,S,05767.824921,W,11.0,224.72,070814,18.4,W,A*0F
2017-11-04T05:13:49.707385Z $INHDT,233.57,T*15
2017-11-04T05:13:49.961504Z $PSXN,20,1,0,0,0*3A
2017-11-04T05:13:50.212426Z $PSXN,22,-0.05,-0.68*32
2017-11-04T05:13:50.467413Z $PSXN,23,-2.39,3.20,233.57,0.20*1E
2017-11-04T05:13:50.722724Z $INZDA,000045.17,07,08,2014,,*79
2017-11-04T05:13:50.978010Z $INGGA,000045.16,6204.919203,S,05767.827650,W,1,12,0.7,-0.77,M,-3.04,M,,*44
2017-11-04T05:13:51.228183Z $INVTG,226.48,T,244.93,M,10.4,N,19.2,K,A*3E
2017-11-04T05:13:51.483492Z $INRMC,000045.16,A,6204.919203,S,05767.827650,W,10.4,226.48,070814,18.4,W,A*04
2017-11-04T05:13:51.733624Z $INHDT,233.85,T*1A
2017-11-04T05:13:51.988541Z $PSXN,20,1,0,0,0*3A
2017-11-04T05:13:52.243785Z $PSXN,22,-0.05,-0.68*32
2017-11-04T05:13:52.495427Z $PSXN,23,-2.04,2.22,233.85,-0.43*34
2017-11-04T05:13:52.748858Z $INZDA,000046.17,07,08,2014,,*7A
2017-11-04T05:13:53.003101Z $INGGA,000046.16,6204.921084,S,05767.830354,W,1,12,0.7,-0.43,M,-3.04,M,,*41
2017-11-04T05:13:53.253461Z $INVTG,229.46,T,247.91,M,9.9,N,18.4,K,A*0C
2017-11-04T05:13:53.508102Z $INRMC,000046.16,A,6204.921084,S,05767.830354,W,9.9,229.46,070814,18.4,W,A*32
2017-11-04T05:13:53.758748Z $INHDT,234.10,T*11
2017-11-04T05:13:54.014055Z $PSXN,20,1,0,0,0*3A
2017-11-04T05:13:54.269445Z $PSXN,22,-0.05,-0.68*32
2017-11-04T05:13:54.524763Z $PSXN,23,-1.53,0.69,234.10,-0.77*34
2017-11-04T05:13:54.780057Z $INZDA,000047.17,07,08,2014,,*7B
2017-11-04T05:13:55.035425Z $INGGA,000047.16,6204.922837,S,05767.833080,W,1,12,0.7,-0.49,M,-3.04,M,,*40
2017-11-04T05:13:55.290708Z $INVTG,230.56,T,249.01,M,9.9,N,18.3,K,A*05
2017-11-04T05:13:55.540760Z $INRMC,000047.16,A,6204.922837,S,05767.833080,W,9.9,230.56,070814,18.4,W,A*30
2017-11-04T05:13:55.795311Z $INHDT,234.18,T*19
2017-11-04T05:13:56.045753Z $PSXN,20,1,0,0,0*3A
2017-11-04T05:13:56.300206Z $PSXN,22,-0.05,-0.68*32
2017-11-04T05:13:56.550686Z $PSXN,23,-1.08,-0.55,234.18,-0.73*14
2017-11-04T05:13:56.801974Z $INZDA,000048.17,07,08,2014,,*74
2017-11-04T05:13:57.055756Z $INGGA,000048.16,6204.924625,S,05767.835850,W,1,12,0.7,-0.97,M,-3.04,M,,*44
2017-11-04T05:13:57.311201Z $INVTG,229.35,T,247.80,M,10.3,N,19.1,K,A*3E
2017-11-04T05:13:57.566311Z $INRMC,000048.16,A,6204.924625,S,05767.835850,W,10.3,229.35,070814,18.4,W,A*08
2017-11-04T05:13:57.821586Z $INHDT,234.08,T*18
2017-11-04T05:13:58.076793Z $PSXN,20,1,0,0,0*3A
2017-11-04T05:13:58.330117Z $PSXN,22,-0.05,-0.68*32
2017-11-04T05:13:58.581451Z $PSXN,23,-0.83,-1.39,234.08,-0.27*1D
2017-11-04T05:13:58.836199Z $INZDA,000049.17,07,08,2014,,*75
2017-11-04T05:13:59.086478Z $INGGA,000049.16,6204.926582,S,05767.838696,W,1,12,0.7,-1.73,M,-3.04,M,,*4B
2017-11-04T05:13:59.341750Z $INVTG,228.10,T,246.55,M,10.9,N,20.2,K,A*32
2017-11-04T05:13:59.592097Z $INRMC,000049.16,A,6204.926582,S,05767.838696,W,10.9,228.10,070814,18.4,W,A*00
2017-11-04T05:13:59.847385Z $INHDT,234.01,T*11
2017-11-04T05:14:00.102776Z $PSXN,20,1,0,0,0*3A
2017-11-04T05:14:00.358118Z $PSXN,22,-0.05,-0.68*32
2017-11-04T05:14:00.613406Z $PSXN,23,-0.85,-2.06,234.01,0.47*36
2017-11-04T05:14:00.868679Z $INZDA,000050.17,07,08,2014,,*7D
2017-11-04T05:14:01.121767Z $INGGA,000050.16,6204.928651,S,05767.841682,W,1,12,0.7,-2.31,M,-3.04,M,,*4E
2017-11-04T05:14:01.374097Z $INVTG,228.10,T,246.55,M,11.3,N,21.0,K,A*3A
2017-11-04T05:14:01.629449Z $INRMC,000050.16,A,6204.928651,S,05767.841682,W,11.3,228.10,070814,18.4,W,A*0B
2017-11-04T05:14:01.884777Z $INHDT,234.19,T*18
2017-11-04T05:14:02.140059Z $PSXN,20,1,0,0,0*3A
2017-11-04T05:14:02.395352Z $PSXN,22,-0.05,-0.68*32
2017-11-04T05:14:02.650634Z $PSXN,23,-1.27,-1.88,234.19,1.02*33
2017-11-04T05:14:02.905858Z $INZDA,000051.17,07,08,2014,,*7C
2017-11-04T05:14:03.155952Z $INGGA,000051.16,6204.930762,S,05767.844714,W,1,12,0.7,-2.22,M,-3.04,M,,*4E
2017-11-04T05:14:03.411187Z $INVTG,227.99,T,246.44,M,11.3,N,21.0,K,A*34
2017-11-04T05:14:03.666490Z $INRMC,000051.16,A,6204.930762,S,05767.844714,W,11.3,227.99,070814,18.4,W,A*07
2017-11-04T05:14:03.919620Z $INHDT,234.41,T*15
2017-11-04T05:14:04.171511Z $PSXN,20,1,0,0,0*3A
2017-11-04T05:14:04.426793Z $PSXN,22,-0.05,-0.68*32
2017-11-04T05:14:04.678725Z $PSXN,23,-1.89,-0.20,234.41,0.93*30
2017-11-04T05:14:04.932040Z $INZDA,000052.17,07,08,2014,,*7F
2017-11-04T05:14:05.186020Z $INGGA,000052.16,6204.932866,S,05767.847688,W,1,12,0.7,-1.50,M,-3.04,M,,*45
2017-11-04T05:14:05.436247Z $INVTG,227.36,T,245.81,M,11.1,N,20.6,K,A*3E
2017-11-04T05:14:05.686443Z $INRMC,000052.16,A,6204.932866,S,05767.847688,W,11.1,227.36,070814,18.4,W,A*0D
2017-11-04T05:14:05.941718Z $INHDT,234.34,T*17
2017-11-04T05:14:06.196932Z $PSXN,20,1,0,0,0*3A
2017-11-04T05:14:06.452154Z $PSXN,22,-0.05,-0.68*32
2017-11-04T05:14:06.702358Z $PSXN,23,-2.18,2.12,234.34,0.22*1D
2017-11-04T05:14:06.957656Z $INZDA,000053.17,07,08,2014,,*7E
2017-11-04T05:14:07.213004Z $INGGA,000053.16,6204.934927,S,05767.850574,W,1,12,0.7,-0.66,M,-3.04,M,,*44
2017-11-04T05:14:07.468331Z $INVTG,227.28,T,245.73,M,10.8,N,20.0,K,A*32
2017-11-04T05:14:07.720909Z $INRMC,000053.16,A,6204.934927,S,05767.850574,W,10.8,227.28,070814,18.4,W,A*0F
2017-11-04T05:14:07.973407Z $INHDT,234.07,T*17
2017-11-04T05:14:08.228781Z $PSXN,20,1,0,0,0*3A
2017-11-04T05:14:08.483697Z $PSXN,22,-0.05,-0.68*32
2017-11-04T05:14:08.733868Z $PSXN,23,-2.13,3.18,234.07,-0.60*36
2017-11-04T05:14:08.989097Z $INZDA,000054.17,07,08,2014,,*79
2017-11-04T05:14:09.244353Z $INGGA,000054.16,6204.936937,S,05767.853396,W,1,12,0.7,-0.34,M,-3.04,M,,*4E
2017-11-04T05:14:09.499747Z $INVTG,227.64,T,246.09,M,10.6,N,19.6,K,A*36
2017-11-04T05:14:09.753702Z $INRMC,000054.16,A,6204.936937,S,05767.853396,W,10.6,227.64,070814,18.4,W,A*04
2017-11-04T05:14:10.004836Z $INHDT,233.92,T*1C
2017-11-04T05:14:10.260112Z $PSXN,20,1,0,0,0*3A
2017-11-04T05:14:10.515352Z $PSXN,22,-0.05,-0.68*32
2017-11-04T05:14:10.769528Z $PSXN,23,-2.07,1.93,233.92,-0.90*36
2017-11-04T05:14:11.020544Z $INZDA,000055.17,07,08,2014,,*78
2017-11-04T05:14:11.275850Z $INGGA,000055.16,6204.938901,S,05767.856213,W,1,12,0.7,-0.74,M,-3.04,M,,*49
2017-11-04T05:14:11.531242Z $INVTG,228.41,T,246.86,M,10.5,N,19.4,K,A*38
2017-11-04T05:14:11.786260Z $INRMC,000055.16,A,6204.938901,S,05767.856213,W,10.5,228.41,070814,18.4,W,A*0C
2017-11-04T05:14:12.036491Z $INHDT,234.09,T*19
2017-11-04T05:14:12.291768Z $PSXN,20,1,0,0,0*3A
2017-11-04T05:14:12.547018Z $PSXN,22,-0.05,-0.68*32
2017-11-04T05:14:12.800580Z $PSXN,23,-2.24,-0.60,234.09,-0.50*1E
2017-11-04T05:14:13.051114Z $INZDA,000056.17,07,08,2014,,*7B
2017-11-04T05:14:13.301766Z $INGGA,000056.16,6204.940795,S,05767.859056,W,1,12,0.7,-1.33,M,-3.04,M,,*48
2017-11-04T05:14:13.557053Z $INVTG,229.60,T,248.05,M,10.5,N,19.4,K,A*3F
2017-11-04T05:14:13.812318Z $INRMC,000056.16,A,6204.940795,S,05767.859056,W,10.5,229.60,070814,18.4,W,A*0D
2017-11-04T05:14:14.067556Z $INHDT,234.43,T*17
2017-11-04T05:14:14.322896Z $PSXN,20,1,0,0,0*3A
2017-11-04T05:14:14.572949Z $PSXN,22,-0.05,-0.68*32
2017-11-04T05:14:14.827433Z $PSXN,23,-2.56,-1.88,234.43,0.05*3F
2017-11-04T05:14:15.077784Z $INZDA,000057.17,07,08,2014,,*7A
2017-11-04T05:14:15.329799Z $INGGA,000057.16,6204.942673,S,05767.861950,W,1,12,0.7,-1.58,M,-3.04,M,,*4B
2017-11-04T05:14:15.582867Z $INVTG,230.33,T,248.78,M,10.6,N,19.7,K,A*3B
2017-11-04T05:14:15.836500Z $INRMC,000057.16,A,6204.942673,S,05767.861950,W,10.6,230.33,070814,18.4,W,A*0E
2017-11-04T05:14:16.087766Z $INHDT,234.69,T*1F
2017-11-04T05:14:16.340782Z $PSXN,20,1,0,0,0*3A
2017-11-04T05:14:16.590896Z $PSXN,22,-0.05,-0.68*32
2017-11-04T05:14:16.842103Z $PSXN,23,-2.78,-1.12,234.69,0.27*38
2017-11-04T05:14:17.092296Z $INZDA,000058.17,07,08,2014,,*75
2017-11-04T05:14:17.347357Z $INGGA,000058.16,6204.944580,S,05767.864882,W,1,12,0.7,-1.40,M,-3.04,M,,*4F
2017-11-04T05:14:17.600287Z $INVTG,229.23,T,247.68,M,10.8,N,20.0,K,A*3F
2017-11-04T05:14:17.852301Z $INRMC,000058.16,A,6204.944580,S,05767.864882,W,10.8,229.23,070814,18.4,W,A*04
2017-11-04T05:14:18.107584Z $INHDT,234.71,T*16
2017-11-04T05:14:18.362845Z $PSXN,20,1,0,0,0*3A
2017-11-04T05:14:18.614586Z $PSXN,22,-0.05,-0.68*32
2017-11-04T05:14:18.868059Z $PSXN,23,-2.70,0.54,234.71,0.09*1B
2017-11-04T05:14:19.123330Z $INZDA,000059.17,07,08,2014,,*74
2017-11-04T05:14:19.378608Z $INGGA,000059.16,6204.946590,S,05767.867802,W,1,12,0.7,-1.22,M,-3.04,M,,*42
2017-11-04T05:14:19.633891Z $INVTG,227.79,T,246.24,M,11.0,N,20.3,K,A*3D
2017-11-04T05:14:19.884004Z $INRMC,000059.16,A,6204.946590,S,05767.867802,W,11.0,227.79,070814,18.4,W,A*05
2017-11-04T05:14:20.134208Z $INHDT,234.64,T*12
2017-11-04T05:14:20.388725Z $PSXN,20,1,0,0,0*3A
2017-11-04T05:14:20.643972Z $PSXN,22,-0.05,-0.68*32
2017-11-04T05:14:20.899321Z $PSXN,23,-2.57,1.24,234.64,-0.05*3D
2017-11-04T05:14:21.153373Z $INZDA,000100.17,07,08,2014,,*79
2017-11-04T05:14:21.403872Z $INGGA,000100.16,6204.948688,S,05767.870727,W,1,12,0.7,-1.45,M,-3.04,M,,*44
2017-11-04T05:14:21.654141Z $INVTG,226.64,T,245.09,M,11.2,N,20.7,K,A*3A
2017-11-04T05:14:21.904741Z $INRMC,000100.16,A,6204.948688,S,05767.870727,W,11.2,226.64,070814,18.4,W,A*0D
2017-11-04T05:14:22.159066Z $INHDT,234.55,T*10
2017-11-04T05:14:22.414352Z $PSXN,20,1,0,0,0*3A
2017-11-04T05:14:22.669647Z $PSXN,22,-0.05,-0.68*32
2017-11-04T05:14:22.921541Z $PSXN,23,-2.46,0.25,234.55,0.21*14
2017-11-04T05:14:23.173336Z $INZDA,000101.17,07,08,2014,,*78
2017-11-04T05:14:23.424453Z $INGGA,000101.16,6204.950812,S,05767.873624,W,1,12,0.7,-1.85,M,-3.04,M,,*4C
2017-11-04T05:14:23.676574Z $INVTG,226.16,T,244.61,M,11.0,N,20.4,K,A*31
2017-11-04T05:14:23.928076Z $INRMC,000101.16,A,6204.950812,S,05767.873624,W,11.0,226.16,070814,18.4,W,A*0E
2017-11-04T05:14:24.182738Z $INHDT,234.41,T*15
2017-11-04T05:14:24.434338Z $PSXN,20,1,0,0,0*3A
2017-11-04T05:14:24.689632Z $PSXN,22,-0.05,-0.68*32
2017-11-04T05:14:24.945006Z $PSXN,23,-2.17,-0.81,234.41,0.59*39
2017-11-04T05:14:25.200307Z $INZDA,000102.17,07,08,2014,,*7B
2017-11-04T05:14:25.451372Z $INGGA,000102.16,6204.952903,S,05767.876456,W,1,12,0.7,-1.80,M,-3.04,M,,*4B
2017-11-04T05:14:25.705346Z $INVTG,227.11,T,245.56,M,10.8,N,19.9,K,A*3C
2017-11-04T05:14:25.960697Z $INRMC,000102.16,A,6204.952903,S,05767.876456,W,10.8,227.11,070814,18.4,W,A*03
2017-11-04T05:14:26.215620Z $INHDT,234.54,T*11
2017-11-04T05:14:26.465918Z $PSXN,20,1,0,0,0*3A
2017-11-04T05:14:26.721501Z $PSXN,22,-0.05,-0.68*32
2017-11-04T05:14:26.976712Z $PSXN,23,-1.55,-0.14,234.54,0.53*3E
2017-11-04T05:14:27.231170Z $INZDA,000103.17,07,08,2014,,*7A
2017-11-04T05:14:27.486356Z $INGGA,000103.16,6204.954828,S,05767.879321,W,1,12,0.7,-1.15,M,-3.04,M,,*40
2017-11-04T05:14:27.736601Z $INVTG,231.22,T,249.67,M,10.4,N,19.3,K,A*33
2017-11-04T05:14:27.986768Z $INRMC,000103.16,A,6204.954828,S,05767.879321,W,10.4,231.22,070814,18.4,W,A*0F
2017-11-04T05:14:28.241911Z $INHDT,235.00,T*11
2017-11-04T05:14:28.497314Z $PSXN,20,1,0,0,0*3A
2017-11-04T05:14:28.752846Z $PSXN,22,0.40,-0.68*1E
2017-11-04T05:14:29.007978Z $PSXN,23,-0.91,1.61,235.00,-0.13*30
2017-11-04T05:14:29.262684Z $INZDA,000104.17,07,08,2014,,*7D
2017-11-04T05:14:29.514325Z $INGGA,000104.16,6204.956573,S,05767.882288,W,1,12,0.7,-0.37,M,-3.04,M,,*41
2017-11-04T05:14:29.768446Z $INVTG,233.87,T,252.32,M,10.3,N,19.1,K,A*31
2017-11-04T05:14:30.022845Z $INRMC,000104.16,A,6204.956573,S,05767.882288,W,10.3,233.87,070814,18.4,W,A*05
2017-11-04T05:14:30.273386Z $INHDT,235.49,T*1C
2017-11-04T05:14:30.528796Z $PSXN,20,1,0,0,0*3A
2017-11-04T05:14:30.779346Z $PSXN,22,0.45,-0.68*1B
2017-11-04T05:14:31.033508Z $PSXN,23,-0.61,2.35,235.49,-0.87*3D
2017-11-04T05:14:31.288825Z $INZDA,000105.17,07,08,2014,,*7C
2017-11-04T05:14:31.544153Z $INGGA,000105.16,6204.958288,S,05767.885274,W,1,12,0.7,-0.25,M,-3.04,M,,*4A
2017-11-04T05:14:31.798602Z $INVTG,232.03,T,250.48,M,10.4,N,19.2,K,A*37
2017-11-04T05:14:32.053082Z $INRMC,000105.16,A,6204.958288,S,05767.885274,W,10.4,232.03,070814,18.4,W,A*07
2017-11-04T05:14:32.304819Z $INHDT,235.49,T*1C
2017-11-04T05:14:32.560318Z $PSXN,20,1,0,0,0*3A
2017-11-04T05:14:32.815591Z $PSXN,22,0.45,-0.68*1B
2017-11-04T05:14:33.069858Z $PSXN,23,-0.59,0.98,235.49,-0.99*3C
2017-11-04T05:14:33.320045Z $INZDA,000106.17,07,08,2014,,*7F
2017-11-04T05:14:33.575380Z $INGGA,000106.16,6204.960161,S,05767.888168,W,1,12,0.7,-0.96,M,-3.04,M,,*4D
2017-11-04T05:14:33.825617Z $INVTG,228.51,T,246.96,M,10.6,N,19.6,K,A*39
2017-11-04T05:14:34.077737Z $INRMC,000106.16,A,6204.960161,S,05767.888168,W,10.6,228.51,070814,18.4,W,A*06
2017-11-04T05:14:34.330726Z $INHDT,235.25,T*16
2017-11-04T05:14:34.580955Z $PSXN,20,1,0,0,0*3A
2017-11-04T05:14:34.835850Z $PSXN,22,0.23,-0.68*1B
2017-11-04T05:14:35.090981Z $PSXN,23,-0.50,-1.39,235.25,-0.32*19
2017-11-04T05:14:35.341665Z $INZDA,000107.17,07,08,2014,,*7E
2017-11-04T05:14:35.595924Z $INGGA,000107.16,6204.962135,S,05767.891038,W,1,12,0.7,-1.91,M,-3.04,M,,*45
2017-11-04T05:14:35.851679Z $INVTG,228.17,T,246.62,M,10.8,N,20.0,K,A*32
2017-11-04T05:14:36.106708Z $INRMC,000107.16,A,6204.962135,S,05767.891038,W,10.8,228.17,070814,18.4,W,A*04
2017-11-04T05:14:36.362064Z $INHDT,235.34,T*16
2017-11-04T05:14:36.617404Z $PSXN,20,1,0,0,0*3A
2017-11-04T05:14:36.872685Z $PSXN,22,0.23,-0.68*1B
2017-11-04T05:14:37.128025Z $PSXN,23,-0.57,-2.41,235.34,0.57*3C
2017-11-04T05:14:37.381788Z $INZDA,000108.17,07,08,2014,,*71
2017-11-04T05:14:37.632736Z $INGGA,000108.16,6204.964123,S,05767.893987,W,1,12,0.7,-2.35,M,-3.04,M,,*49
2017-11-04T05:14:37.886446Z $INVTG,230.08,T,248.53,M,11.0,N,20.3,K,A*33
2017-11-04T05:14:38.136653Z $INRMC,000108.16,A,6204.964123,S,05767.893987,W,11.0,230.08,070814,18.4,W,A*0B
2017-11-04T05:14:38.387822Z $INHDT,235.79,T*1F
2017-11-04T05:14:38.643138Z $PSXN,20,1,0,0,0*3A
2017-11-04T05:14:38.898099Z $PSXN,22,0.23,-0.68*1B
2017-11-04T05:14:39.149994Z $PSXN,23,-1.33,-1.22,235.79,0.97*3C
2017-11-04T05:14:39.403097Z $INZDA,000109.17,07,08,2014,,*70
2017-11-04T05:14:39.653244Z $INGGA,000109.16,6204.966055,S,05767.897065,W,1,12,0.7,-1.98,M,-3.04,M,,*4F
2017-11-04T05:14:39.903356Z $INVTG,231.63,T,250.08,M,11.1,N,20.5,K,A*3F
2017-11-04T05:14:40.158484Z $INRMC,000109.16,A,6204.966055,S,05767.897065,W,11.1,231.63,070814,18.4,W,A*04
2017-11-04T05:14:40.413837Z $INHDT,236.07,T*15
2017-11-04T05:14:40.665500Z $PSXN,20,1,0,0,0*3A
2017-11-04T05:14:40.918973Z $PSXN,22,0.23,-0.68*1B
2017-11-04T05:14:41.172721Z $PSXN,23,-2.12,0.90,236.07,0.61*1A
2017-11-04T05:14:41.423387Z $INZDA,000110.17,07,08,2014,,*78
2017-11-04T05:14:41.673797Z $INGGA,000110.16,6204.967964,S,05767.900191,W,1,12,0.7,-1.35,M,-3.04,M,,*4F
2017-11-04T05:14:41.929181Z $INVTG,231.13,T,249.58,M,10.9,N,20.2,K,A*3B
2017-11-04T05:14:42.184215Z $INRMC,000110.16,A,6204.967964,S,05767.900191,W,10.9,231.13,070814,18.4,W,A*0D
2017-11-04T05:14:42.439231Z $INHDT,235.86,T*1F
2017-11-04T05:14:42.689660Z $PSXN,20,1,0,0,0*3A
2017-11-04T05:14:42.944951Z $PSXN,22,0.23,-0.68*1B
2017-11-04T05:14:43.200316Z $PSXN,23,-2.14,2.10,235.86,-0.10*37
2017-11-04T05:14:43.455310Z $INZDA,000111.17,07,08,2014,,*79
2017-11-04T05:14:43.705986Z $INGGA,000111.16,6204.969868,S,05767.903197,W,1,12,0.7,-0.86,M,-3.04,M,,*41
2017-11-04T05:14:43.960471Z $INVTG,230.04,T,248.49,M,10.6,N,19.6,K,A*3C
2017-11-04T05:14:44.215808Z $INRMC,000111.16,A,6204.969868,S,05767.903197,W,10.6,230.04,070814,18.4,W,A*02
2017-11-04T05:14:44.470695Z $INHDT,235.56,T*12
2017-11-04T05:14:44.726025Z $PSXN,20,1,0,0,0*3A
2017-11-04T05:14:44.981252Z $PSXN,22,0.23,-0.68*1B
2017-11-04T05:14:45.234362Z $PSXN,23,-1.77,1.98,235.56,-0.62*3A
2017-11-04T05:14:45.486446Z $INZDA,000112.17,07,08,2014,,*7A
2017-11-04T05:14:45.741823Z $INGGA,000112.16,6204.971743,S,05767.906083,W,1,12,0.7,-0.79,M,-3.04,M,,*4C
2017-11-04T05:14:45.997090Z $INVTG,229.67,T,248.12,M,10.4,N,19.2,K,A*39
2017-11-04T05:14:46.252392Z $INRMC,000112.16,A,6204.971743,S,05767.906083,W,10.4,229.67,070814,18.4,W,A*00
2017-11-04T05:14:46.507682Z $INHDT,235.56,T*12
2017-11-04T05:14:46.762977Z $PSXN,20,1,0,0,0*3A
2017-11-04T05:14:47.018231Z $PSXN,22,0.22,-0.68*1A
2017-11-04T05:14:47.268418Z $PSXN,23,-1.74,1.01,235.56,-0.70*3A
2017-11-04T05:14:47.520292Z $INZDA,000113.17,07,08,2014,,*7B
2017-11-04T05:14:47.773450Z $INGGA,000113.16,6204.973595,S,05767.908933,W,1,12,0.7,-1.09,M,-3.04,M,,*4C
2017-11-04T05:14:48.028704Z $INVTG,230.25,T,248.70,M,10.4,N,19.2,K,A*33
2017-11-04T05:14:48.284003Z $INRMC,000113.16,A,6204.973595,S,05767.908933,W,10.4,230.25,070814,18.4,W,A*08
2017-11-04T05:14:48.534162Z $INHDT,235.77,T*11
2017-11-04T05:14:48.789063Z $PSXN,20,1,0,0,0*3A
2017-11-04T05:14:49.043874Z $PSXN,22,0.22,-0.68*1A
2017-11-04T05:14:49.299129Z $PSXN,23,-2.15,-0.33,235.77,-0.43*10
2017-11-04T05:14:49.553226Z $INZDA,000114.17,07,08,2014,,*7C
2017-11-04T05:14:49.804662Z $INGGA,000114.16,6204.975460,S,05767.911844,W,1,12,0.7,-1.53,M,-3.04,M,,*40
2017-11-04T05:14:50.060000Z $INVTG,230.27,T,248.72,M,10.7,N,19.7,K,A*35
2017-11-04T05:14:50.315286Z $INRMC,000114.16,A,6204.975460,S,05767.911844,W,10.7,230.27,070814,18.4,W,A*0A
2017-11-04T05:14:50.569627Z $INHDT,235.81,T*18
2017-11-04T05:14:50.820601Z $PSXN,20,1,0,0,0*3A
2017-11-04T05:14:51.072269Z $PSXN,22,0.22,-0.68*1A
2017-11-04T05:14:51.325551Z $PSXN,23,-2.36,-1.49,235.81,-0.01*12
2017-11-04T05:14:51.578621Z $INZDA,000115.17,07,08,2014,,*7D
2017-11-04T05:14:51.830527Z $INGGA,000115.16,6204.977374,S,05767.914819,W,1,12,0.7,-1.83,M,-3.04,M,,*41
2017-11-04T05:14:52.085867Z $INVTG,230.73,T,249.18,M,11.0,N,20.4,K,A*36
2017-11-04T05:14:52.336356Z $INRMC,000115.16,A,6204.977374,S,05767.914819,W,11.0,230.73,070814,18.4,W,A*01
2017-11-04T05:14:52.590973Z $INHDT,235.70,T*16
2017-11-04T05:14:52.843467Z $PSXN,20,1,0,0,0*3A
2017-11-04T05:14:53.095594Z $PSXN,22,0.22,-0.68*1A
2017-11-04T05:14:53.346243Z $PSXN,23,-2.06,-1.76,235.70,0.33*3F
2017-11-04T05:14:53.599541Z $INZDA,000116.17,07,08,2014,,*7E
2017-11-04T05:14:53.851460Z $INGGA,000116.16,6204.979308,S,05767.917931,W,1,12,0.7,-1.94,M,-3.04,M,,*49
2017-11-04T05:14:54.106506Z $INVTG,232.03,T,250.48,M,11.2,N,20.8,K,A*30
2017-11-04T05:14:54.361830Z $INRMC,000116.16,A,6204.979308,S,05767.917931,W,11.2,232.03,070814,18.4,W,A*08
2017-11-04T05:14:54.617182Z $INHDT,235.68,T*1F
2017-11-04T05:14:54.872261Z $PSXN,20,1,0,0,0*3A
2017-11-04T05:14:55.127156Z $PSXN,22,0.22,-0.68*1A
2017-11-04T05:14:55.377329Z $PSXN,23,-1.72,-0.96,235.68,0.46*3B
2017-11-04T05:14:55.632124Z $INZDA,000117.17,07,08,2014,,*7F
2017-11-04T05:14:55.882914Z $INGGA,000117.16,6204.981234,S,05767.921115,W,1,12,0.7,-1.81,M,-3.04,M,,*4E
2017-11-04T05:14:56.138940Z $INVTG,231.96,T,250.40,M,11.2,N,20.7,K,A*38
2017-11-04T05:14:56.393581Z $INRMC,000117.16,A,6204.981234,S,05767.921115,W,11.2,231.96,070814,18.4,W,A*04
2017-11-04T05:14:56.648913Z $INHDT,235.64,T*13
2017-11-04T05:14:56.904235Z $PSXN,20,1,0,0,0*3A
2017-11-04T05:14:57.159681Z $PSXN,22,0.22,-0.68*1A
2017-11-04T05:14:57.415015Z $PSXN,23,-1.56,0.70,235.64,0.35*10
2017-11-04T05:14:57.670354Z $INZDA,000118.17,07,08,2014,,*70
2017-11-04T05:14:57.921150Z $INGGA,000118.16,6204.983157,S,05767.924212,W,1,12,0.7,-1.46,M,-3.04,M,,*4F
2017-11-04T05:14:58.174276Z $INVTG,230.64,T,249.09,M,10.9,N,20.2,K,A*3E
2017-11-04T05:14:58.429257Z $INRMC,000118.16,A,6204.983157,S,05767.924212,W,10.9,230.64,070814,18.4,W,A*08
2017-11-04T05:14:58.684234Z $INHDT,235.36,T*14
2017-11-04T05:14:58.935332Z $PSXN,20,1,0,0,0*3A
2017-11-04T05:14:59.190720Z $PSXN,22,0.22,-0.68*1A
2017-11-04T05:14:59.445732Z $PSXN,23,-1.43,2.32,235.36,0.02*13
2017-11-04T05:14:59.701071Z $INZDA,000119.17,07,08,2014,,*71
2017-11-04T05:14:59.952921Z $INGGA,000119.16,6204.985106,S,05767.927195,W,1,12,0.7,-1.19,M,-3.04,M,,*49
2017-11-04T05:15:00.206427Z $INVTG,229.16,T,247.61,M,10.8,N,20.0,K,A*30
2017-11-04T05:15:00.461785Z $INRMC,000119.16,A,6204.985106,S,05767.927195,W,10.8,229.16,070814,18.4,W,A*08
2017-11-04T05:15:00.717877Z $INHDT,235.08,T*19
2017-11-04T05:15:00.972597Z $PSXN,20,1,0,0,0*3A
2017-11-04T05:15:01.227707Z $PSXN,22,0.22,-0.68*1A
2017-11-04T05:15:01.478044Z $PSXN,23,-1.35,2.27,235.08,-0.24*32
2017-11-04T05:15:01.732988Z $INZDA,000120.17,07,08,2014,,*7B
2017-11-04T05:15:01.987406Z $INGGA,000120.16,6204.987102,S,05767.930104,W,1,12,0.7,-1.31,M,-3.04,M,,*41
2017-11-04T05:15:02.238323Z $INVTG,228.15,T,246.60,M,10.8,N,20.0,K,A*32
2017-11-04T05:15:02.488601Z $INRMC,000120.16,A,6204.987102,S,05767.930104,W,10.8,228.15,070814,18.4,W,A*08
2017-11-04T05:15:02.742978Z $INHDT,235.11,T*11
2017-11-04T05:15:02.997271Z $PSXN,20,1,0,0,0*3A
2017-11-04T05:15:03.247626Z $PSXN,22,0.22,-0.68*1A
2017-11-04T05:15:03.498034Z $PSXN,23,-1.51,0.19,235.11,-0.10*30
2017-11-04T05:15:03.753373Z $INZDA,000121.17,07,08,2014,,*7A
2017-11-04T05:15:04.008732Z $INGGA,000121.16,6204.989082,S,05767.933018,W,1,12,0.7,-1.59,M,-3.04,M,,*46
2017-11-04T05:15:04.264071Z $INVTG,229.08,T,247.53,M,10.7,N,19.9,K,A*32
2017-11-04T05:15:04.519359Z $INRMC,000121.16,A,6204.989082,S,05767.933018,W,10.7,229.08,070814,18.4,W,A*03
2017-11-04T05:15:04.774695Z $INHDT,235.38,T*1A
2017-11-04T05:15:05.029819Z $PSXN,20,1,0,0,0*3A
2017-11-04T05:15:05.279977Z $PSXN,22,0.22,-0.68*1A
2017-11-04T05:15:05.535270Z $PSXN,23,-1.81,-1.73,235.38,0.16*3D
2017-11-04T05:15:05.790551Z $INZDA,000122.17,07,08,2014,,*79
2017-11-04T05:15:06.045896Z $INGGA,000122.16,6204.990997,S,05767.935938,W,1,12,0.7,-1.64,M,-3.04,M,,*43
2017-11-04T05:15:06.301234Z $INVTG,230.21,T,248.66,M,10.7,N,19.7,K,A*36
2017-11-04T05:15:06.556547Z $INRMC,000122.16,A,6204.990997,S,05767.935938,W,10.7,230.21,070814,18.4,W,A*0B
2017-11-04T05:15:06.808164Z $INHDT,235.59,T*1D
2017-11-04T05:15:07.061868Z $PSXN,20,1,0,0,0*3A
2017-11-04T05:15:07.317193Z $PSXN,22,0.22,-0.68*1A
2017-11-04T05:15:07.572039Z $PSXN,23,-1.86,-1.24,235.59,0.17*3E
2017-11-04T05:15:07.827084Z $INZDA,000123.17,07,08,2014,,*78
2017-11-04T05:15:08.077346Z $INGGA,000123.16,6204.992878,S,05767.938876,W,1,12,0.7,-1.25,M,-3.04,M,,*43
2017-11-04T05:15:08.332686Z $INVTG,230.77,T,249.22,M,10.6,N,19.7,K,A*35
2017-11-04T05:15:08.587548Z $INRMC,000123.16,A,6204.992878,S,05767.938876,W,10.6,230.77,070814,18.4,W,A*0C
2017-11-04T05:15:08.837919Z $INHDT,235.73,T*15
2017-11-04T05:15:09.088315Z $PSXN,20,1,0,0,0*3A
2017-11-04T05:15:09.342941Z $PSXN,22,0.22,-0.68*1A
2017-11-04T05:15:09.598222Z $PSXN,23,-1.67,0.98,235.73,-0.23*38
2017-11-04T05:15:09.853501Z $INZDA,000124.17,07,08,2014,,*7F
2017-11-04T05:15:10.108820Z $INGGA,000124.16,6204.994745,S,05767.941845,W,1,12,0.7,-0.74,M,-3.04,M,,*48
2017-11-04T05:15:10.364172Z $INVTG,230.98,T,249.43,M,10.7,N,19.8,K,A*3D
2017-11-04T05:15:10.619583Z $INRMC,000124.16,A,6204.994745,S,05767.941845,W,10.7,230.98,070814,18.4,W,A*02
2017-11-04T05:15:10.874887Z $INHDT,235.72,T*14
2017-11-04T05:15:11.130196Z $PSXN,20,1,0,0,0*3A
2017-11-04T05:15:11.385920Z $PSXN,22,0.22,-0.68*1A
2017-11-04T05:15:11.636130Z $PSXN,23,-1.55,2.14,235.72,-0.71*39
2017-11-04T05:15:11.890893Z $INZDA,000125.17,07,08,2014,,*7E
2017-11-04T05:15:12.146230Z $INGGA,000125.16,6204.996639,S,05767.944828,W,1,12,0.7,-0.78,M,-3.04,M,,*43
2017-11-04T05:15:12.401562Z $INVTG,230.42,T,248.87,M,10.7,N,19.9,K,A*32
2017-11-04T05:15:12.656957Z $INRMC,000125.16,A,6204.996639,S,05767.944828,W,10.7,230.42,070814,18.4,W,A*02
2017-11-04T05:15:12.909083Z $INHDT,235.56,T*12
2017-11-04T05:15:13.162123Z $PSXN,20,1,0,0,0*3A
2017-11-04T05:15:13.417465Z $PSXN,22,0.22,-0.68*1A
2017-11-04T05:15:13.672342Z $PSXN,23,-1.47,0.85,235.56,-0.65*33
2017-11-04T05:15:13.927692Z $INZDA,000126.17,07,08,2014,,*7D
2017-11-04T05:15:14.182556Z $INGGA,000126.16,6204.998551,S,05767.947824,W,1,12,0.7,-1.54,M,-3.04,M,,*43
2017-11-04T05:15:14.436775Z $INVTG,229.64,T,248.09,M,10.9,N,20.1,K,A*34
2017-11-04T05:15:14.687745Z $INRMC,000126.16,A,6204.998551,S,05767.947824,W,10.9,229.64,070814,18.4,W,A*0F
2017-11-04T05:15:14.938269Z $INHDT,235.29,T*1A
2017-11-04T05:15:15.192519Z $PSXN,20,1,0,0,0*3A
2017-11-04T05:15:15.447873Z $PSXN,22,0.22,-0.68*1A
2017-11-04T05:15:15.703222Z $PSXN,23,-1.39,-1.26,235.29,0.10*38
2017-11-04T05:15:15.953389Z $INZDA,000127.17,07,08,2014,,*7C
2017-11-04T05:15:16.208383Z $INGGA,000127.16,6215.000544,S,05767.950793,W,1,12,0.7,-2.44,M,-3.04,M,,*48
2017-11-04T05:15:16.463822Z $INVTG,228.34,T,246.79,M,11.1,N,20.5,K,A*34
2017-11-04T05:15:16.719119Z $INRMC,000127.16,A,6215.000544,S,05767.950793,W,11.1,228.34,070814,18.4,W,A*0B
2017-11-04T05:15:16.974459Z $INHDT,235.05,T*14
2017-11-04T05:15:17.229770Z $PSXN,20,1,0,0,0*3A
2017-11-04T05:15:17.485121Z $PSXN,22,0.22,-0.68*1A
2017-11-04T05:15:17.735352Z $PSXN,23,-1.50,-1.96,235.05,0.96*3C
2017-11-04T05:15:17.990411Z $INZDA,000128.17,07,08,2014,,*73
2017-11-04T05:15:18.245814Z $INGGA,000128.16,6215.002617,S,05767.953770,W,1,12,0.7,-2.62,M,-3.04,M,,*4A
2017-11-04T05:15:18.497371Z $INVTG,228.09,T,246.54,M,11.2,N,20.8,K,A*3B
2017-11-04T05:15:18.750730Z $INRMC,000128.16,A,6215.002617,S,05767.953770,W,11.2,228.09,070814,18.4,W,A*00
2017-11-04T05:15:19.006068Z $INHDT,235.04,T*15
2017-11-04T05:15:19.261374Z $PSXN,20,1,0,0,0*3A
2017-11-04T05:15:19.512355Z $PSXN,22,0.22,-0.68*1A
2017-11-04T05:15:19.766342Z $PSXN,23,-1.58,-0.68,235.04,1.12*38
2017-11-04T05:15:20.020112Z $INZDA,000129.17,07,08,2014,,*72
2017-11-04T05:15:20.271406Z $INGGA,000129.16,6215.004649,S,05767.956795,W,1,12,0.7,-1.83,M,-3.04,M,,*44
2017-11-04T05:15:20.526760Z $INVTG,230.38,T,248.83,M,11.1,N,20.6,K,A*39
2017-11-04T05:15:20.780654Z $INRMC,000129.16,A,6215.004649,S,05767.956795,W,11.1,230.38,070814,18.4,W,A*0A
2017-11-04T05:15:21.031789Z $INHDT,235.31,T*13
2017-11-04T05:15:21.283940Z $PSXN,20,1,0,0,0*3A
2017-11-04T05:15:21.537069Z $PSXN,22,0.22,-0.68*1A
2017-11-04T05:15:21.792377Z $PSXN,23,-1.51,1.29,235.31,0.35*1A
2017-11-04T05:15:22.043008Z $INZDA,000130.17,07,08,2014,,*7A
2017-11-04T05:15:22.297638Z $INGGA,000130.16,6215.006530,S,05767.959906,W,1,12,0.7,-0.69,M,-3.04,M,,*4D
2017-11-04T05:15:22.553001Z $INVTG,233.34,T,251.79,M,10.9,N,20.1,K,A*35
2017-11-04T05:15:22.808606Z $INRMC,000130.16,A,6215.006530,S,05767.959906,W,10.9,233.34,070814,18.4,W,A*00
2017-11-04T05:15:23.063685Z $INHDT,235.73,T*15
2017-11-04T05:15:23.313849Z $PSXN,20,1,0,0,0*3A
2017-11-04T05:15:23.568707Z $PSXN,22,0.22,-0.68*1A
2017-11-04T05:15:23.824019Z $PSXN,23,-1.44,2.24,235.73,-0.75*3F
2017-11-04T05:15:24.078944Z $INZDA,000131.17,07,08,2014,,*7B
2017-11-04T05:15:24.334270Z $INGGA,000131.16,6215.008283,S,05767.963023,W,1,12,0.7,-0.06,M,-3.04,M,,*43
2017-11-04T05:15:24.588249Z $INVTG,234.15,T,252.60,M,10.6,N,19.6,K,A*38
2017-11-04T05:15:24.839435Z $INRMC,000131.16,A,6215.008283,S,05767.963023,W,10.6,234.15,070814,18.4,W,A*0C
2017-11-04T05:15:25.094942Z $INHDT,235.95,T*1D
2017-11-04T05:15:25.350153Z $PSXN,20,1,0,0,0*3A
2017-11-04T05:15:25.603737Z $PSXN,22,0.22,-0.68*1A
2017-11-04T05:15:25.855204Z $PSXN,23,-1.46,1.74,235.95,-1.35*36
2017-11-04T05:15:26.106443Z $INZDA,000132.17,07,08,2014,,*78
2017-11-04T05:15:26.360933Z $INGGA,000132.16,6215.010029,S,05767.966046,W,1,12,0.7,-0.35,M,-3.04,M,,*4D
2017-11-04T05:15:26.615971Z $INVTG,231.96,T,250.40,M,10.5,N,19.4,K,A*37
2017-11-04T05:15:26.871036Z $INRMC,000132.16,A,6215.010029,S,05767.966046,W,10.5,231.96,070814,18.4,W,A*0F
2017-11-04T05:15:27.126299Z $INHDT,235.74,T*12
2017-11-04T05:15:27.376447Z $PSXN,20,1,0,0,0*3A
2017-11-04T05:15:27.631770Z $PSXN,22,0.22,-0.68*1A
2017-11-04T05:15:27.887171Z $PSXN,23,-1.43,0.44,235.74,-1.06*3E
2017-11-04T05:15:28.138745Z $INZDA,000133.17,07,08,2014,,*79
2017-11-04T05:15:28.392543Z $INGGA,000133.16,6215.011892,S,05767.968954,W,1,12,0.7,-1.25,M,-3.04,M,,*41
2017-11-04T05:15:28.647861Z $INVTG,228.76,T,247.21,M,10.6,N,19.6,K,A*31
2017-11-04T05:15:28.902899Z $INRMC,000133.16,A,6215.011892,S,05767.968954,W,10.6,228.76,070814,18.4,W,A*06
2017-11-04T05:15:29.158201Z $INHDT,235.27,T*14
2017-11-04T05:15:29.413529Z $PSXN,20,1,0,0,0*3A
2017-11-04T05:15:29.668568Z $PSXN,22,0.22,-0.68*1A
2017-11-04T05:15:29.918953Z $PSXN,23,-1.34,-0.81,235.27,-0.16*1C
2017-11-04T05:15:30.174237Z $INZDA,000134.17,07,08,2014,,*7E
2017-11-04T05:15:30.429566Z $INGGA,000134.16,6215.013903,S,05767.971828,W,1,12,0.7,-2.15,M,-3.04,M,,*4F
2017-11-04T05:15:30.684887Z $INVTG,227.57,T,246.02,M,11.0,N,20.4,K,A*32
2017-11-04T05:15:30.935072Z $INRMC,000134.16,A,6215.013903,S,05767.971828,W,11.0,227.57,070814,18.4,W,A*03
2017-11-04T05:15:31.190231Z $INHDT,235.05,T*14
2017-11-04T05:15:31.445683Z $PSXN,20,1,0,0,0*3A
2017-11-04T05:15:31.700997Z $PSXN,22,0.22,-0.68*1A
2017-11-04T05:15:31.955845Z $PSXN,23,-1.45,-1.61,235.05,0.73*3B
2017-11-04T05:15:32.206003Z $INZDA,000135.17,07,08,2014,,*7F
2017-11-04T05:15:32.460947Z $INGGA,000135.16,6215.015993,S,05767.974813,W,1,12,0.7,-2.56,M,-3.04,M,,*4B
2017-11-04T05:15:32.715325Z $INVTG,228.38,T,246.83,M,11.4,N,21.1,K,A*3D
2017-11-04T05:15:32.970404Z $INRMC,000135.16,A,6215.015993,S,05767.974813,W,11.4,228.38,070814,18.4,W,A*02
2017-11-04T05:15:33.220683Z $INHDT,235.27,T*14
2017-11-04T05:15:33.471385Z $PSXN,20,1,0,0,0*3A
2017-11-04T05:15:33.726491Z $PSXN,22,0.22,-0.68*1A
2017-11-04T05:15:33.981802Z $PSXN,23,-1.87,-1.74,235.27,1.12*37
2017-11-04T05:15:34.237160Z $INZDA,000136.17,07,08,2014,,*7C
2017-11-04T05:15:34.492460Z $INGGA,000136.16,6215.018074,S,05767.977935,W,1,12,0.7,-2.31,M,-3.04,M,,*42
2017-11-04T05:15:34.747783Z $INVTG,230.20,T,248.64,M,11.5,N,21.2,K,A*38
2017-11-04T05:15:35.003112Z $INRMC,000136.16,A,6215.018074,S,05767.977935,W,11.5,230.20,070814,18.4,W,A*0B
2017-11-04T05:15:35.258436Z $INHDT,235.58,T*1C
2017-11-04T05:15:35.513865Z $PSXN,20,1,0,0,0*3A
2017-11-04T05:15:35.768936Z $PSXN,22,0.22,-0.68*1A
2017-11-04T05:15:36.024222Z $PSXN,23,-2.17,-0.59,235.58,0.89*38
2017-11-04T05:15:36.274801Z $INZDA,000137.17,07,08,2014,,*7D
2017-11-04T05:15:36.529949Z $INGGA,000137.16,6215.020059,S,05767.981092,W,1,12,0.7,-1.54,M,-3.04,M,,*4A
2017-11-04T05:15:36.784972Z $INVTG,231.47,T,249.92,M,11.2,N,20.7,K,A*33
2017-11-04T05:15:37.035332Z $INRMC,000137.16,A,6215.020059,S,05767.981092,W,11.2,231.47,070814,18.4,W,A*04
2017-11-04T05:15:37.290496Z $INHDT,235.76,T*10
2017-11-04T05:15:37.545523Z $PSXN,20,1,0,0,0*3A
2017-11-04T05:15:37.795808Z $PSXN,22,0.22,-0.68*1A
2017-11-04T05:15:38.050633Z $PSXN,23,-2.15,1.67,235.76,0.14*13
2017-11-04T05:15:38.304423Z $INZDA,000138.17,07,08,2014,,*72
2017-11-04T05:15:38.555747Z $INGGA,000138.16,6215.021943,S,05767.984162,W,1,12,0.7,-0.62,M,-3.04,M,,*49
2017-11-04T05:15:38.807396Z $INVTG,231.48,T,249.92,M,10.7,N,19.8,K,A*3D
2017-11-04T05:15:39.060124Z $INRMC,000138.16,A,6215.021943,S,05767.984162,W,10.7,231.48,070814,18.4,W,A*08
2017-11-04T05:15:39.315197Z $INHDT,235.79,T*1F
2017-11-04T05:15:39.565439Z $PSXN,20,1,0,0,0*3A
2017-11-04T05:15:39.820723Z $PSXN,22,0.22,-0.68*1A
2017-11-04T05:15:40.076063Z $PSXN,23,-2.00,3.35,235.79,-0.74*36
2017-11-04T05:15:40.331403Z $INZDA,000139.17,07,08,2014,,*73
2017-11-04T05:15:40.586105Z $INGGA,000139.16,6215.023782,S,05767.987096,W,1,12,0.7,-0.12,M,-3.04,M,,*47
2017-11-04T05:15:40.841442Z $INVTG,230.37,T,248.82,M,10.4,N,19.2,K,A*3D
2017-11-04T05:15:41.096855Z $INRMC,000139.16,A,6215.023782,S,05767.987096,W,10.4,230.37,070814,18.4,W,A*0B
2017-11-04T05:15:41.347286Z $INHDT,235.64,T*13
2017-11-04T05:15:41.602610Z $PSXN,20,1,0,0,0*3A
2017-11-04T05:15:41.857917Z $PSXN,22,0.22,-0.68*1A
2017-11-04T05:15:42.113265Z $PSXN,23,-1.86,2.92,235.64,-1.21*3A
2017-11-04T05:15:42.367507Z $INZDA,000140.17,07,08,2014,,*7D
2017-11-04T05:15:42.622669Z $INGGA,000140.16,6215.025642,S,05767.989939,W,1,12,0.7,-0.39,M,-3.04,M,,*49
2017-11-04T05:15:42.875576Z $INVTG,229.07,T,247.52,M,10.4,N,19.3,K,A*35
2017-11-04T05:15:43.127551Z $INRMC,000140.16,A,6215.025642,S,05767.989939,W,10.4,229.07,070814,18.4,W,A*07
2017-11-04T05:15:43.378217Z $INHDT,235.49,T*1C
2017-11-04T05:15:43.628631Z $PSXN,20,1,0,0,0*3A
2017-11-04T05:15:43.883534Z $PSXN,22,0.22,-0.68*1A
2017-11-04T05:15:44.136948Z $PSXN,23,-1.88,0.29,235.49,-0.92*30
2017-11-04T05:15:44.387141Z $INZDA,000141.17,07,08,2014,,*7C
2017-11-04T05:15:44.642487Z $INGGA,000141.16,6215.027569,S,05767.992799,W,1,12,0.7,-1.32,M,-3.04,M,,*44
2017-11-04T05:15:44.893263Z $INVTG,228.70,T,247.15,M,10.8,N,19.9,K,A*31
2017-11-04T05:15:45.147182Z $INRMC,000141.16,A,6215.027569,S,05767.992799,W,10.8,228.70,070814,18.4,W,A*0D
2017-11-04T05:15:45.398155Z $INHDT,235.47,T*12
2017-11-04T05:15:45.653493Z $PSXN,20,1,0,0,0*3A
2017-11-04T05:15:45.909219Z $PSXN,22,0.22,-0.68*1A
2017-11-04T05:15:46.164577Z $PSXN,23,-1.97,-2.85,235.47,-0.01*13
2017-11-04T05:15:46.419882Z $INZDA,000142.17,07,08,2014,,*7F
2017-11-04T05:15:46.675196Z $INGGA,000142.16,6215.029558,S,05767.995777,W,1,12,0.7,-2.33,M,-3.04,M,,*4E
2017-11-04T05:15:46.930141Z $INVTG,229.66,T,248.10,M,11.2,N,20.7,K,A*32
2017-11-04T05:15:47.185897Z $INRMC,000142.16,A,6215.029558,S,05767.995777,W,11.2,229.66,070814,18.4,W,A*08
2017-11-04T05:15:47.441216Z $INHDT,235.56,T*12
2017-11-04T05:15:47.696630Z $PSXN,20,1,0,0,0*3A
2017-11-04T05:15:47.951974Z $PSXN,22,0.22,-0.68*1A
2017-11-04T05:15:48.202077Z $PSXN,23,-1.88,-3.83,235.56,0.94*3B
2017-11-04T05:15:48.457399Z $INZDA,000143.17,07,08,2014,,*7E
2017-11-04T05:15:48.712812Z $INGGA,000143.16,6215.031555,S,05767.998894,W,1,12,0.7,-2.66,M,-3.04,M,,*44
2017-11-04T05:15:48.968119Z $INVTG,231.44,T,249.89,M,11.3,N,21.0,K,A*3D
2017-11-04T05:15:49.223120Z $INRMC,000143.16,A,6215.031555,S,05767.998894,W,11.3,231.44,070814,18.4,W,A*0A
2017-11-04T05:15:49.473259Z $INHDT,235.71,T*17
2017-11-04T05:15:49.728059Z $PSXN,20,1,0,0,0*3A
2017-11-04T05:15:49.983397Z $PSXN,22,0.22,-0.68*1A
2017-11-04T05:15:50.237431Z $PSXN,23,-1.58,-1.30,235.71,1.24*33
2017-11-04T05:15:50.488830Z $INZDA,000144.17,07,08,2014,,*79
2017-11-04T05:15:50.739224Z $INGGA,000144.16,6215.033440,S,05768.002056,W,1,12,0.7,-1.95,M,-3.04,M,,*48
2017-11-04T05:15:50.989701Z $INVTG,233.44,T,251.89,M,10.9,N,20.2,K,A*3E
2017-11-04T05:15:51.243425Z $INRMC,000144.16,A,6215.033440,S,05768.002056,W,10.9,233.44,070814,18.4,W,A*00
2017-11-04T05:15:51.493749Z $INHDT,235.77,T*11
2017-11-04T05:15:51.748784Z $PSXN,20,1,0,0,0*3A
2017-11-04T05:15:52.004125Z $PSXN,22,0.22,-0.68*1A
2017-11-04T05:15:52.258554Z $PSXN,23,-1.25,2.93,235.77,0.55*1F
2017-11-04T05:15:52.514432Z $INZDA,000145.17,07,08,2014,,*78
2017-11-04T05:15:52.769745Z $INGGA,000145.16,6215.035213,S,05768.005133,W,1,12,0.7,-0.58,M,-3.04,M,,*4A
2017-11-04T05:15:53.024970Z $INVTG,233.28,T,251.73,M,10.4,N,19.3,K,A*37
2017-11-04T05:15:53.279834Z $INRMC,000145.16,A,6215.035213,S,05768.005133,W,10.4,233.28,070814,18.4,W,A*05
2017-11-04T05:15:53.530336Z $INHDT,235.69,T*1E
2017-11-04T05:15:53.785225Z $PSXN,20,1,0,0,0*3A
2017-11-04T05:15:54.040547Z $PSXN,22,0.22,-0.68*1A
2017-11-04T05:15:54.295943Z $PSXN,23,-1.00,5.14,235.69,-0.74*31
2017-11-04T05:15:54.551313Z $INZDA,000146.17,07,08,2014,,*7B
2017-11-04T05:15:54.806627Z $INGGA,000146.16,6215.036966,S,05768.008046,W,1,12,0.7,0.29,M,-3.04,M,,*66
2017-11-04T05:15:55.056806Z $INVTG,230.74,T,249.19,M,10.1,N,18.8,K,A*37
2017-11-04T05:15:55.312976Z $INRMC,000146.16,A,6215.036966,S,05768.008046,W,10.1,230.74,070814,18.4,W,A*0D
2017-11-04T05:15:55.568125Z $INHDT,235.56,T*12
2017-11-04T05:15:55.823190Z $PSXN,20,1,0,0,0*3A
2017-11-04T05:15:56.078462Z $PSXN,22,0.22,-0.68*1A
2017-11-04T05:15:56.333903Z $PSXN,23,-0.89,3.24,235.56,-1.54*3B
2017-11-04T05:15:56.588810Z $INZDA,000147.17,07,08,2014,,*7A
2017-11-04T05:15:56.844119Z $INGGA,000147.16,6215.038799,S,05768.010830,W,1,12,0.7,-0.07,M,-3.04,M,,*46
2017-11-04T05:15:57.098262Z $INVTG,227.94,T,246.38,M,10.2,N,18.9,K,A*31
2017-11-04T05:15:57.348947Z $INRMC,000147.16,A,6215.038799,S,05768.010830,W,10.2,227.94,070814,18.4,W,A*07
2017-11-04T05:15:57.604125Z $INHDT,235.55,T*11
2017-11-04T05:15:57.854512Z $PSXN,20,1,0,0,0*3A
2017-11-04T05:15:58.109741Z $PSXN,22,0.22,-0.68*1A
2017-11-04T05:15:58.365010Z $PSXN,23,-1.07,-1.15,235.55,-1.17*15
2017-11-04T05:15:58.620220Z $INZDA,000148.17,07,08,2014,,*75
