2017-11-04:05:12:19.212801 $GPGGA,235959.125,3934.8289,S,03727.6901,W,1,06,1.4,033.2,M,004.1,M,,*69
2017-11-04:05:12:19.465789 $GPGLL,3934.8289,S,03727.6901,W,235959.125,A*35
2017-11-04:05:12:19.717972 $GPVTG,224.8,T,242.6,M,012.3,N,022.8,K*48
2017-11-04:05:12:19.973243 $GPRMC,235959.125,A,3934.8289,S,03727.6901,W,012.3,224.8,211294,17.8,W*44
2017-11-04:05:12:20.225101 $GPZDA,000000.00,22,12,1994,00,00,*4C
2017-11-04:05:12:20.478124 $GPGGA,000000.125,3934.8315,S,03727.6936,W,1,06,1.4,033.7,M,004.1,M,,*6D
2017-11-04:05:12:20.729700 $GPGLL,3934.8315,S,03727.6936,W,000000.125,A*34
2017-11-04:05:12:20.983094 $GPVTG,228.9,T,246.8,M,014.5,N,026.8,K*4B
2017-11-04:05:12:21.238385 $GPRMC,000000.125,A,3934.8315,S,03727.6936,W,014.5,228.9,221294,17.8,W*4B
2017-11-04:05:12:21.493637 $GPZDA,000001.00,22,12,1994,00,00,*4D
2017-11-04:05:12:21.749011 $GPGGA,000001.125,3934.8341,S,03727.6976,W,1,06,1.4,033.1,M,004.1,M,,*6F
2017-11-04:05:12:22.004300 $GPGLL,3934.8341,S,03727.6976,W,000001.125,A*30
2017-11-04:05:12:22.256587 $GPVTG,231.4,T,249.2,M,013.7,N,025.4,K*41
2017-11-04:05:12:22.509679 $GPRMC,000001.125,A,3934.8341,S,03727.6976,W,013.7,231.4,221294,17.8,W*4F
2017-11-04:05:12:22.760282 $GPZDA,000002.00,22,12,1994,00,00,*4E
2017-11-04:05:12:23.012358 $GPGGA,000002.125,3934.8363,S,03727.7011,W,1,06,1.4,032.2,M,004.1,M,,*67
2017-11-04:05:12:23.264356 $GPGLL,3934.8363,S,03727.7011,W,000002.125,A*3A
2017-11-04:05:12:23.518240 $GPVTG,232.5,T,250.4,M,011.1,N,020.5,K*4D
2017-11-04:05:12:23.768523 $GPRMC,000002.125,A,3934.8363,S,03727.7011,W,011.1,232.5,221294,17.8,W*43
2017-11-04:05:12:24.018771 $GPZDA,000003.00,22,12,1994,00,00,*4F
2017-11-04:05:12:24.274063 $GPZDA,000004.00,22,12,1994,00,00,*48
2017-11-04:05:12:24.529377 $GPGGA,000003.125,3934.8376,S,03727.7041,W,1,06,1.4,031.1,M,004.1,M,,*67
2017-11-04:05:12:24.782562 $GPGLL,3934.8376,S,03727.7041,W,000003.125,A*3A
2017-11-04:05:12:25.034354 $GPVTG,235.4,T,253.2,M,008.8,N,016.2,K*4D
2017-11-04:05:12:25.286072 $GPRMC,000003.125,A,3934.8376,S,03727.7041,W,008.8,235.4,221294,17.8,W*44
2017-11-04:05:12:25.537931 $GPGGA,000004.125,3934.8390,S,03727.7066,W,1,06,1.4,031.2,M,004.1,M,,*6E
2017-11-04:05:12:25.789194 $GPGLL,3934.8390,S,03727.7066,W,000004.125,A*30
2017-11-04:05:12:26.040834 $GPVTG,233.3,T,251.1,M,008.9,N,016.5,K*4B
2017-11-04:05:12:26.294077 $GPRMC,000004.125,A,3934.8390,S,03727.7066,W,008.9,233.3,221294,17.8,W*4E
2017-11-04:05:12:26.544365 $GPZDA,000005.00,22,12,1994,00,00,*49
2017-11-04:05:12:26.799258 $GPGGA,000005.125,3934.8406,S,03727.7095,W,1,06,1.4,031.0,M,004.1,M,,*69
2017-11-04:05:12:27.054581 $GPGLL,3934.8406,S,03727.7095,W,000005.125,A*35
2017-11-04:05:12:27.309858 $GPVTG,230.0,T,247.8,M,010.0,N,018.6,K*48
2017-11-04:05:12:27.565131 $GPRMC,000005.125,A,3934.8406,S,03727.7095,W,010.0,230.0,221294,17.8,W*4B
2017-11-04:05:12:27.819082 $GPZDA,000006.00,22,12,1994,00,00,*4A
2017-11-04:05:12:28.070344 $GPGGA,000006.125,3934.8429,S,03727.7123,W,1,06,1.4,032.4,M,004.1,M,,*6C
2017-11-04:05:12:28.320232 $GPGLL,3934.8429,S,03727.7123,W,000006.125,A*37
2017-11-04:05:12:28.575332 $GPVTG,227.4,T,245.3,M,012.0,N,022.3,K*4D
2017-11-04:05:12:28.830293 $GPRMC,000006.125,A,3934.8429,S,03727.7123,W,012.0,227.4,221294,17.8,W*49
2017-11-04:05:12:29.082695 $GPZDA,000007.00,22,12,1994,00,00,*4B
2017-11-04:05:12:29.335669 $GPGGA,000007.125,3934.8453,S,03727.7157,W,1,06,1.4,032.6,M,004.1,M,,*61
2017-11-04:05:12:29.590933 $GPGLL,3934.8453,S,03727.7157,W,000007.125,A*38
2017-11-04:05:12:29.846214 $GPVTG,227.7,T,245.6,M,013.2,N,024.5,K*48
2017-11-04:05:12:30.101530 $GPRMC,000007.125,A,3934.8453,S,03727.7157,W,013.2,227.7,221294,17.8,W*46
2017-11-04:05:12:30.356879 $GPZDA,000008.00,22,12,1994,00,00,*44
2017-11-04:05:12:30.612122 $GPGGA,000008.125,3934.8479,S,03727.7192,W,1,06,1.4,032.2,M,004.1,M,,*6B
2017-11-04:05:12:30.862223 $GPGLL,3934.8479,S,03727.7192,W,000008.125,A*36
2017-11-04:05:12:31.117475 $GPVTG,226.6,T,244.5,M,013.4,N,024.9,K*40
2017-11-04:05:12:31.372724 $GPRMC,000008.125,A,3934.8479,S,03727.7192,W,013.4,226.6,221294,17.8,W*4E
2017-11-04:05:12:31.624963 $GPZDA,000009.00,22,12,1994,00,00,*45
2017-11-04:05:12:31.877520 $GPGGA,000009.125,3934.8498,S,03727.7228,W,1,06,1.4,030.6,M,004.1,M,,*61
2017-11-04:05:12:32.129698 $GPGLL,3934.8498,S,03727.7228,W,000009.125,A*3A
2017-11-04:05:12:32.382945 $GPVTG,231.1,T,248.9,M,011.6,N,021.4,K*49
2017-11-04:05:12:32.638243 $GPRMC,000009.125,A,3934.8498,S,03727.7228,W,011.6,231.1,221294,17.8,W*43
2017-11-04:05:12:32.893515 $GPZDA,000010.00,22,12,1994,00,00,*4D
2017-11-04:05:12:33.148779 $GPGGA,000010.125,3934.8516,S,03727.7257,W,1,06,1.4,030.3,M,004.1,M,,*63
2017-11-04:05:12:33.398959 $GPGLL,3934.8516,S,03727.7257,W,000010.125,A*3D
2017-11-04:05:12:33.652216 $GPVTG,231.7,T,249.5,M,009.0,N,016.7,K*4A
2017-11-04:05:12:33.903427 $GPRMC,000010.125,A,3934.8516,S,03727.7257,W,009.0,231.7,221294,17.8,W*4D
2017-11-04:05:12:34.158651 $GPZDA,000011.00,22,12,1994,00,00,*4C
2017-11-04:05:12:34.408892 $GPZDA,000012.00,22,12,1994,00,00,*4F
2017-11-04:05:12:34.660258 $GPGGA,000011.125,3934.8530,S,03727.7279,W,1,06,1.4,030.6,M,004.1,M,,*6F
2017-11-04:05:12:34.910570 $GPGLL,3934.8530,S,03727.7279,W,000011.125,A*34
2017-11-04:05:12:35.163229 $GPVTG,231.9,T,249.7,M,007.6,N,014.1,K*4A
2017-11-04:05:12:35.418200 $GPRMC,000011.125,A,3934.8530,S,03727.7279,W,007.6,231.9,221294,17.8,W*42
2017-11-04:05:12:35.673506 $GPGGA,000012.125,3934.8548,S,03727.7299,W,1,06,1.4,032.3,M,004.1,M,,*6A
2017-11-04:05:12:35.928817 $GPGLL,3934.8548,S,03727.7299,W,000012.125,A*36
2017-11-04:05:12:36.184148 $GPVTG,227.2,T,245.0,M,009.2,N,017.0,K*45
2017-11-04:05:12:36.434314 $GPRMC,000012.125,A,3934.8548,S,03727.7299,W,009.2,227.2,221294,17.8,W*46
2017-11-04:05:12:36.689651 $GPZDA,000013.00,22,12,1994,00,00,*4E
2017-11-04:05:12:36.944942 $GPGGA,000013.125,3934.8568,S,03727.7328,W,1,06,1.4,033.2,M,004.1,M,,*62
2017-11-04:05:12:37.200205 $GPGLL,3934.8568,S,03727.7328,W,000013.125,A*3E
2017-11-04:05:12:37.455533 $GPVTG,229.4,T,247.3,M,012.1,N,022.4,K*47
2017-11-04:05:12:37.710789 $GPRMC,000013.125,A,3934.8568,S,03727.7328,W,012.1,229.4,221294,17.8,W*4F
2017-11-04:05:12:37.966090 $GPZDA,000014.00,22,12,1994,00,00,*49
2017-11-04:05:12:38.221420 $GPGGA,000014.125,3934.8593,S,03727.7366,W,1,06,1.4,033.3,M,004.1,M,,*6A
2017-11-04:05:12:38.471642 $GPGLL,3934.8593,S,03727.7366,W,000014.125,A*37
2017-11-04:05:12:38.726928 $GPVTG,230.1,T,247.9,M,014.5,N,026.9,K*4B
2017-11-04:05:12:38.979444 $GPRMC,000014.125,A,3934.8593,S,03727.7366,W,014.5,230.1,221294,17.8,W*49
2017-11-04:05:12:39.231880 $GPZDA,000015.00,22,12,1994,00,00,*48
2017-11-04:05:12:39.485608 $GPGGA,000015.125,3934.8614,S,03727.7409,W,1,06,1.4,031.3,M,004.1,M,,*6B
2017-11-04:05:12:39.736766 $GPGLL,3934.8614,S,03727.7409,W,000015.125,A*34
2017-11-04:05:12:39.992057 $GPVTG,234.2,T,252.0,M,013.7,N,025.4,K*4A
2017-11-04:05:12:40.247364 $GPRMC,000015.125,A,3934.8614,S,03727.7409,W,013.7,234.2,221294,17.8,W*48
2017-11-04:05:12:40.502416 $GPZDA,000016.00,22,12,1994,00,00,*4B
2017-11-04:05:12:40.752595 $GPGGA,000016.125,3934.8633,S,03727.7443,W,1,06,1.4,029.8,M,004.1,M,,*61
2017-11-04:05:12:41.007936 $GPGLL,3934.8633,S,03727.7443,W,000016.125,A*3C
2017-11-04:05:12:41.263208 $GPVTG,231.3,T,249.2,M,010.4,N,019.3,K*4E
2017-11-04:05:12:41.518497 $GPRMC,000016.125,A,3934.8633,S,03727.7443,W,010.4,231.3,221294,17.8,W*44
2017-11-04:05:12:41.773680 $GPZDA,000017.00,22,12,1994,00,00,*4A
2017-11-04:05:12:42.023847 $GPGGA,000017.125,3934.8651,S,03727.7465,W,1,06,1.4,029.6,M,004.1,M,,*6E
2017-11-04:05:12:42.279192 $GPGLL,3934.8651,S,03727.7465,W,000017.125,A*3D
2017-11-04:05:12:42.529279 $GPVTG,225.2,T,243.0,M,007.2,N,013.4,K*4F
2017-11-04:05:12:42.784121 $GPRMC,000017.125,A,3934.8651,S,03727.7465,W,007.2,225.2,221294,17.8,W*41
2017-11-04:05:12:43.034399 $GPZDA,000018.00,22,12,1994,00,00,*45
2017-11-04:05:12:43.289091 $GPGGA,000018.125,3934.8666,S,03727.7481,W,1,06,1.4,030.8,M,004.1,M,,*69
2017-11-04:05:12:43.544405 $GPGLL,3934.8666,S,03727.7481,W,000018.125,A*3C
2017-11-04:05:12:43.799816 $GPVTG,222.1,T,239.9,M,007.1,N,013.1,K*49
2017-11-04:05:12:44.055136 $GPRMC,000018.125,A,3934.8666,S,03727.7481,W,007.1,222.1,221294,17.8,W*47
2017-11-04:05:12:44.310414 $GPZDA,000019.00,22,12,1994,00,00,*44
2017-11-04:05:12:44.565791 $GPGGA,000019.125,3934.8681,S,03727.7502,W,1,06,1.4,032.2,M,004.1,M,,*63
2017-11-04:05:12:44.816439 $GPGLL,3934.8681,S,03727.7502,W,000019.125,A*3E
2017-11-04:05:12:45.068985 $GPVTG,227.9,T,245.7,M,009.3,N,017.2,K*4A
2017-11-04:05:12:45.320499 $GPRMC,000019.125,A,3934.8681,S,03727.7502,W,009.3,227.9,221294,17.8,W*44
2017-11-04:05:12:45.575756 $GPZDA,000020.00,22,12,1994,00,00,*4E
2017-11-04:05:12:45.831112 $GPGGA,000020.125,3934.8701,S,03727.7532,W,1,06,1.4,033.5,M,004.1,M,,*65
2017-11-04:05:12:46.085677 $GPGLL,3934.8701,S,03727.7532,W,000020.125,A*3E
2017-11-04:05:12:46.335813 $GPVTG,229.0,T,246.9,M,012.4,N,023.0,K*48
2017-11-04:05:12:46.585977 $GPRMC,000020.125,A,3934.8701,S,03727.7532,W,012.4,229.0,221294,17.8,W*4E
2017-11-04:05:12:46.935826 $GPZDA,000021.00,22,12,1994,00,00,*4F
2017-11-04:05:12:47.189545 $GPGGA,000021.125,3934.8724,S,03727.7570,W,1,06,1.4,033.4,M,004.1,M,,*64
2017-11-04:05:12:47.442552 $GPGLL,3934.8724,S,03727.7570,W,000021.125,A*3E
2017-11-04:05:12:47.694607 $GPVTG,231.6,T,249.5,M,013.9,N,025.8,K*46
2017-11-04:05:12:47.949670 $GPRMC,000021.125,A,3934.8724,S,03727.7570,W,013.9,231.6,221294,17.8,W*4D
2017-11-04:05:12:48.204942 $GPZDA,000022.00,22,12,1994,00,00,*4C
2017-11-04:05:12:48.460166 $GPGGA,000022.125,3934.8749,S,03727.7609,W,1,06,1.4,032.2,M,004.1,M,,*66
2017-11-04:05:12:48.710354 $GPGLL,3934.8749,S,03727.7609,W,000022.125,A*3B
2017-11-04:05:12:48.965702 $GPVTG,231.4,T,249.3,M,013.3,N,024.6,K*47
2017-11-04:05:12:49.218971 $GPRMC,000022.125,A,3934.8749,S,03727.7609,W,013.3,231.4,221294,17.8,W*40
2017-11-04:05:12:49.470631 $GPZDA,000023.00,22,12,1994,00,00,*4D
2017-11-04:05:12:49.721526 $GPZDA,000024.00,22,12,1994,00,00,*4A
2017-11-04:05:12:49.975757 $GPGGA,000023.125,3934.8770,S,03727.7642,W,1,06,1.4,031.0,M,004.1,M,,*63
2017-11-04:05:12:50.230932 $GPGLL,3934.8770,S,03727.7642,W,000023.125,A*3F
2017-11-04:05:12:50.485771 $GPVTG,230.5,T,248.3,M,010.8,N,020.0,K*4C
2017-11-04:05:12:50.741075 $GPRMC,000023.125,A,3934.8770,S,03727.7642,W,010.8,230.5,221294,17.8,W*4C
2017-11-04:05:12:50.994097 $GPGGA,000024.125,3934.8786,S,03727.7668,W,1,06,1.4,029.9,M,004.1,M,,*65
2017-11-04:05:12:51.246161 $GPGLL,3934.8786,S,03727.7668,W,000024.125,A*39
2017-11-04:05:12:51.501559 $GPVTG,228.9,T,246.7,M,008.4,N,015.6,K*46
2017-11-04:05:12:51.751778 $GPRMC,000024.125,A,3934.8786,S,03727.7668,W,008.4,228.9,221294,17.8,W*4A
2017-11-04:05:12:52.007088 $GPZDA,000025.00,22,12,1994,00,00,*4B
2017-11-04:05:12:52.257238 $GPGGA,000025.125,3934.8800,S,03727.7690,W,1,06,1.4,029.9,M,004.1,M,,*62
2017-11-04:05:12:52.512391 $GPGLL,3934.8800,S,03727.7690,W,000025.125,A*3E
2017-11-04:05:12:52.767555 $GPVTG,229.6,T,247.4,M,007.9,N,014.5,K*4A
2017-11-04:05:12:53.022800 $GPRMC,000025.125,A,3934.8800,S,03727.7690,W,007.9,229.6,221294,17.8,W*41
2017-11-04:05:12:53.278101 $GPZDA,000026.00,22,12,1994,00,00,*48
2017-11-04:05:12:53.528366 $GPGGA,000026.125,3934.8814,S,03727.7712,W,1,06,1.4,030.5,M,004.1,M,,*6B
2017-11-04:05:12:53.783229 $GPGLL,3934.8814,S,03727.7712,W,000026.125,A*33
2017-11-04:05:12:54.037234 $GPVTG,231.9,T,249.8,M,008.7,N,016.1,K*49
2017-11-04:05:12:54.288112 $GPRMC,000026.125,A,3934.8814,S,03727.7712,W,008.7,231.9,221294,17.8,W*4B
2017-11-04:05:12:54.542796 $GPZDA,000027.00,22,12,1994,00,00,*49
2017-11-04:05:12:54.792979 $GPGGA,000027.125,3934.8833,S,03727.7738,W,1,06,1.4,032.0,M,004.1,M,,*60
2017-11-04:05:12:55.043913 $GPGLL,3934.8833,S,03727.7738,W,000027.125,A*3F
2017-11-04:05:12:55.297656 $GPVTG,230.2,T,248.1,M,010.5,N,019.4,K*4A
2017-11-04:05:12:55.551524 $GPRMC,000027.125,A,3934.8833,S,03727.7738,W,010.5,230.2,221294,17.8,W*46
2017-11-04:05:12:55.806599 $GPZDA,000028.00,22,12,1994,00,00,*46
2017-11-04:05:12:56.058547 $GPGGA,000028.125,3934.8852,S,03727.7769,W,1,06,1.4,032.9,M,004.1,M,,*65
2017-11-04:05:12:56.308708 $GPGLL,3934.8852,S,03727.7769,W,000028.125,A*33
2017-11-04:05:12:56.559114 $GPVTG,230.5,T,248.4,M,011.5,N,021.4,K*42
2017-11-04:05:12:56.811340 $GPRMC,000028.125,A,3934.8852,S,03727.7769,W,011.5,230.5,221294,17.8,W*4C
2017-11-04:05:12:57.066246 $GPZDA,000029.00,22,12,1994,00,00,*47
2017-11-04:05:12:57.318397 $GPGGA,000029.125,3934.8874,S,03727.7802,W,1,06,1.4,033.3,M,004.1,M,,*69
2017-11-04:05:12:57.573221 $GPGLL,3934.8874,S,03727.7802,W,000029.125,A*34
2017-11-04:05:12:57.825691 $GPVTG,230.3,T,248.2,M,011.9,N,022.1,K*48
2017-11-04:05:12:58.078306 $GPRMC,000029.125,A,3934.8874,S,03727.7802,W,011.9,230.3,221294,17.8,W*41
2017-11-04:05:12:58.330223 $GPZDA,000030.00,22,12,1994,00,00,*4F
2017-11-04:05:12:58.582838 $GPGGA,000030.125,3934.8893,S,03727.7837,W,1,06,1.4,032.5,M,004.1,M,,*69
2017-11-04:05:12:58.838068 $GPGLL,3934.8893,S,03727.7837,W,000030.125,A*33
2017-11-04:05:12:59.093435 $GPVTG,232.3,T,250.2,M,012.1,N,022.3,K*4A
2017-11-04:05:12:59.343658 $GPRMC,000030.125,A,3934.8893,S,03727.7837,W,012.1,232.3,221294,17.8,W*4F
2017-11-04:05:12:59.597522 $GPZDA,000031.00,22,12,1994,00,00,*4E
2017-11-04:05:12:59.848711 $GPGGA,000031.125,3934.8914,S,03727.7872,W,1,06,1.4,031.8,M,004.1,M,,*69
2017-11-04:05:13:00.103112 $GPGLL,3934.8914,S,03727.7872,W,000031.125,A*3D
2017-11-04:05:13:00.353343 $GPVTG,232.4,T,250.2,M,012.1,N,022.4,K*4A
2017-11-04:05:13:00.603528 $GPRMC,000031.125,A,3934.8914,S,03727.7872,W,012.1,232.4,221294,17.8,W*46
2017-11-04:05:13:00.853614 $GPZDA,000032.00,22,12,1994,00,00,*4D
2017-11-04:05:13:01.108114 $GPGGA,000032.125,3934.8934,S,03727.7905,W,1,06,1.4,030.9,M,004.1,M,,*69
2017-11-04:05:13:01.362166 $GPGLL,3934.8934,S,03727.7905,W,000032.125,A*3D
2017-11-04:05:13:01.613206 $GPVTG,230.0,T,247.9,M,011.2,N,020.7,K*40
2017-11-04:05:13:01.867198 $GPRMC,000032.125,A,3934.8934,S,03727.7905,W,011.2,230.0,221294,17.8,W*40
2017-11-04:05:13:02.117690 $GPZDA,000033.00,22,12,1994,00,00,*4C
2017-11-04:05:13:02.367993 $GPGGA,000033.125,3934.8953,S,03727.7932,W,1,06,1.4,030.2,M,004.1,M,,*66
2017-11-04:05:13:02.622824 $GPGLL,3934.8953,S,03727.7932,W,000033.125,A*39
2017-11-04:05:13:02.876937 $GPVTG,226.8,T,244.7,M,009.4,N,017.4,K*4A
2017-11-04:05:13:03.127915 $GPRMC,000033.125,A,3934.8953,S,03727.7932,W,009.4,226.8,221294,17.8,W*44
2017-11-04:05:13:03.382292 $GPZDA,000034.00,22,12,1994,00,00,*4B
2017-11-04:05:13:03.634029 $GPGGA,000034.125,3934.8970,S,03727.7954,W,1,06,1.4,030.0,M,004.1,M,,*62
2017-11-04:05:13:03.888471 $GPGLL,3934.8970,S,03727.7954,W,000034.125,A*3F
2017-11-04:05:13:04.138512 $GPVTG,223.4,T,241.3,M,008.1,N,014.9,K*48
2017-11-04:05:13:04.389289 $GPRMC,000034.125,A,3934.8970,S,03727.7954,W,008.1,223.4,221294,17.8,W*4F
2017-11-04:05:13:04.642779 $GPZDA,000035.00,22,12,1994,00,00,*4A
2017-11-04:05:13:04.895033 $GPZDA,000036.00,22,12,1994,00,00,*49
2017-11-04:05:13:05.147713 $GPGGA,000035.125,3934.8985,S,03727.7972,W,1,06,1.4,030.3,M,004.1,M,,*6E
2017-11-04:05:13:05.403118 $GPGLL,3934.8985,S,03727.7972,W,000035.125,A*30
2017-11-04:05:13:05.657941 $GPVTG,222.5,T,240.3,M,008.1,N,015.0,K*41
2017-11-04:05:13:05.908264 $GPRMC,000035.125,A,3934.8985,S,03727.7972,W,008.1,222.5,221294,17.8,W*40
2017-11-04:05:13:06.163547 $GPGGA,000036.125,3934.9006,S,03727.7993,W,1,06,1.4,031.9,M,004.1,M,,*6A
2017-11-04:05:13:06.418653 $GPGLL,3934.9006,S,03727.7993,W,000036.125,A*3F
2017-11-04:05:13:06.672184 $GPVTG,223.1,T,241.0,M,010.2,N,018.8,K*49
2017-11-04:05:13:06.923975 $GPRMC,000036.125,A,3934.9006,S,03727.7993,W,010.2,223.1,221294,17.8,W*40
2017-11-04:05:13:07.174445 $GPZDA,000037.00,22,12,1994,00,00,*48
2017-11-04:05:13:07.425123 $GPGGA,000037.125,3934.9028,S,03727.8024,W,1,06,1.4,033.2,M,004.1,M,,*64
2017-11-04:05:13:07.678525 $GPGLL,3934.9028,S,03727.8024,W,000037.125,A*38
2017-11-04:05:13:07.928845 $GPVTG,228.2,T,246.0,M,012.7,N,023.5,K*44
2017-11-04:05:13:08.183421 $GPRMC,000037.125,A,3934.9028,S,03727.8024,W,012.7,228.2,221294,17.8,W*48
2017-11-04:05:13:08.436451 $GPZDA,000038.00,22,12,1994,00,00,*47
2017-11-04:05:13:08.688613 $GPGGA,000038.125,3934.9054,S,03727.8062,W,1,06,1.4,033.8,M,004.1,M,,*68
2017-11-04:05:13:08.943939 $GPGLL,3934.9054,S,03727.8062,W,000038.125,A*3E
2017-11-04:05:13:09.198545 $GPVTG,229.2,T,247.1,M,014.4,N,026.6,K*46
2017-11-04:05:13:09.448961 $GPRMC,000038.125,A,3934.9054,S,03727.8062,W,014.4,229.2,221294,17.8,W*4A
2017-11-04:05:13:09.700193 $GPZDA,000039.00,22,12,1994,00,00,*46
2017-11-04:05:13:09.953827 $GPGGA,000039.125,3934.9075,S,03727.8102,W,1,06,1.4,032.4,M,004.1,M,,*60
2017-11-04:05:13:10.209098 $GPGLL,3934.9075,S,03727.8102,W,000039.125,A*3B
2017-11-04:05:13:10.464348 $GPVTG,232.0,T,249.8,M,012.9,N,023.9,K*48
2017-11-04:05:13:10.717431 $GPRMC,000039.125,A,3934.9075,S,03727.8102,W,012.9,232.0,221294,17.8,W*4C
2017-11-04:05:13:10.969595 $GPZDA,000040.00,22,12,1994,00,00,*48
2017-11-04:05:13:11.224915 $GPGGA,000040.125,3934.9095,S,03727.8134,W,1,06,1.4,031.2,M,004.1,M,,*60
2017-11-04:05:13:11.478916 $GPGLL,3934.9095,S,03727.8134,W,000040.125,A*3E
2017-11-04:05:13:11.729999 $GPVTG,230.5,T,248.3,M,010.1,N,018.7,K*49
2017-11-04:05:13:11.982054 $GPRMC,000040.125,A,3934.9095,S,03727.8134,W,010.1,230.5,221294,17.8,W*44
2017-11-04:05:13:12.234380 $GPZDA,000041.00,22,12,1994,00,00,*49
2017-11-04:05:13:12.484947 $GPGGA,000041.125,3934.9110,S,03727.8158,W,1,06,1.4,030.4,M,004.1,M,,*60
2017-11-04:05:13:12.739976 $GPGLL,3934.9110,S,03727.8158,W,000041.125,A*39
2017-11-04:05:13:12.995323 $GPVTG,230.2,T,248.1,M,007.9,N,014.7,K*4E
2017-11-04:05:13:13.246724 $GPRMC,000041.125,A,3934.9110,S,03727.8158,W,007.9,230.2,221294,17.8,W*4A
2017-11-04:05:13:13.500341 $GPZDA,000042.00,22,12,1994,00,00,*4A
2017-11-04:05:13:13.752231 $GPGGA,000042.125,3934.9126,S,03727.8178,W,1,06,1.4,030.3,M,004.1,M,,*63
2017-11-04:05:13:14.005130 $GPGLL,3934.9126,S,03727.8178,W,000042.125,A*3D
2017-11-04:05:13:14.260608 $GPVTG,224.9,T,242.8,M,008.4,N,015.5,K*42
2017-11-04:05:13:14.522905 $GPRMC,000042.125,A,3934.9126,S,03727.8178,W,008.4,224.9,221294,17.8,W*42
2017-11-04:05:13:14.777375 $GPZDA,000043.00,22,12,1994,00,00,*4B
2017-11-04:05:13:15.032499 $GPGGA,000043.125,3934.9144,S,03727.8201,W,1,06,1.4,030.6,M,004.1,M,,*6E
2017-11-04:05:13:15.286919 $GPGLL,3934.9144,S,03727.8201,W,000043.125,A*35
2017-11-04:05:13:15.538540 $GPVTG,224.7,T,242.6,M,009.8,N,018.2,K*45
2017-11-04:05:13:15.792861 $GPRMC,000043.125,A,3934.9144,S,03727.8201,W,009.8,224.7,221294,17.8,W*49
2017-11-04:05:13:16.048239 $GPZDA,000044.00,22,12,1994,00,00,*4C
2017-11-04:05:13:16.299158 $GPGGA,000044.125,3934.9165,S,03727.8229,W,1,06,1.4,031.3,M,004.1,M,,*64
2017-11-04:05:13:16.553182 $GPGLL,3934.9165,S,03727.8229,W,000044.125,A*3B
2017-11-04:05:13:16.804021 $GPVTG,227.0,T,244.9,M,011.1,N,020.6,K*47
2017-11-04:05:13:17.058490 $GPRMC,000044.125,A,3934.9165,S,03727.8229,W,011.1,227.0,221294,17.8,W*43
2017-11-04:05:13:17.313679 $GPZDA,000045.00,22,12,1994,00,00,*4D
2017-11-04:05:13:17.569043 $GPGGA,000045.125,3934.9187,S,03727.8260,W,1,06,1.4,032.1,M,004.1,M,,*65
2017-11-04:05:13:17.819877 $GPGLL,3934.9187,S,03727.8260,W,000045.125,A*3B
2017-11-04:05:13:18.073314 $GPVTG,229.3,T,247.2,M,011.9,N,022.0,K*4E
2017-11-04:05:13:18.323434 $GPRMC,000045.125,A,3934.9187,S,03727.8260,W,011.9,229.3,221294,17.8,W*46
2017-11-04:05:13:18.574539 $GPZDA,000046.00,22,12,1994,00,00,*4E
2017-11-04:05:13:18.828740 $GPGGA,000046.125,3934.9208,S,03727.8292,W,1,06,1.4,032.5,M,004.1,M,,*6B
2017-11-04:05:13:19.078879 $GPGLL,3934.9208,S,03727.8292,W,000046.125,A*31
2017-11-04:05:13:19.329494 $GPVTG,232.0,T,249.8,M,011.7,N,021.6,K*48
2017-11-04:05:13:19.583247 $GPRMC,000046.125,A,3934.9208,S,03727.8292,W,011.7,232.0,221294,17.8,W*4B
2017-11-04:05:13:19.835071 $GPZDA,000047.00,22,12,1994,00,00,*4F
2017-11-04:05:13:20.087973 $GPGGA,000047.125,3934.9227,S,03727.8325,W,1,06,1.4,032.7,M,004.1,M,,*68
2017-11-04:05:13:20.339509 $GPGLL,3934.9227,S,03727.8325,W,000047.125,A*30
2017-11-04:05:13:20.593203 $GPVTG,231.8,T,249.7,M,011.1,N,020.5,K*48
2017-11-04:05:13:20.848550 $GPRMC,000047.125,A,3934.9227,S,03727.8325,W,011.1,231.8,221294,17.8,W*47
2017-11-04:05:13:21.102617 $GPZDA,000048.00,22,12,1994,00,00,*40
2017-11-04:05:13:21.352792 $GPGGA,000048.125,3934.9245,S,03727.8356,W,1,06,1.4,032.0,M,004.1,M,,*60
2017-11-04:05:13:21.608100 $GPGLL,3934.9245,S,03727.8356,W,000048.125,A*3F
2017-11-04:05:13:21.858428 $GPVTG,230.3,T,248.2,M,011.1,N,020.6,K*45
2017-11-04:05:13:22.113869 $GPRMC,000048.125,A,3934.9245,S,03727.8356,W,011.1,230.3,221294,17.8,W*42
2017-11-04:05:13:22.367288 $GPZDA,000049.00,22,12,1994,00,00,*41
2017-11-04:05:13:22.618850 $GPZDA,000050.00,22,12,1994,00,00,*49
2017-11-04:05:13:22.873627 $GPGGA,000049.125,3934.9266,S,03727.8387,W,1,06,1.4,031.2,M,004.1,M,,*6D
2017-11-04:05:13:23.127504 $GPGLL,3934.9266,S,03727.8387,W,000049.125,A*33
2017-11-04:05:13:23.379279 $GPVTG,227.6,T,245.4,M,011.4,N,021.1,K*4E
2017-11-04:05:13:23.634533 $GPRMC,000049.125,A,3934.9266,S,03727.8387,W,011.4,227.6,221294,17.8,W*48
2017-11-04:05:13:23.889766 $GPGGA,000050.125,3934.9287,S,03727.8415,W,1,06,1.4,030.6,M,004.1,M,,*63
2017-11-04:05:13:24.145196 $GPGLL,3934.9287,S,03727.8415,W,000050.125,A*38
2017-11-04:05:13:24.395464 $GPVTG,225.1,T,242.9,M,010.4,N,019.3,K*49
2017-11-04:05:13:24.650336 $GPRMC,000050.125,A,3934.9287,S,03727.8415,W,010.4,225.1,221294,17.8,W*47
2017-11-04:05:13:24.900424 $GPZDA,000051.00,22,12,1994,00,00,*48
2017-11-04:05:13:25.155102 $GPGGA,000051.125,3934.9306,S,03727.8439,W,1,06,1.4,030.6,M,004.1,M,,*64
2017-11-04:05:13:25.410409 $GPGLL,3934.9306,S,03727.8439,W,000051.125,A*3F
2017-11-04:05:13:25.665683 $GPVTG,222.7,T,240.5,M,009.1,N,016.8,K*4F
2017-11-04:05:13:25.920390 $GPRMC,000051.125,A,3934.9306,S,03727.8439,W,009.1,222.7,221294,17.8,W*4C
2017-11-04:05:13:26.170977 $GPZDA,000052.00,22,12,1994,00,00,*4B
2017-11-04:05:13:26.426322 $GPGGA,000052.125,3934.9324,S,03727.8461,W,1,06,1.4,031.3,M,004.1,M,,*6E
2017-11-04:05:13:26.681628 $GPGLL,3934.9324,S,03727.8461,W,000052.125,A*31
2017-11-04:05:13:26.935599 $GPVTG,224.1,T,242.0,M,008.9,N,016.6,K*4F
2017-11-04:05:13:27.186218 $GPRMC,000052.125,A,3934.9324,S,03727.8461,W,008.9,224.1,221294,17.8,W*4B
2017-11-04:05:13:27.441586 $GPZDA,000053.00,22,12,1994,00,00,*4A
2017-11-04:05:13:27.696234 $GPGGA,000053.125,3934.9343,S,03727.8486,W,1,06,1.4,032.2,M,004.1,M,,*65
2017-11-04:05:13:27.946883 $GPGLL,3934.9343,S,03727.8486,W,000053.125,A*38
2017-11-04:05:13:28.199314 $GPVTG,227.7,T,245.5,M,010.6,N,019.7,K*40
2017-11-04:05:13:28.449491 $GPRMC,000053.125,A,3934.9343,S,03727.8486,W,010.6,227.7,221294,17.8,W*41
2017-11-04:05:13:28.701732 $GPZDA,000054.00,22,12,1994,00,00,*4D
2017-11-04:05:13:28.957046 $GPGGA,000054.125,3934.9365,S,03727.8518,W,1,06,1.4,032.5,M,004.1,M,,*67
2017-11-04:05:13:29.212360 $GPGLL,3934.9365,S,03727.8518,W,000054.125,A*3D
2017-11-04:05:13:29.467128 $GPVTG,229.1,T,246.9,M,013.0,N,024.0,K*4B
2017-11-04:05:13:29.722494 $GPRMC,000054.125,A,3934.9365,S,03727.8518,W,013.0,229.1,221294,17.8,W*49
2017-11-04:05:13:29.972866 $GPZDA,000055.00,22,12,1994,00,00,*4C
2017-11-04:05:13:30.228196 $GPGGA,000055.125,3934.9389,S,03727.8554,W,1,06,1.4,032.2,M,004.1,M,,*6B
2017-11-04:05:13:30.478512 $GPGLL,3934.9389,S,03727.8554,W,000055.125,A*36
2017-11-04:05:13:30.732849 $GPVTG,228.0,T,245.9,M,013.1,N,024.3,K*4A
2017-11-04:05:13:30.982989 $GPRMC,000055.125,A,3934.9389,S,03727.8554,W,013.1,228.0,221294,17.8,W*43
2017-11-04:05:13:31.238017 $GPZDA,000056.00,22,12,1994,00,00,*4F
2017-11-04:05:13:31.493334 $GPGGA,000056.125,3934.9411,S,03727.8586,W,1,06,1.4,031.7,M,004.1,M,,*67
2017-11-04:05:13:31.744367 $GPGLL,3934.9411,S,03727.8586,W,000056.125,A*3C
2017-11-04:05:13:31.998544 $GPVTG,227.9,T,245.7,M,011.0,N,020.3,K*45
2017-11-04:05:13:32.252697 $GPRMC,000056.125,A,3934.9411,S,03727.8586,W,011.0,227.9,221294,17.8,W*4C
2017-11-04:05:13:32.503432 $GPZDA,000057.00,22,12,1994,00,00,*4E
2017-11-04:05:13:32.758719 $GPGGA,000057.125,3934.9430,S,03727.8612,W,1,06,1.4,031.4,M,004.1,M,,*68
2017-11-04:05:13:33.013977 $GPGLL,3934.9430,S,03727.8612,W,000057.125,A*30
2017-11-04:05:13:33.269239 $GPVTG,229.1,T,246.9,M,009.0,N,016.7,K*46
2017-11-04:05:13:33.524645 $GPRMC,000057.125,A,3934.9430,S,03727.8612,W,009.0,229.1,221294,17.8,W*4F
2017-11-04:05:13:33.774769 $GPZDA,000058.00,22,12,1994,00,00,*41
2017-11-04:05:13:34.030063 $GPGGA,000058.125,3934.9446,S,03727.8636,W,1,06,1.4,031.6,M,004.1,M,,*62
2017-11-04:05:13:34.285384 $GPGLL,3934.9446,S,03727.8636,W,000058.125,A*38
2017-11-04:05:13:34.540727 $GPVTG,229.5,T,247.4,M,009.1,N,016.8,K*40
2017-11-04:05:13:34.796060 $GPRMC,000058.125,A,3934.9446,S,03727.8636,W,009.1,229.5,221294,17.8,W*42
2017-11-04:05:13:35.051348 $GPZDA,000059.00,22,12,1994,00,00,*40
2017-11-04:05:13:35.306595 $GPGGA,000059.125,3934.9464,S,03727.8663,W,1,06,1.4,031.8,M,004.1,M,,*6D
2017-11-04:05:13:35.561980 $GPGLL,3934.9464,S,03727.8663,W,000059.125,A*39
2017-11-04:05:13:35.812119 $GPVTG,229.1,T,246.9,M,011.0,N,020.3,K*4E
2017-11-04:05:13:36.064974 $GPRMC,000059.125,A,3934.9464,S,03727.8663,W,011.0,229.1,221294,17.8,W*4F
2017-11-04:05:13:36.316918 $GPZDA,000100.00,22,12,1994,00,00,*4D
2017-11-04:05:13:36.572012 $GPGGA,000100.125,3934.9486,S,03727.8696,W,1,06,1.4,031.5,M,004.1,M,,*6B
2017-11-04:05:13:36.827316 $GPGLL,3934.9486,S,03727.8696,W,000100.125,A*32
2017-11-04:05:13:37.082606 $GPVTG,228.7,T,246.6,M,012.7,N,023.5,K*47
2017-11-04:05:13:37.333021 $GPRMC,000100.125,A,3934.9486,S,03727.8696,W,012.7,228.7,221294,17.8,W*47
2017-11-04:05:13:37.586074 $GPZDA,000101.00,22,12,1994,00,00,*4C
2017-11-04:05:13:37.837522 $GPGGA,000101.125,3934.9508,S,03727.8729,W,1,06,1.4,031.2,M,004.1,M,,*6F
2017-11-04:05:13:38.092894 $GPGLL,3934.9508,S,03727.8729,W,000101.125,A*31
2017-11-04:05:13:38.348195 $GPVTG,228.8,T,246.7,M,011.5,N,021.2,K*4D
2017-11-04:05:13:38.599928 $GPRMC,000101.125,A,3934.9508,S,03727.8729,W,011.5,228.8,221294,17.8,W*4A
2017-11-04:05:13:38.853258 $GPZDA,000102.00,22,12,1994,00,00,*4F
2017-11-04:05:13:39.103442 $GPZDA,000103.00,22,12,1994,00,00,*4E
2017-11-04:05:13:39.358455 $GPGGA,000102.125,3934.9527,S,03727.8757,W,1,06,1.4,031.2,M,004.1,M,,*68
2017-11-04:05:13:39.613672 $GPGLL,3934.9527,S,03727.8757,W,000102.125,A*36
2017-11-04:05:13:39.868962 $GPVTG,229.5,T,247.3,M,009.4,N,017.3,K*48
2017-11-04:05:13:40.124232 $GPRMC,000102.125,A,3934.9527,S,03727.8757,W,009.4,229.5,221294,17.8,W*49
2017-11-04:05:13:40.379467 $GPGGA,000103.125,3934.9542,S,03727.8781,W,1,06,1.4,031.8,M,004.1,M,,*6B
2017-11-04:05:13:40.629559 $GPGLL,3934.9542,S,03727.8781,W,000103.125,A*3F
2017-11-04:05:13:40.884840 $GPVTG,233.5,T,251.3,M,008.6,N,015.9,K*4F
2017-11-04:05:13:41.140253 $GPRMC,000103.125,A,3934.9542,S,03727.8781,W,008.6,233.5,221294,17.8,W*48
2017-11-04:05:13:41.395597 $GPZDA,000104.00,22,12,1994,00,00,*49
2017-11-04:05:13:41.650919 $GPZDA,000105.00,22,12,1994,00,00,*48
2017-11-04:05:13:41.902498 $GPGGA,000104.125,3934.9557,S,03727.8809,W,1,06,1.4,032.6,M,004.1,M,,*6A
2017-11-04:05:13:42.156083 $GPGLL,3934.9557,S,03727.8809,W,000104.125,A*33
2017-11-04:05:13:42.411310 $GPVTG,235.2,T,253.1,M,010.4,N,019.2,K*42
2017-11-04:05:13:42.666641 $GPRMC,000104.125,A,3934.9557,S,03727.8809,W,010.4,235.2,221294,17.8,W*4E
2017-11-04:05:13:42.921968 $GPGGA,000105.125,3934.9576,S,03727.8843,W,1,06,1.4,032.8,M,004.1,M,,*68
2017-11-04:05:13:43.177372 $GPGLL,3934.9576,S,03727.8843,W,000105.125,A*3F
2017-11-04:05:13:43.432661 $GPVTG,233.4,T,251.2,M,012.6,N,023.3,K*4B
2017-11-04:05:13:43.683851 $GPRMC,000105.125,A,3934.9576,S,03727.8843,W,012.6,233.4,221294,17.8,W*42
2017-11-04:05:13:43.937950 $GPZDA,000106.00,22,12,1994,00,00,*4B
2017-11-04:05:13:44.193254 $GPGGA,000106.125,3934.9599,S,03727.8880,W,1,06,1.4,032.1,M,004.1,M,,*6C
2017-11-04:05:13:44.448608 $GPGLL,3934.9599,S,03727.8880,W,000106.125,A*32
2017-11-04:05:13:44.702741 $GPVTG,230.2,T,248.0,M,013.0,N,024.0,K*47
2017-11-04:05:13:44.953582 $GPRMC,000106.125,A,3934.9599,S,03727.8880,W,013.0,230.2,221294,17.8,W*4D
2017-11-04:05:13:45.208898 $GPZDA,000107.00,22,12,1994,00,00,*4A
2017-11-04:05:13:45.459121 $GPGGA,000107.125,3934.9621,S,03727.8912,W,1,06,1.4,031.2,M,004.1,M,,*67
2017-11-04:05:13:45.714026 $GPGLL,3934.9621,S,03727.8912,W,000107.125,A*39
2017-11-04:05:13:45.969343 $GPVTG,225.6,T,243.5,M,010.9,N,020.3,K*44
2017-11-04:05:13:46.223797 $GPRMC,000107.125,A,3934.9621,S,03727.8912,W,010.9,225.6,221294,17.8,W*4C
2017-11-04:05:13:46.479035 $GPZDA,000108.00,22,12,1994,00,00,*45
2017-11-04:05:13:46.729320 $GPGGA,000108.125,3934.9641,S,03727.8936,W,1,06,1.4,030.8,M,004.1,M,,*63
2017-11-04:05:13:46.984451 $GPGLL,3934.9641,S,03727.8936,W,000108.125,A*36
2017-11-04:05:13:47.234813 $GPVTG,221.9,T,239.7,M,009.2,N,017.1,K*45
2017-11-04:05:13:47.485098 $GPRMC,000108.125,A,3934.9641,S,03727.8936,W,009.2,221.9,221294,17.8,W*4B
2017-11-04:05:13:47.739852 $GPZDA,000109.00,22,12,1994,00,00,*44
2017-11-04:05:13:47.995114 $GPZDA,000110.00,22,12,1994,00,00,*4C
2017-11-04:05:13:48.250419 $GPGGA,000109.125,3934.9658,S,03727.8958,W,1,06,1.4,031.1,M,004.1,M,,*6A
2017-11-04:05:13:48.505762 $GPGLL,3934.9658,S,03727.8958,W,000109.125,A*37
2017-11-04:05:13:48.761178 $GPVTG,227.2,T,245.0,M,008.9,N,016.5,K*4B
2017-11-04:05:13:49.016487 $GPRMC,000109.125,A,3934.9658,S,03727.8958,W,008.9,227.2,221294,17.8,W*4D
2017-11-04:05:13:49.271825 $GPGGA,000110.125,3934.9675,S,03727.8985,W,1,06,1.4,031.8,M,004.1,M,,*64
2017-11-04:05:13:49.527197 $GPGLL,3934.9675,S,03727.8985,W,000110.125,A*30
2017-11-04:05:13:49.782524 $GPVTG,232.5,T,250.4,M,010.2,N,018.9,K*48
2017-11-04:05:13:50.036098 $GPRMC,000110.125,A,3934.9675,S,03727.8985,W,010.2,232.5,221294,17.8,W*4B
2017-11-04:05:13:50.287676 $GPZDA,000111.00,22,12,1994,00,00,*4D
2017-11-04:05:13:50.543128 $GPGGA,000111.125,3934.9693,S,03727.9015,W,1,06,1.4,032.3,M,004.1,M,,*64
2017-11-04:05:13:50.798434 $GPGLL,3934.9693,S,03727.9015,W,000111.125,A*38
2017-11-04:05:13:51.050278 $GPVTG,232.8,T,250.7,M,011.1,N,020.6,K*40
2017-11-04:05:13:51.303563 $GPRMC,000111.125,A,3934.9693,S,03727.9015,W,011.1,232.8,221294,17.8,W*4C
2017-11-04:05:13:51.558915 $GPZDA,000112.00,22,12,1994,00,00,*4E
2017-11-04:05:13:51.814224 $GPGGA,000112.125,3934.9714,S,03727.9048,W,1,06,1.4,032.4,M,004.1,M,,*66
2017-11-04:05:13:52.069545 $GPGLL,3934.9714,S,03727.9048,W,000112.125,A*3D
2017-11-04:05:13:52.324845 $GPVTG,229.4,T,247.2,M,011.7,N,021.7,K*43
2017-11-04:05:13:52.580332 $GPRMC,000112.125,A,3934.9714,S,03727.9048,W,011.7,229.4,221294,17.8,W*49
2017-11-04:05:13:52.835564 $GPZDA,000113.00,22,12,1994,00,00,*4F
2017-11-04:05:13:53.090852 $GPGGA,000113.125,3934.9735,S,03727.9080,W,1,06,1.4,032.2,M,004.1,M,,*66
2017-11-04:05:13:53.346163 $GPGLL,3934.9735,S,03727.9080,W,000113.125,A*3B
2017-11-04:05:13:53.601483 $GPVTG,229.2,T,247.0,M,011.9,N,022.1,K*4C
2017-11-04:05:13:53.856782 $GPRMC,000113.125,A,3934.9735,S,03727.9080,W,011.9,229.2,221294,17.8,W*47
2017-11-04:05:13:54.107054 $GPZDA,000114.00,22,12,1994,00,00,*48
2017-11-04:05:13:54.362424 $GPGGA,000114.125,3934.9756,S,03727.9112,W,1,06,1.4,031.7,M,004.1,M,,*68
2017-11-04:05:13:54.617761 $GPGLL,3934.9756,S,03727.9112,W,000114.125,A*33
2017-11-04:05:13:54.873074 $GPVTG,231.1,T,249.0,M,011.5,N,021.4,K*42
2017-11-04:05:13:55.128422 $GPRMC,000114.125,A,3934.9756,S,03727.9112,W,011.5,231.1,221294,17.8,W*49
2017-11-04:05:13:55.381949 $GPZDA,000115.00,22,12,1994,00,00,*49
2017-11-04:05:13:55.633541 $GPGGA,000115.125,3934.9776,S,03727.9144,W,1,06,1.4,031.4,M,004.1,M,,*6B
2017-11-04:05:13:55.888856 $GPGLL,3934.9776,S,03727.9144,W,000115.125,A*33
2017-11-04:05:13:56.144256 $GPVTG,233.8,T,251.6,M,010.7,N,019.8,K*42
2017-11-04:05:13:56.399631 $GPRMC,000115.125,A,3934.9776,S,03727.9144,W,010.7,233.8,221294,17.8,W*41
2017-11-04:05:13:56.654911 $GPZDA,000116.00,22,12,1994,00,00,*4A
2017-11-04:05:13:56.910205 $GPGGA,000116.125,3934.9793,S,03727.9173,W,1,06,1.4,031.2,M,004.1,M,,*61
2017-11-04:05:13:57.164511 $GPGLL,3934.9793,S,03727.9173,W,000116.125,A*3F
2017-11-04:05:13:57.417265 $GPVTG,232.7,T,250.6,M,009.9,N,018.3,K*41
2017-11-04:05:13:57.670848 $GPRMC,000116.125,A,3934.9793,S,03727.9173,W,009.9,232.7,221294,17.8,W*45
2017-11-04:05:13:57.924927 $GPZDA,000117.00,22,12,1994,00,00,*4B
2017-11-04:05:13:58.176367 $GPGGA,000117.125,3934.9809,S,03727.9200,W,1,06,1.4,031.3,M,004.1,M,,*6A
2017-11-04:05:13:58.431186 $GPGLL,3934.9809,S,03727.9200,W,000117.125,A*35
2017-11-04:05:13:58.683313 $GPVTG,231.5,T,249.3,M,009.2,N,017.0,K*4A
2017-11-04:05:13:58.936470 $GPRMC,000117.125,A,3934.9809,S,03727.9200,W,009.2,231.5,221294,17.8,W*45
2017-11-04:05:13:59.191516 $GPZDA,000118.00,22,12,1994,00,00,*44
2017-11-04:05:13:59.446834 $GPZDA,000119.00,22,12,1994,00,00,*45
2017-11-04:05:13:59.702158 $GPGGA,000118.125,3934.9825,S,03727.9226,W,1,06,1.4,031.6,M,004.1,M,,*6A
2017-11-04:05:13:59.954367 $GPGLL,3934.9825,S,03727.9226,W,000118.125,A*30
2017-11-04:05:14:00.207335 $GPVTG,230.7,T,248.6,M,009.6,N,017.9,K*40
2017-11-04:05:14:00.462628 $GPRMC,000118.125,A,3934.9825,S,03727.9226,W,009.6,230.7,221294,17.8,W*47
2017-11-04:05:14:00.717929 $GPGGA,000119.125,3934.9844,S,03727.9256,W,1,06,1.4,031.9,M,004.1,M,,*64
2017-11-04:05:14:00.973267 $GPGLL,3934.9844,S,03727.9256,W,000119.125,A*31
2017-11-04:05:14:01.228567 $GPVTG,230.2,T,248.0,M,011.9,N,022.0,K*4A
2017-11-04:05:14:01.482418 $GPRMC,000119.125,A,3934.9844,S,03727.9256,W,011.9,230.2,221294,17.8,W*45
2017-11-04:05:14:01.733796 $GPZDA,000120.00,22,12,1994,00,00,*4F
2017-11-04:05:14:01.989209 $GPGGA,000120.125,3934.9867,S,03727.9291,W,1,06,1.4,031.8,M,004.1,M,,*65
2017-11-04:05:14:02.244548 $GPGLL,3934.9867,S,03727.9291,W,000120.125,A*31
2017-11-04:05:14:02.499924 $GPVTG,228.7,T,246.5,M,013.4,N,024.9,K*4D
2017-11-04:05:14:02.755214 $GPRMC,000120.125,A,3934.9867,S,03727.9291,W,013.4,228.7,221294,17.8,W*46
2017-11-04:05:14:03.010531 $GPZDA,000121.00,22,12,1994,00,00,*4E
2017-11-04:05:14:03.265840 $GPGGA,000121.125,3934.9892,S,03727.9326,W,1,06,1.4,031.6,M,004.1,M,,*6D
2017-11-04:05:14:03.519544 $GPGLL,3934.9892,S,03727.9326,W,000121.125,A*37
2017-11-04:05:14:03.771171 $GPVTG,228.0,T,245.9,M,012.0,N,022.2,K*4D
2017-11-04:05:14:04.026527 $GPRMC,000121.125,A,3934.9892,S,03727.9326,W,012.0,228.0,221294,17.8,W*42
2017-11-04:05:14:04.281812 $GPZDA,000122.00,22,12,1994,00,00,*4D
2017-11-04:05:14:04.532594 $GPGGA,000122.125,3934.9911,S,03727.9354,W,1,06,1.4,031.6,M,004.1,M,,*61
2017-11-04:05:14:04.786371 $GPGLL,3934.9911,S,03727.9354,W,000122.125,A*3B
2017-11-04:05:14:05.041566 $GPVTG,229.4,T,247.3,M,009.0,N,016.7,K*48
2017-11-04:05:14:05.291789 $GPRMC,000122.125,A,3934.9911,S,03727.9354,W,009.0,229.4,221294,17.8,W*41
2017-11-04:05:14:05.547150 $GPZDA,000123.00,22,12,1994,00,00,*4C
2017-11-04:05:14:05.801090 $GPGGA,000123.125,3934.9926,S,03727.9377,W,1,06,1.4,032.0,M,004.1,M,,*60
2017-11-04:05:14:06.052141 $GPGLL,3934.9926,S,03727.9377,W,000123.125,A*3F
2017-11-04:05:14:06.307509 $GPVTG,231.0,T,248.9,M,008.2,N,015.3,K*44
2017-11-04:05:14:06.562863 $GPRMC,000123.125,A,3934.9926,S,03727.9377,W,008.2,231.0,221294,17.8,W*4B
2017-11-04:05:14:06.813656 $GPZDA,000124.00,22,12,1994,00,00,*4B
2017-11-04:05:14:07.067988 $GPGGA,000124.125,3934.9941,S,03727.9402,W,1,06,1.4,032.4,M,004.1,M,,*67
2017-11-04:05:14:07.323286 $GPGLL,3934.9941,S,03727.9402,W,000124.125,A*3C
2017-11-04:05:14:07.578667 $GPVTG,231.5,T,249.4,M,010.6,N,019.6,K*49
2017-11-04:05:14:07.833988 $GPRMC,000124.125,A,3934.9941,S,03727.9402,W,010.6,231.5,221294,17.8,W*40
2017-11-04:05:14:08.089315 $GPZDA,000125.00,22,12,1994,00,00,*4A
2017-11-04:05:14:08.344657 $GPGGA,000125.125,3934.9962,S,03727.9436,W,1,06,1.4,032.4,M,004.1,M,,*60
2017-11-04:05:14:08.599967 $GPGLL,3934.9962,S,03727.9436,W,000125.125,A*3B
2017-11-04:05:14:08.850203 $GPVTG,232.8,T,250.6,M,012.8,N,023.7,K*49
2017-11-04:05:14:09.105216 $GPRMC,000125.125,A,3934.9962,S,03727.9436,W,012.8,232.8,221294,17.8,W*45
2017-11-04:05:14:09.360561 $GPZDA,000126.00,22,12,1994,00,00,*49
2017-11-04:05:14:09.615977 $GPGGA,000126.125,3934.9984,S,03727.9473,W,1,06,1.4,031.6,M,004.1,M,,*6B
2017-11-04:05:14:09.869831 $GPGLL,3934.9984,S,03727.9473,W,000126.125,A*31
2017-11-04:05:14:10.120892 $GPVTG,231.7,T,249.5,M,012.6,N,023.4,K*43
2017-11-04:05:14:10.376220 $GPRMC,000126.125,A,3934.9984,S,03727.9473,W,012.6,231.7,221294,17.8,W*4D
2017-11-04:05:14:10.631554 $GPZDA,000127.00,22,12,1994,00,00,*48
2017-11-04:05:14:10.886222 $GPZDA,000128.00,22,12,1994,00,00,*47
2017-11-04:05:14:11.141524 $GPGGA,000127.125,3935.0006,S,03727.9505,W,1,06,1.4,030.8,M,004.1,M,,*6E
2017-11-04:05:14:11.392176 $GPGLL,3935.0006,S,03727.9505,W,000127.125,A*3B
2017-11-04:05:14:11.647488 $GPVTG,227.2,T,245.0,M,010.9,N,020.1,K*43
2017-11-04:05:14:11.902808 $GPRMC,000127.125,A,3935.0006,S,03727.9505,W,010.9,227.2,221294,17.8,W*48
2017-11-04:05:14:12.158127 $GPGGA,000128.125,3935.0025,S,03727.9531,W,1,06,1.4,030.6,M,004.1,M,,*69
2017-11-04:05:14:12.413210 $GPGLL,3935.0025,S,03727.9531,W,000128.125,A*32
2017-11-04:05:14:12.668498 $GPVTG,226.6,T,244.4,M,009.2,N,017.1,K*44
2017-11-04:05:14:12.918762 $GPRMC,000128.125,A,3935.0025,S,03727.9531,W,009.2,226.6,221294,17.8,W*47
2017-11-04:05:14:13.173941 $GPZDA,000129.00,22,12,1994,00,00,*46
2017-11-04:05:14:13.425510 $GPGGA,000129.125,3935.0042,S,03727.9555,W,1,06,1.4,031.3,M,004.1,M,,*6F
2017-11-04:05:14:13.679044 $GPGLL,3935.0042,S,03727.9555,W,000129.125,A*30
2017-11-04:05:14:13.933068 $GPVTG,230.5,T,248.4,M,009.3,N,017.2,K*4E
2017-11-04:05:14:14.184022 $GPRMC,000129.125,A,3935.0042,S,03727.9555,W,009.3,230.5,221294,17.8,W*40
2017-11-04:05:14:14.439300 $GPZDA,000130.00,22,12,1994,00,00,*4E
2017-11-04:05:14:14.694617 $GPGGA,000130.125,3935.0058,S,03727.9583,W,1,06,1.4,032.3,M,004.1,M,,*64
2017-11-04:05:14:14.945493 $GPGLL,3935.0058,S,03727.9583,W,000130.125,A*38
2017-11-04:05:14:15.199748 $GPVTG,233.4,T,251.2,M,010.5,N,019.5,K*45
2017-11-04:05:14:15.450142 $GPRMC,000130.125,A,3935.0058,S,03727.9583,W,010.5,233.4,221294,17.8,W*44
2017-11-04:05:14:15.704653 $GPZDA,000131.00,22,12,1994,00,00,*4F
2017-11-04:05:14:15.955240 $GPGGA,000131.125,3935.0078,S,03727.9615,W,1,06,1.4,033.2,M,004.1,M,,*6B
2017-11-04:05:14:16.209760 $GPGLL,3935.0078,S,03727.9615,W,000131.125,A*37
2017-11-04:05:14:16.464309 $GPVTG,234.1,T,252.0,M,011.6,N,021.4,K*4E
2017-11-04:05:14:16.714431 $GPRMC,000131.125,A,3935.0078,S,03727.9615,W,011.6,234.1,221294,17.8,W*4B
2017-11-04:05:14:16.966578 $GPZDA,000132.00,22,12,1994,00,00,*4C
2017-11-04:05:14:17.219687 $GPGGA,000132.125,3935.0097,S,03727.9649,W,1,06,1.4,033.1,M,004.1,M,,*63
2017-11-04:05:14:17.475010 $GPGLL,3935.0097,S,03727.9649,W,000132.125,A*3C
2017-11-04:05:14:17.730353 $GPVTG,233.0,T,250.9,M,011.9,N,022.0,K*4B
2017-11-04:05:14:17.985664 $GPRMC,000132.125,A,3935.0097,S,03727.9649,W,011.9,233.0,221294,17.8,W*49
2017-11-04:05:14:18.240998 $GPZDA,000133.00,22,12,1994,00,00,*4D
2017-11-04:05:14:18.496258 $GPGGA,000133.125,3935.0119,S,03727.9682,W,1,06,1.4,032.4,M,004.1,M,,*66
2017-11-04:05:14:18.746422 $GPGLL,3935.0119,S,03727.9682,W,000133.125,A*3D
2017-11-04:05:14:19.001192 $GPVTG,229.1,T,246.9,M,011.8,N,021.9,K*4D
2017-11-04:05:14:19.251559 $GPRMC,000133.125,A,3935.0119,S,03727.9682,W,011.8,229.1,221294,17.8,W*43
2017-11-04:05:14:19.506394 $GPZDA,000134.00,22,12,1994,00,00,*4A
2017-11-04:05:14:19.761135 $GPGGA,000134.125,3935.0139,S,03727.9715,W,1,06,1.4,030.9,M,004.1,M,,*63
2017-11-04:05:14:20.011324 $GPGLL,3935.0139,S,03727.9715,W,000134.125,A*37
2017-11-04:05:14:20.266684 $GPVTG,226.2,T,244.0,M,011.7,N,021.6,K*4A
2017-11-04:05:14:20.521975 $GPRMC,000134.125,A,3935.0139,S,03727.9715,W,011.7,226.2,221294,17.8,W*4A
2017-11-04:05:14:20.777321 $GPZDA,000135.00,22,12,1994,00,00,*4B
2017-11-04:05:14:21.032764 $GPGGA,000135.125,3935.0161,S,03727.9745,W,1,06,1.4,030.4,M,004.1,M,,*67
2017-11-04:05:14:21.286291 $GPGLL,3935.0161,S,03727.9745,W,000135.125,A*3E
2017-11-04:05:14:21.538051 $GPVTG,226.7,T,244.5,M,011.1,N,020.6,K*4D
2017-11-04:05:14:21.793406 $GPRMC,000135.125,A,3935.0161,S,03727.9745,W,011.1,226.7,221294,17.8,W*40
2017-11-04:05:14:22.048475 $GPZDA,000136.00,22,12,1994,00,00,*48
2017-11-04:05:14:22.300748 $GPGGA,000136.125,3935.0179,S,03727.9771,W,1,06,1.4,030.5,M,004.1,M,,*6B
2017-11-04:05:14:22.552977 $GPGLL,3935.0179,S,03727.9771,W,000136.125,A*33
2017-11-04:05:14:22.804135 $GPVTG,228.8,T,246.6,M,009.4,N,017.4,K*47
2017-11-04:05:14:23.058829 $GPRMC,000136.125,A,3935.0179,S,03727.9771,W,009.4,228.8,221294,17.8,W*40
2017-11-04:05:14:23.314128 $GPZDA,000137.00,22,12,1994,00,00,*49
2017-11-04:05:14:23.565815 $GPZDA,000138.00,22,12,1994,00,00,*46
2017-11-04:05:14:23.819081 $GPGGA,000137.125,3935.0197,S,03727.9795,W,1,06,1.4,031.6,M,004.1,M,,*62
2017-11-04:05:14:24.074439 $GPGLL,3935.0197,S,03727.9795,W,000137.125,A*38
2017-11-04:05:14:24.329730 $GPVTG,230.3,T,248.1,M,008.7,N,016.0,K*4B
2017-11-04:05:14:24.583348 $GPRMC,000137.125,A,3935.0197,S,03727.9795,W,008.7,230.3,221294,17.8,W*4B
2017-11-04:05:14:24.836750 $GPGGA,000138.125,3935.0212,S,03727.9820,W,1,06,1.4,032.5,M,004.1,M,,*62
2017-11-04:05:14:25.090166 $GPGLL,3935.0212,S,03727.9820,W,000138.125,A*38
2017-11-04:05:14:25.345524 $GPVTG,232.0,T,249.8,M,009.6,N,017.8,K*4B
2017-11-04:05:14:25.600865 $GPRMC,000138.125,A,3935.0212,S,03727.9820,W,009.6,232.0,221294,17.8,W*4A
2017-11-04:05:14:25.855009 $GPZDA,000139.00,22,12,1994,00,00,*47
2017-11-04:05:14:26.105947 $GPGGA,000139.125,3935.0233,S,03727.9851,W,1,06,1.4,033.2,M,004.1,M,,*60
2017-11-04:05:14:26.361269 $GPGLL,3935.0233,S,03727.9851,W,000139.125,A*3C
2017-11-04:05:14:26.611566 $GPVTG,230.7,T,248.6,M,012.1,N,022.4,K*46
2017-11-04:05:14:26.865933 $GPRMC,000139.125,A,3935.0233,S,03727.9851,W,012.1,230.7,221294,17.8,W*46
2017-11-04:05:14:27.116859 $GPZDA,000140.00,22,12,1994,00,00,*49
2017-11-04:05:14:27.369365 $GPGGA,000140.125,3935.0256,S,03727.9888,W,1,06,1.4,033.0,M,004.1,M,,*6B
2017-11-04:05:14:27.620801 $GPGLL,3935.0256,S,03727.9888,W,000140.125,A*35
2017-11-04:05:14:27.876157 $GPVTG,230.8,T,248.7,M,014.0,N,025.8,K*44
2017-11-04:05:14:28.131465 $GPRMC,000140.125,A,3935.0256,S,03727.9888,W,014.0,230.8,221294,17.8,W*47
2017-11-04:05:14:28.383387 $GPZDA,000141.00,22,12,1994,00,00,*48
2017-11-04:05:14:28.636589 $GPGGA,000141.125,3935.0281,S,03727.9926,W,1,06,1.4,032.1,M,004.1,M,,*65
2017-11-04:05:14:28.891903 $GPGLL,3935.0281,S,03727.9926,W,000141.125,A*3B
2017-11-04:05:14:29.147259 $GPVTG,229.9,T,247.8,M,013.6,N,025.3,K*47
2017-11-04:05:14:29.402591 $GPRMC,000141.125,A,3935.0281,S,03727.9926,W,013.6,229.9,221294,17.8,W*41
2017-11-04:05:14:29.657928 $GPZDA,000142.00,22,12,1994,00,00,*4B
2017-11-04:05:14:29.913232 $GPGGA,000142.125,3935.0303,S,03727.9959,W,1,06,1.4,031.2,M,004.1,M,,*65
2017-11-04:05:14:30.168565 $GPGLL,3935.0303,S,03727.9959,W,000142.125,A*3B
2017-11-04:05:14:30.423986 $GPVTG,229.8,T,247.6,M,010.6,N,019.6,K*41
2017-11-04:05:14:30.679279 $GPRMC,000142.125,A,3935.0303,S,03727.9959,W,010.6,229.8,221294,17.8,W*43
2017-11-04:05:14:30.934583 $GPZDA,000143.00,22,12,1994,00,00,*4A
2017-11-04:05:14:31.187498 $GPGGA,000143.125,3935.0317,S,03727.9984,W,1,06,1.4,030.6,M,004.1,M,,*64
2017-11-04:05:14:31.439981 $GPGLL,3935.0317,S,03727.9984,W,000143.125,A*3F
2017-11-04:05:14:31.690095 $GPVTG,231.0,T,248.8,M,007.1,N,013.2,K*4E
2017-11-04:05:14:31.944923 $GPRMC,000143.125,A,3935.0317,S,03727.9984,W,007.1,231.0,221294,17.8,W*47
2017-11-04:05:14:32.195014 $GPZDA,000144.00,22,12,1994,00,00,*4D
2017-11-04:05:14:32.449986 $GPGGA,000144.125,3935.0328,S,03728.0002,W,1,06,1.4,031.2,M,004.1,M,,*6B
2017-11-04:05:14:32.700606 $GPGLL,3935.0328,S,03728.0002,W,000144.125,A*35
2017-11-04:05:14:32.954239 $GPVTG,234.1,T,252.0,M,006.5,N,012.1,K*4E
2017-11-04:05:14:33.204521 $GPRMC,000144.125,A,3935.0328,S,03728.0002,W,006.5,234.1,221294,17.8,W*4C
2017-11-04:05:14:33.458367 $GPZDA,000145.00,22,12,1994,00,00,*4C
2017-11-04:05:14:33.709697 $GPGGA,000145.125,3935.0340,S,03728.0027,W,1,06,1.4,032.2,M,004.1,M,,*60
2017-11-04:05:14:33.964987 $GPGLL,3935.0340,S,03728.0027,W,000145.125,A*3D
2017-11-04:05:14:34.219888 $GPVTG,236.9,T,254.8,M,009.9,N,018.3,K*41
2017-11-04:05:14:34.470148 $GPRMC,000145.125,A,3935.0340,S,03728.0027,W,009.9,236.9,221294,17.8,W*4D
2017-11-04:05:14:34.725011 $GPZDA,000146.00,22,12,1994,00,00,*4F
2017-11-04:05:14:34.980082 $GPGGA,000146.125,3935.0361,S,03728.0062,W,1,06,1.4,033.4,M,004.1,M,,*66
2017-11-04:05:14:35.230315 $GPGLL,3935.0361,S,03728.0062,W,000146.125,A*3C
2017-11-04:05:14:35.480954 $GPVTG,232.4,T,250.2,M,014.0,N,025.9,K*47
2017-11-04:05:14:35.735369 $GPRMC,000146.125,A,3935.0361,S,03728.0062,W,014.0,232.4,221294,17.8,W*40
2017-11-04:05:14:35.990618 $GPZDA,000147.00,22,12,1994,00,00,*4E
2017-11-04:05:14:36.242415 $GPGGA,000147.125,3935.0387,S,03728.0103,W,1,06,1.4,033.2,M,004.1,M,,*6F
2017-11-04:05:14:36.495610 $GPGLL,3935.0387,S,03728.0103,W,000147.125,A*33
2017-11-04:05:14:36.745777 $GPVTG,229.6,T,247.4,M,015.1,N,028.0,K*4B
2017-11-04:05:14:37.000399 $GPRMC,000147.125,A,3935.0387,S,03728.0103,W,015.1,229.6,221294,17.8,W*47
2017-11-04:05:14:37.255199 $GPZDA,000148.00,22,12,1994,00,00,*41
2017-11-04:05:14:37.505545 $GPGGA,000148.125,3935.0414,S,03728.0139,W,1,06,1.4,032.2,M,004.1,M,,*65
2017-11-04:05:14:37.760838 $GPGLL,3935.0414,S,03728.0139,W,000148.125,A*38
2017-11-04:05:14:38.014814 $GPVTG,225.8,T,243.6,M,012.2,N,022.5,K*44
2017-11-04:05:14:38.265925 $GPRMC,000148.125,A,3935.0414,S,03728.0139,W,012.2,225.8,221294,17.8,W*4A
2017-11-04:05:14:38.519563 $GPZDA,000149.00,22,12,1994,00,00,*40
2017-11-04:05:14:38.771040 $GPGGA,000149.125,3935.0430,S,03728.0165,W,1,06,1.4,030.8,M,004.1,M,,*63
2017-11-04:05:14:39.025493 $GPGLL,3935.0430,S,03728.0165,W,000149.125,A*36
2017-11-04:05:14:39.275975 $GPVTG,228.0,T,245.8,M,007.7,N,014.3,K*4B
2017-11-04:05:14:39.531239 $GPRMC,000149.125,A,3935.0430,S,03728.0165,W,007.7,228.0,221294,17.8,W*40
2017-11-04:05:14:39.786541 $GPZDA,000150.00,22,12,1994,00,00,*48
2017-11-04:05:14:40.041953 $GPGGA,000150.125,3935.0442,S,03728.0184,W,1,06,1.4,030.8,M,004.1,M,,*61
2017-11-04:05:14:40.293744 $GPGLL,3935.0442,S,03728.0184,W,000150.125,A*34
2017-11-04:05:14:40.545511 $GPVTG,232.6,T,250.5,M,006.3,N,011.7,K*4B
2017-11-04:05:14:40.796616 $GPRMC,000150.125,A,3935.0442,S,03728.0184,W,006.3,232.6,221294,17.8,W*4A
2017-11-04:05:14:41.051933 $GPZDA,000151.00,22,12,1994,00,00,*49
2017-11-04:05:14:41.302787 $GPGGA,000151.125,3935.0453,S,03728.0206,W,1,06,1.4,031.4,M,004.1,M,,*64
2017-11-04:05:14:41.556907 $GPGLL,3935.0453,S,03728.0206,W,000151.125,A*3C
2017-11-04:05:14:41.808480 $GPVTG,238.0,T,255.8,M,008.7,N,016.1,K*44
2017-11-04:05:14:42.061866 $GPRMC,000151.125,A,3935.0453,S,03728.0206,W,008.7,238.0,221294,17.8,W*44
2017-11-04:05:14:42.313250 $GPZDA,000152.00,22,12,1994,00,00,*4A
2017-11-04:05:14:42.566924 $GPGGA,000152.125,3935.0470,S,03728.0236,W,1,06,1.4,032.6,M,004.1,M,,*64
2017-11-04:05:14:42.818711 $GPGLL,3935.0470,S,03728.0236,W,000152.125,A*3D
2017-11-04:05:14:43.071776 $GPVTG,235.0,T,252.8,M,011.8,N,021.9,K*45
2017-11-04:05:14:43.327122 $GPRMC,000152.125,A,3935.0470,S,03728.0236,W,011.8,235.0,221294,17.8,W*4F
2017-11-04:05:14:43.582435 $GPZDA,000153.00,22,12,1994,00,00,*4B
2017-11-04:05:14:43.836545 $GPGGA,000153.125,3935.0491,S,03728.0273,W,1,06,1.4,033.0,M,004.1,M,,*6C
2017-11-04:05:14:44.086965 $GPGLL,3935.0491,S,03728.0273,W,000153.125,A*32
2017-11-04:05:14:44.338172 $GPVTG,233.4,T,251.2,M,012.7,N,023.5,K*4C
2017-11-04:05:14:44.592646 $GPRMC,000153.125,A,3935.0491,S,03728.0273,W,012.7,233.4,221294,17.8,W*4E
2017-11-04:05:14:44.847943 $GPZDA,000154.00,22,12,1994,00,00,*4C
2017-11-04:05:14:45.099388 $GPGGA,000154.125,3935.0511,S,03728.0308,W,1,06,1.4,032.3,M,004.1,M,,*6D
2017-11-04:05:14:45.353043 $GPGLL,3935.0511,S,03728.0308,W,000154.125,A*31
2017-11-04:05:14:45.608265 $GPVTG,230.4,T,248.3,M,011.7,N,021.7,K*45
2017-11-04:05:14:45.858857 $GPRMC,000154.125,A,3935.0511,S,03728.0308,W,011.7,230.4,221294,17.8,W*4D
2017-11-04:05:14:46.113353 $GPZDA,000155.00,22,12,1994,00,00,*4D
2017-11-04:05:14:46.368660 $GPGGA,000155.125,3935.0532,S,03728.0338,W,1,06,1.4,031.5,M,004.1,M,,*6B
2017-11-04:05:14:46.619463 $GPGLL,3935.0532,S,03728.0338,W,000155.125,A*32
2017-11-04:05:14:46.873667 $GPVTG,227.2,T,245.0,M,010.7,N,019.8,K*4E
2017-11-04:05:14:47.128985 $GPRMC,000155.125,A,3935.0532,S,03728.0338,W,010.7,227.2,221294,17.8,W*4F
2017-11-04:05:14:47.383482 $GPZDA,000156.00,22,12,1994,00,00,*4E
2017-11-04:05:14:47.634144 $GPGGA,000156.125,3935.0552,S,03728.0366,W,1,06,1.4,030.9,M,004.1,M,,*68
2017-11-04:05:14:47.889361 $GPGLL,3935.0552,S,03728.0366,W,000156.125,A*3C
2017-11-04:05:14:48.144677 $GPVTG,228.1,T,245.9,M,010.6,N,019.6,K*44
2017-11-04:05:14:48.395128 $GPRMC,000156.125,A,3935.0552,S,03728.0366,W,010.6,228.1,221294,17.8,W*4C
2017-11-04:05:14:48.649788 $GPZDA,000157.00,22,12,1994,00,00,*4F
2017-11-04:05:14:48.903212 $GPGGA,000157.125,3935.0571,S,03728.0395,W,1,06,1.4,030.9,M,004.1,M,,*64
2017-11-04:05:14:49.154617 $GPGLL,3935.0571,S,03728.0395,W,000157.125,A*30
2017-11-04:05:14:49.409967 $GPVTG,229.9,T,247.8,M,010.1,N,018.8,K*46
2017-11-04:05:14:49.665352 $GPRMC,000157.125,A,3935.0571,S,03728.0395,W,010.1,229.9,221294,17.8,W*4E
2017-11-04:05:14:49.917198 $GPZDA,000158.00,22,12,1994,00,00,*40
2017-11-04:05:14:50.169917 $GPGGA,000158.125,3935.0587,S,03728.0420,W,1,06,1.4,031.4,M,004.1,M,,*67
2017-11-04:05:14:50.420099 $GPGLL,3935.0587,S,03728.0420,W,000158.125,A*3F
2017-11-04:05:14:50.675422 $GPVTG,230.5,T,248.4,M,008.8,N,016.3,K*44
2017-11-04:05:14:50.930713 $GPRMC,000158.125,A,3935.0587,S,03728.0420,W,008.8,230.5,221294,17.8,W*45
2017-11-04:05:14:51.185943 $GPZDA,000159.00,22,12,1994,00,00,*41
2017-11-04:05:14:51.441343 $GPGGA,000159.125,3935.0602,S,03728.0443,W,1,06,1.4,032.2,M,004.1,M,,*68
2017-11-04:05:14:51.696622 $GPGLL,3935.0602,S,03728.0443,W,000159.125,A*35
2017-11-04:05:14:51.951962 $GPVTG,230.1,T,247.9,M,008.4,N,015.5,K*4B
2017-11-04:05:14:52.202279 $GPRMC,000159.125,A,3935.0602,S,03728.0443,W,008.4,230.1,221294,17.8,W*47
2017-11-04:05:14:52.457376 $GPZDA,000200.00,22,12,1994,00,00,*4E
2017-11-04:05:14:52.712712 $GPGGA,000200.125,3935.0618,S,03728.0468,W,1,06,1.4,032.8,M,004.1,M,,*6F
2017-11-04:05:14:52.966144 $GPGLL,3935.0618,S,03728.0468,W,000200.125,A*38
2017-11-04:05:14:53.217726 $GPVTG,231.1,T,249.0,M,009.9,N,018.4,K*4D
2017-11-04:05:14:53.473119 $GPRMC,000200.125,A,3935.0618,S,03728.0468,W,009.9,231.1,221294,17.8,W*47
2017-11-04:05:14:53.728437 $GPZDA,000201.00,22,12,1994,00,00,*4F
2017-11-04:05:14:53.983246 $GPGGA,000201.125,3935.0639,S,03728.0500,W,1,06,1.4,033.1,M,004.1,M,,*6A
2017-11-04:05:14:54.233520 $GPGLL,3935.0639,S,03728.0500,W,000201.125,A*35
2017-11-04:05:14:54.488874 $GPVTG,231.5,T,249.4,M,012.4,N,023.0,K*46
2017-11-04:05:14:54.744222 $GPRMC,000201.125,A,3935.0639,S,03728.0500,W,012.4,231.5,221294,17.8,W*49
2017-11-04:05:14:54.999576 $GPZDA,000202.00,22,12,1994,00,00,*4C
2017-11-04:05:14:55.250679 $GPGGA,000202.125,3935.0661,S,03728.0537,W,1,06,1.4,032.7,M,004.1,M,,*67
2017-11-04:05:14:55.504442 $GPGLL,3935.0661,S,03728.0537,W,000202.125,A*3F
2017-11-04:05:14:55.756429 $GPVTG,231.5,T,249.3,M,013.5,N,024.9,K*4F
2017-11-04:05:14:56.006754 $GPRMC,000202.125,A,3935.0661,S,03728.0537,W,013.5,231.5,221294,17.8,W*43
2017-11-04:05:14:56.259207 $GPZDA,000203.00,22,12,1994,00,00,*4D
2017-11-04:05:14:56.514580 $GPGGA,000203.125,3935.0684,S,03728.0574,W,1,06,1.4,031.7,M,004.1,M,,*69
2017-11-04:05:14:56.769913 $GPGLL,3935.0684,S,03728.0574,W,000203.125,A*32
2017-11-04:05:14:57.024578 $GPVTG,230.1,T,248.0,M,012.4,N,022.9,K*4E
2017-11-04:05:14:57.274997 $GPRMC,000203.125,A,3935.0684,S,03728.0574,W,012.4,230.1,221294,17.8,W*4B
2017-11-04:05:14:57.530323 $GPZDA,000204.00,22,12,1994,00,00,*4A
2017-11-04:05:14:57.785652 $GPGGA,000204.125,3935.0704,S,03728.0604,W,1,06,1.4,030.9,M,004.1,M,,*6C
2017-11-04:05:14:58.040973 $GPGLL,3935.0704,S,03728.0604,W,000204.125,A*38
2017-11-04:05:14:58.292390 $GPVTG,229.8,T,247.6,M,010.0,N,018.5,K*45
2017-11-04:05:14:58.544925 $GPRMC,000204.125,A,3935.0704,S,03728.0604,W,010.0,229.8,221294,17.8,W*46
2017-11-04:05:14:58.795625 $GPZDA,000205.00,22,12,1994,00,00,*4B
2017-11-04:05:14:59.051013 $GPGGA,000205.125,3935.0721,S,03728.0628,W,1,06,1.4,030.6,M,004.1,M,,*6B
2017-11-04:05:14:59.306321 $GPGLL,3935.0721,S,03728.0628,W,000205.125,A*30
2017-11-04:05:14:59.561664 $GPVTG,228.5,T,246.4,M,008.2,N,015.3,K*4A
2017-11-04:05:14:59.817335 $GPRMC,000205.125,A,3935.0721,S,03728.0628,W,008.2,228.5,221294,17.8,W*49
2017-11-04:05:15:00.072314 $GPZDA,000206.00,22,12,1994,00,00,*48
2017-11-04:05:15:00.327605 $GPGGA,000206.125,3935.0736,S,03728.0649,W,1,06,1.4,031.0,M,004.1,M,,*6E
2017-11-04:05:15:00.583018 $GPGLL,3935.0736,S,03728.0649,W,000206.125,A*32
2017-11-04:05:15:00.833295 $GPVTG,227.5,T,245.3,M,008.0,N,014.8,K*49
2017-11-04:05:15:01.086903 $GPRMC,000206.125,A,3935.0736,S,03728.0649,W,008.0,227.5,221294,17.8,W*46
2017-11-04:05:15:01.337218 $GPZDA,000207.00,22,12,1994,00,00,*49
2017-11-04:05:15:01.590250 $GPGGA,000207.125,3935.0750,S,03728.0672,W,1,06,1.4,031.9,M,004.1,M,,*6E
2017-11-04:05:15:01.842301 $GPGLL,3935.0750,S,03728.0672,W,000207.125,A*3B
2017-11-04:05:15:02.097667 $GPVTG,230.8,T,248.6,M,009.2,N,017.1,K*43
2017-11-04:05:15:02.347938 $GPRMC,000207.125,A,3935.0750,S,03728.0672,W,009.2,230.8,221294,17.8,W*47
2017-11-04:05:15:02.603110 $GPZDA,000208.00,22,12,1994,00,00,*46
2017-11-04:05:15:02.858418 $GPGGA,000208.125,3935.0768,S,03728.0702,W,1,06,1.4,032.9,M,004.1,M,,*6F
2017-11-04:05:15:03.110855 $GPGLL,3935.0768,S,03728.0702,W,000208.125,A*39
2017-11-04:05:15:03.363645 $GPVTG,232.4,T,250.2,M,011.4,N,021.1,K*4A
2017-11-04:05:15:03.613835 $GPRMC,000208.125,A,3935.0768,S,03728.0702,W,011.4,232.4,221294,17.8,W*44
2017-11-04:05:15:03.868366 $GPZDA,000209.00,22,12,1994,00,00,*47
2017-11-04:05:15:04.118473 $GPGGA,000209.125,3935.0789,S,03728.0737,W,1,06,1.4,033.3,M,004.1,M,,*6C
2017-11-04:05:15:04.373490 $GPGLL,3935.0789,S,03728.0737,W,000209.125,A*31
2017-11-04:05:15:04.628787 $GPVTG,230.8,T,248.6,M,013.3,N,024.6,K*4E
2017-11-04:05:15:04.884213 $GPRMC,000209.125,A,3935.0789,S,03728.0737,W,013.3,230.8,221294,17.8,W*47
2017-11-04:05:15:05.134717 $GPZDA,000210.00,22,12,1994,00,00,*4F
2017-11-04:05:15:05.389414 $GPGGA,000210.125,3935.0814,S,03728.0776,W,1,06,1.4,032.8,M,004.1,M,,*60
2017-11-04:05:15:05.644686 $GPGLL,3935.0814,S,03728.0776,W,000210.125,A*37
2017-11-04:05:15:05.897897 $GPVTG,232.0,T,249.9,M,013.4,N,024.8,K*43
2017-11-04:05:15:06.149816 $GPRMC,000210.125,A,3935.0814,S,03728.0776,W,013.4,232.0,221294,17.8,W*4C
2017-11-04:05:15:06.403645 $GPZDA,000211.00,22,12,1994,00,00,*4E
2017-11-04:05:15:06.654472 $GPGGA,000211.125,3935.0835,S,03728.0809,W,1,06,1.4,031.7,M,004.1,M,,*69
2017-11-04:05:15:06.909865 $GPGLL,3935.0835,S,03728.0809,W,000211.125,A*32
2017-11-04:05:15:07.165154 $GPVTG,230.4,T,248.2,M,010.7,N,019.8,K*41
2017-11-04:05:15:07.420002 $GPRMC,000211.125,A,3935.0835,S,03728.0809,W,010.7,230.4,221294,17.8,W*4F
2017-11-04:05:15:07.670172 $GPZDA,000212.00,22,12,1994,00,00,*4D
2017-11-04:05:15:07.925531 $GPGGA,000212.125,3935.0852,S,03728.0834,W,1,06,1.4,031.1,M,004.1,M,,*63
2017-11-04:05:15:08.180829 $GPGLL,3935.0852,S,03728.0834,W,000212.125,A*3E
2017-11-04:05:15:08.431141 $GPVTG,228.3,T,246.1,M,007.9,N,014.7,K*48
2017-11-04:05:15:08.686157 $GPRMC,000212.125,A,3935.0852,S,03728.0834,W,007.9,228.3,221294,17.8,W*45
2017-11-04:05:15:08.936743 $GPZDA,000213.00,22,12,1994,00,00,*4C
2017-11-04:05:15:09.191094 $GPGGA,000213.125,3935.0866,S,03728.0854,W,1,06,1.4,031.4,M,004.1,M,,*66
2017-11-04:05:15:09.446428 $GPGLL,3935.0866,S,03728.0854,W,000213.125,A*3E
2017-11-04:05:15:09.700849 $GPVTG,225.0,T,242.8,M,007.9,N,014.6,K*4A
2017-11-04:05:15:09.951751 $GPRMC,000213.125,A,3935.0866,S,03728.0854,W,007.9,225.0,221294,17.8,W*4B
2017-11-04:05:15:10.206791 $GPZDA,000214.00,22,12,1994,00,00,*4B
2017-11-04:05:15:10.462130 $GPGGA,000214.125,3935.0885,S,03728.0877,W,1,06,1.4,032.1,M,004.1,M,,*6B
2017-11-04:05:15:10.717509 $GPGLL,3935.0885,S,03728.0877,W,000214.125,A*35
2017-11-04:05:15:10.972827 $GPVTG,223.1,T,240.9,M,010.5,N,019.4,K*4B
2017-11-04:05:15:11.228131 $GPRMC,000214.125,A,3935.0885,S,03728.0877,W,010.5,223.1,221294,17.8,W*4D
2017-11-04:05:15:11.483642 $GPZDA,000215.00,22,12,1994,00,00,*4A
2017-11-04:05:15:11.734399 $GPGGA,000215.125,3935.0905,S,03728.0905,W,1,06,1.3,032.4,M,004.1,M,,*65
2017-11-04:05:15:11.988730 $GPGLL,3935.0905,S,03728.0905,W,000215.125,A*39
2017-11-04:05:15:12.244045 $GPVTG,224.2,T,242.1,M,012.6,N,023.2,K*4B
2017-11-04:05:15:12.494883 $GPRMC,000215.125,A,3935.0905,S,03728.0905,W,012.6,224.2,221294,17.8,W*44
2017-11-04:05:15:12.749149 $GPZDA,000216.00,22,12,1994,00,00,*49
2017-11-04:05:15:13.003651 $GPGGA,000216.125,3935.0931,S,03728.0937,W,1,06,1.4,032.4,M,004.1,M,,*67
2017-11-04:05:15:13.258986 $GPGLL,3935.0931,S,03728.0937,W,000216.125,A*3C
2017-11-04:05:15:13.509586 $GPVTG,226.0,T,243.9,M,012.6,N,023.3,K*43
2017-11-04:05:15:13.764866 $GPRMC,000216.125,A,3935.0931,S,03728.0937,W,012.6,226.0,221294,17.8,W*41
2017-11-04:05:15:14.020116 $GPZDA,000217.00,22,12,1994,00,00,*48
2017-11-04:05:15:14.275432 $GPGGA,000217.125,3935.0953,S,03728.0968,W,1,06,1.4,031.9,M,004.1,M,,*66
2017-11-04:05:15:14.530880 $GPGLL,3935.0953,S,03728.0968,W,000217.125,A*33
2017-11-04:05:15:14.786196 $GPVTG,229.2,T,247.1,M,011.1,N,020.5,K*43
2017-11-04:05:15:15.041517 $GPRMC,000217.125,A,3935.0953,S,03728.0968,W,011.1,229.2,221294,17.8,W*47
2017-11-04:05:15:15.296837 $GPZDA,000218.00,22,12,1994,00,00,*47
2017-11-04:05:15:15.552021 $GPGGA,000218.125,3935.0971,S,03728.0996,W,1,06,1.4,031.6,M,004.1,M,,*67
2017-11-04:05:15:15.802209 $GPGLL,3935.0971,S,03728.0996,W,000218.125,A*3D
2017-11-04:05:15:16.057498 $GPVTG,231.2,T,249.0,M,009.5,N,017.6,K*4F
2017-11-04:05:15:16.312927 $GPRMC,000218.125,A,3935.0971,S,03728.0996,W,009.5,231.2,221294,17.8,W*4D
2017-11-04:05:15:16.563116 $GPZDA,000219.00,22,12,1994,00,00,*46
2017-11-04:05:15:16.817320 $GPGGA,000219.125,3935.0987,S,03728.1022,W,1,06,1.4,031.6,M,004.1,M,,*68
2017-11-04:05:15:17.072657 $GPGLL,3935.0987,S,03728.1022,W,000219.125,A*32
2017-11-04:05:15:17.322953 $GPVTG,229.6,T,247.5,M,009.3,N,017.2,K*4B
2017-11-04:05:15:17.578275 $GPRMC,000219.125,A,3935.0987,S,03728.1022,W,009.3,229.6,221294,17.8,W*49
2017-11-04:05:15:17.833646 $GPZDA,000220.00,22,12,1994,00,00,*4C
2017-11-04:05:15:18.088958 $GPGGA,000220.125,3935.1006,S,03728.1047,W,1,06,1.4,032.2,M,004.1,M,,*67
2017-11-04:05:15:18.340033 $GPGLL,3935.1006,S,03728.1047,W,000220.125,A*3A
2017-11-04:05:15:18.594072 $GPVTG,225.9,T,243.7,M,010.1,N,018.7,K*4E
2017-11-04:05:15:18.849423 $GPRMC,000220.125,A,3935.1006,S,03728.1047,W,010.1,225.9,221294,17.8,W*48
2017-11-04:05:15:19.103313 $GPZDA,000221.00,22,12,1994,00,00,*4D
2017-11-04:05:15:19.353607 $GPGGA,000221.125,3935.1026,S,03728.1075,W,1,06,1.4,032.7,M,004.1,M,,*60
2017-11-04:05:15:19.603806 $GPGLL,3935.1026,S,03728.1075,W,000221.125,A*38
2017-11-04:05:15:19.859144 $GPVTG,226.9,T,244.7,M,011.4,N,021.0,K*43
2017-11-04:05:15:20.114538 $GPRMC,000221.125,A,3935.1026,S,03728.1075,W,011.4,226.9,221294,17.8,W*4D
2017-11-04:05:15:20.369846 $GPZDA,000222.00,22,12,1994,00,00,*4E
2017-11-04:05:15:20.625128 $GPGGA,000222.125,3935.1049,S,03728.1106,W,1,06,1.4,032.6,M,004.1,M,,*6E
2017-11-04:05:15:20.880443 $GPGLL,3935.1049,S,03728.1106,W,000222.125,A*37
2017-11-04:05:15:21.135753 $GPVTG,226.4,T,244.3,M,012.3,N,022.7,K*4A
2017-11-04:05:15:21.386191 $GPRMC,000222.125,A,3935.1049,S,03728.1106,W,012.3,226.4,221294,17.8,W*4B
2017-11-04:05:15:21.641223 $GPZDA,000223.00,22,12,1994,00,00,*4F
2017-11-04:05:15:21.896568 $GPGGA,000223.125,3935.1071,S,03728.1138,W,1,06,1.4,032.0,M,004.1,M,,*6F
2017-11-04:05:15:22.151992 $GPGLL,3935.1071,S,03728.1138,W,000223.125,A*30
2017-11-04:05:15:22.407274 $GPVTG,226.6,T,244.4,M,011.4,N,021.1,K*4E
2017-11-04:05:15:22.662601 $GPRMC,000223.125,A,3935.1071,S,03728.1138,W,011.4,226.6,221294,17.8,W*4A
2017-11-04:05:15:22.917929 $GPZDA,000224.00,22,12,1994,00,00,*48
2017-11-04:05:15:23.170240 $GPGGA,000224.125,3935.1091,S,03728.1165,W,1,06,1.4,031.3,M,004.1,M,,*6E
2017-11-04:05:15:23.423212 $GPGLL,3935.1091,S,03728.1165,W,000224.125,A*31
2017-11-04:05:15:23.678512 $GPVTG,227.6,T,245.4,M,009.6,N,017.7,K*46
2017-11-04:05:15:23.933928 $GPRMC,000224.125,A,3935.1091,S,03728.1165,W,009.6,227.6,221294,17.8,W*41
2017-11-04:05:15:24.189250 $GPZDA,000225.00,22,12,1994,00,00,*49
2017-11-04:05:15:24.444549 $GPGGA,000225.125,3935.1106,S,03728.1189,W,1,06,1.4,031.3,M,004.1,M,,*62
