19+085:10:05:55.261 $INZDA,100555.18,26,03,2019,,*76
19+085:10:05:55.315 $INGGA,100555.17,5307.012403,S,06724.614243,W,1,12,0.7,-4.87,M,13.38,M,,*5E
19+085:10:05:55.315 $INRMC,100555.17,A,5307.012403,S,06724.614243,W,12.5,135.31,260319,,,A*4B
19+085:10:05:55.315 $PSXN,20,1,0,0,0*3A
19+085:10:05:55.336 $PSXN,23,-0.36,0.73,134.16,-0.02*3A
19+085:10:05:56.261 $INZDA,100556.18,26,03,2019,,*75
19+085:10:05:56.315 $INGGA,100556.17,5307.014879,S,06724.610188,W,1,12,0.7,-4.71,M,13.38,M,,*53
19+085:10:05:56.315 $INRMC,100556.17,A,5307.014879,S,06724.610188,W,12.5,135.40,260319,,,A*49
19+085:10:05:56.315 $PSXN,20,1,0,0,0*3A
19+085:10:05:56.336 $PSXN,23,-0.71,0.92,134.16,-0.18*3D
19+085:10:05:57.260 $INZDA,100557.18,26,03,2019,,*74
19+085:10:05:57.316 $INGGA,100557.17,5307.017344,S,06724.606139,W,1,12,0.7,-4.65,M,13.38,M,,*5C
19+085:10:05:57.316 $INRMC,100557.17,A,5307.017344,S,06724.606139,W,12.5,135.15,260319,,,A*43
19+085:10:05:57.316 $PSXN,20,1,0,0,0*3A
19+085:10:05:57.336 $PSXN,23,-0.89,0.86,134.15,-0.24*33
19+085:10:05:58.262 $INZDA,100558.19,26,03,2019,,*7A
19+085:10:05:58.315 $INGGA,100558.17,5307.019784,S,06724.602086,W,1,12,0.7,-4.72,M,13.38,M,,*52
19+085:10:05:58.315 $INRMC,100558.17,A,5307.019784,S,06724.602086,W,12.4,134.96,260319,,,A*40
19+085:10:05:58.315 $PSXN,20,1,0,0,0*3A
19+085:10:05:58.337 $PSXN,23,-0.85,0.74,134.13,-0.17*34
19+085:10:05:59.261 $INZDA,100559.19,26,03,2019,,*7B
19+085:10:05:59.316 $INGGA,100559.17,5307.022216,S,06724.598044,W,1,12,0.7,-4.84,M,13.38,M,,*52
19+085:10:05:59.316 $INRMC,100559.17,A,5307.022216,S,06724.598044,W,12.4,135.01,260319,,,A*46
19+085:10:05:59.316 $PSXN,20,1,0,0,0*3A
19+085:10:05:59.337 $PSXN,23,-0.63,0.68,134.12,-0.03*35
19+085:10:06:00.261 $INZDA,100600.19,26,03,2019,,*74
19+085:10:06:00.315 $INGGA,100600.17,5307.024637,S,06724.594012,W,1,12,0.7,-4.94,M,13.38,M,,*52
19+085:10:06:00.315 $INRMC,100600.17,A,5307.024637,S,06724.594012,W,12.4,134.77,260319,,,A*47
19+085:10:06:00.315 $PSXN,20,1,0,0,0*3A
19+085:10:06:00.336 $PSXN,23,-0.36,0.71,134.11,0.08*18
19+085:10:06:01.261 $INZDA,100601.19,26,03,2019,,*75
19+085:10:06:01.315 $INGGA,100601.17,5307.027054,S,06724.589946,W,1,12,0.7,-4.96,M,13.38,M,,*55
19+085:10:06:01.315 $INRMC,100601.17,A,5307.027054,S,06724.589946,W,12.4,134.58,260319,,,A*4F
19+085:10:06:01.315 $PSXN,20,1,0,0,0*3A
19+085:10:06:01.336 $PSXN,23,-0.18,0.68,134.17,0.12*11
19+085:10:06:02.261 $INZDA,100602.19,26,03,2019,,*76
19+085:10:06:02.315 $INGGA,100602.17,5307.029470,S,06724.585865,W,1,12,0.7,-4.93,M,13.38,M,,*53
19+085:10:06:02.315 $INRMC,100602.17,A,5307.029470,S,06724.585865,W,12.4,134.38,260319,,,A*4A
19+085:10:06:02.315 $PSXN,20,1,0,0,0*3A
19+085:10:06:02.335 $PSXN,23,-0.08,0.57,134.28,0.10*12
19+085:10:06:03.261 $INZDA,100603.19,26,03,2019,,*77
19+085:10:06:03.315 $INGGA,100603.17,5307.031884,S,06724.581770,W,1,12,0.7,-4.89,M,13.38,M,,*58
19+085:10:06:03.315 $INRMC,100603.17,A,5307.031884,S,06724.581770,W,12.4,134.32,260319,,,A*40
19+085:10:06:03.315 $PSXN,20,1,0,0,0*3A
19+085:10:06:03.335 $PSXN,23,-0.03,0.53,134.37,0.06*14
19+085:10:06:04.262 $INZDA,100604.19,26,03,2019,,*70
19+085:10:06:04.316 $INGGA,100604.17,5307.034295,S,06724.577657,W,1,12,0.7,-4.86,M,13.38,M,,*52
19+085:10:06:04.316 $INRMC,100604.17,A,5307.034295,S,06724.577657,W,12.5,134.29,260319,,,A*4E
19+085:10:06:04.316 $PSXN,20,1,0,0,0*3A
19+085:10:06:04.336 $PSXN,23,0.03,0.61,134.40,0.03*3D
19+085:10:06:05.262 $INZDA,100605.19,26,03,2019,,*71
19+085:10:06:05.317 $INGGA,100605.17,5307.036710,S,06724.573544,W,1,12,0.7,-4.85,M,13.38,M,,*5F
19+085:10:06:05.317 $INRMC,100605.17,A,5307.036710,S,06724.573544,W,12.5,134.33,260319,,,A*4B
19+085:10:06:05.317 $PSXN,20,1,0,0,0*3A
19+085:10:06:05.336 $PSXN,23,0.15,0.74,134.38,0.02*30
19+085:10:06:06.262 $INZDA,100606.19,26,03,2019,,*72
19+085:10:06:06.316 $INGGA,100606.17,5307.039126,S,06724.569439,W,1,12,0.7,-4.85,M,13.38,M,,*50
19+085:10:06:06.316 $INRMC,100606.17,A,5307.039126,S,06724.569439,W,12.5,134.56,260319,,,A*47
19+085:10:06:06.316 $PSXN,20,1,0,0,0*3A
19+085:10:06:06.336 $PSXN,23,0.28,0.74,134.31,0.01*34
19+085:10:06:07.262 $INZDA,100607.19,26,03,2019,,*73
19+085:10:06:07.317 $INGGA,100607.17,5307.041556,S,06724.565354,W,1,12,0.7,-4.82,M,13.38,M,,*5A
19+085:10:06:07.317 $INRMC,100607.17,A,5307.041556,S,06724.565354,W,12.5,134.85,260319,,,A*44
19+085:10:06:07.317 $PSXN,20,1,0,0,0*3A
19+085:10:06:07.337 $PSXN,23,0.35,0.62,134.30,-0.01*13
19+085:10:06:08.263 $INZDA,100608.19,26,03,2019,,*7C
19+085:10:06:08.316 $INGGA,100608.17,5307.044002,S,06724.561274,W,1,12,0.7,-4.77,M,13.38,M,,*59
19+085:10:06:08.316 $INRMC,100608.17,A,5307.044002,S,06724.561274,W,12.5,135.15,260319,,,A*45
19+085:10:06:08.316 $PSXN,20,1,0,0,0*3A
19+085:10:06:08.337 $PSXN,23,0.32,0.50,134.37,-0.06*15
19+085:10:06:09.261 $INZDA,100609.19,26,03,2019,,*7D
19+085:10:06:09.315 $INGGA,100609.17,5307.046463,S,06724.557204,W,1,12,0.7,-4.73,M,13.38,M,,*5F
19+085:10:06:09.315 $INRMC,100609.17,A,5307.046463,S,06724.557204,W,12.5,135.24,260319,,,A*45
19+085:10:06:09.315 $PSXN,20,1,0,0,0*3A
19+085:10:06:09.336 $PSXN,23,0.24,0.56,134.48,-0.10*1B
19+085:10:06:10.261 $INZDA,100610.19,26,03,2019,,*75
19+085:10:06:10.315 $INGGA,100610.17,5307.048924,S,06724.553138,W,1,12,0.7,-4.73,M,13.38,M,,*5F
19+085:10:06:10.315 $INRMC,100610.17,A,5307.048924,S,06724.553138,W,12.5,135.17,260319,,,A*45
19+085:10:06:10.315 $PSXN,20,1,0,0,0*3A
19+085:10:06:10.336 $PSXN,23,0.09,0.78,134.51,-0.10*10
19+085:10:06:11.262 $INZDA,100611.19,26,03,2019,,*74
19+085:10:06:11.316 $INGGA,100611.17,5307.051379,S,06724.549076,W,1,12,0.7,-4.78,M,13.38,M,,*5F
19+085:10:06:11.316 $INRMC,100611.17,A,5307.051379,S,06724.549076,W,12.5,134.97,260319,,,A*47
19+085:10:06:11.316 $PSXN,20,1,0,0,0*3A
19+085:10:06:11.337 $PSXN,23,-0.17,0.94,134.50,-0.05*35
19+085:10:06:12.262 $INZDA,100612.19,26,03,2019,,*77
19+085:10:06:12.316 $INGGA,100612.17,5307.053798,S,06724.545014,W,1,12,0.7,-4.85,M,13.38,M,,*5F
19+085:10:06:12.317 $INRMC,100612.17,A,5307.053798,S,06724.545014,W,12.4,134.41,260319,,,A*4F
19+085:10:06:12.317 $PSXN,20,1,0,0,0*3A
19+085:10:06:12.337 $PSXN,23,-0.56,0.93,134.51,0.01*1F
19+085:10:06:13.261 $INZDA,100613.19,26,03,2019,,*76
19+085:10:06:13.315 $INGGA,100613.17,5307.056179,S,06724.540944,W,1,12,0.7,-4.88,M,13.38,M,,*56
19+085:10:06:13.315 $INRMC,100613.17,A,5307.056179,S,06724.540944,W,12.3,134.13,260319,,,A*4B
19+085:10:06:13.315 $PSXN,20,1,0,0,0*3A
19+085:10:06:13.336 $PSXN,23,-0.91,0.82,134.55,0.04*15
19+085:10:06:14.262 $INZDA,100614.19,26,03,2019,,*71
19+085:10:06:14.316 $INGGA,100614.17,5307.058565,S,06724.536893,W,1,12,0.7,-4.91,M,13.38,M,,*54
19+085:10:06:14.316 $INRMC,100614.17,A,5307.058565,S,06724.536893,W,12.3,134.46,260319,,,A*41
19+085:10:06:14.316 $PSXN,20,1,0,0,0*3A
19+085:10:06:14.337 $PSXN,23,-1.08,0.60,134.61,0.07*1C
19+085:10:06:15.261 $INZDA,100615.19,26,03,2019,,*70
19+085:10:06:15.315 $INGGA,100615.17,5307.060971,S,06724.532851,W,1,12,0.7,-4.93,M,13.38,M,,*5F
19+085:10:06:15.315 $INRMC,100615.17,A,5307.060971,S,06724.532851,W,12.4,134.73,260319,,,A*49
19+085:10:06:15.315 $PSXN,20,1,0,0,0*3A
19+085:10:06:15.336 $PSXN,23,-1.13,0.32,134.67,0.09*19
19+085:10:06:16.262 $INZDA,100616.19,26,03,2019,,*73
19+085:10:06:16.315 $INGGA,100616.17,5307.063404,S,06724.528791,W,1,12,0.7,-4.93,M,13.38,M,,*58
19+085:10:06:16.315 $INRMC,100616.17,A,5307.063404,S,06724.528791,W,12.5,134.84,260319,,,A*47
19+085:10:06:16.315 $PSXN,20,1,0,0,0*3A
19+085:10:06:16.335 $PSXN,23,-1.01,0.23,134.64,0.09*19
19+085:10:06:17.262 $INZDA,100617.19,26,03,2019,,*72
19+085:10:06:17.316 $INGGA,100617.17,5307.065853,S,06724.524710,W,1,12,0.7,-4.90,M,13.38,M,,*57
19+085:10:06:17.316 $INRMC,100617.17,A,5307.065853,S,06724.524710,W,12.5,134.94,260319,,,A*4A
19+085:10:06:17.316 $PSXN,20,1,0,0,0*3A
19+085:10:06:17.337 $PSXN,23,-0.78,0.41,134.57,0.05*1E
19+085:10:06:18.262 $INZDA,100618.19,26,03,2019,,*7D
19+085:10:06:18.316 $INGGA,100618.17,5307.068308,S,06724.520632,W,1,12,0.7,-4.81,M,13.38,M,,*55
19+085:10:06:18.316 $INRMC,100618.17,A,5307.068308,S,06724.520632,W,12.5,134.95,260319,,,A*49
19+085:10:06:18.316 $PSXN,20,1,0,0,0*3A
19+085:10:06:18.337 $PSXN,23,-0.53,0.83,134.50,-0.04*32
19+085:10:06:19.262 $INZDA,100619.19,26,03,2019,,*7C
19+085:10:06:19.316 $INGGA,100619.17,5307.070760,S,06724.516552,W,1,12,0.7,-4.71,M,13.38,M,,*58
19+085:10:06:19.316 $INRMC,100619.17,A,5307.070760,S,06724.516552,W,12.5,135.17,260319,,,A*40
19+085:10:06:19.316 $PSXN,20,1,0,0,0*3A
19+085:10:06:19.336 $PSXN,23,-0.30,1.12,134.53,-0.14*3C
19+085:10:06:20.262 $INZDA,100620.19,26,03,2019,,*76
19+085:10:06:20.316 $INGGA,100620.17,5307.073213,S,06724.512526,W,1,12,0.7,-4.66,M,13.38,M,,*51
19+085:10:06:20.317 $INRMC,100620.17,A,5307.073213,S,06724.512526,W,12.4,135.51,260319,,,A*4C
19+085:10:06:20.317 $PSXN,20,1,0,0,0*3A
19+085:10:06:20.337 $PSXN,23,-0.06,1.06,134.64,-0.17*3B
19+085:10:06:21.262 $INZDA,100621.19,26,03,2019,,*77
19+085:10:06:21.316 $INGGA,100621.17,5307.075665,S,06724.508528,W,1,12,0.7,-4.70,M,13.38,M,,*51
19+085:10:06:21.316 $INRMC,100621.17,A,5307.075665,S,06724.508528,W,12.4,135.48,260319,,,A*43
19+085:10:06:21.316 $PSXN,20,1,0,0,0*3A
19+085:10:06:21.335 $PSXN,23,0.17,0.80,134.72,-0.13*1A
19+085:10:06:22.263 $INZDA,100622.19,26,03,2019,,*74
19+085:10:06:22.316 $INGGA,100622.17,5307.078095,S,06724.504530,W,1,12,0.7,-4.79,M,13.38,M,,*5A
19+085:10:06:22.316 $INRMC,100622.17,A,5307.078095,S,06724.504530,W,12.3,135.16,260319,,,A*4D
19+085:10:06:22.316 $PSXN,20,1,0,0,0*3A
19+085:10:06:22.336 $PSXN,23,0.24,0.58,134.81,-0.04*15
19+085:10:06:23.262 $INZDA,100623.19,26,03,2019,,*75
19+085:10:06:23.316 $INGGA,100623.17,5307.080518,S,06724.500502,W,1,12,0.7,-4.87,M,13.38,M,,*58
19+085:10:06:23.316 $INRMC,100623.17,A,5307.080518,S,06724.500502,W,12.4,134.95,260319,,,A*43
19+085:10:06:23.316 $PSXN,20,1,0,0,0*3A
19+085:10:06:23.335 $PSXN,23,0.08,0.46,134.91,0.05*39
19+085:10:06:24.262 $INZDA,100624.19,26,03,2019,,*72
19+085:10:06:24.316 $INGGA,100624.17,5307.082941,S,06724.496443,W,1,12,0.7,-4.93,M,13.38,M,,*52
19+085:10:06:24.316 $INRMC,100624.17,A,5307.082941,S,06724.496443,W,12.4,134.70,260319,,,A*47
19+085:10:06:24.316 $PSXN,20,1,0,0,0*3A
19+085:10:06:24.336 $PSXN,23,-0.20,0.46,135.00,0.11*12
19+085:10:06:25.262 $INZDA,100625.19,26,03,2019,,*73
19+085:10:06:25.316 $INGGA,100625.17,5307.085362,S,06724.492360,W,1,12,0.7,-4.94,M,13.38,M,,*5A
19+085:10:06:25.316 $INRMC,100625.17,A,5307.085362,S,06724.492360,W,12.5,134.50,260319,,,A*4B
19+085:10:06:25.316 $PSXN,20,1,0,0,0*3A
19+085:10:06:25.337 $PSXN,23,-0.49,0.56,135.11,0.14*19
19+085:10:06:26.262 $INZDA,100626.19,26,03,2019,,*70
19+085:10:06:26.317 $INGGA,100626.17,5307.087795,S,06724.488251,W,1,12,0.7,-4.94,M,13.38,M,,*5F
19+085:10:06:26.317 $INRMC,100626.17,A,5307.087795,S,06724.488251,W,12.5,134.71,260319,,,A*4D
19+085:10:06:26.317 $PSXN,20,1,0,0,0*3A
19+085:10:06:26.336 $PSXN,23,-0.68,0.65,135.18,0.13*14
19+085:10:06:27.262 $INZDA,100627.19,26,03,2019,,*71
19+085:10:06:27.316 $INGGA,100627.17,5307.090242,S,06724.484171,W,1,12,0.7,-4.92,M,13.38,M,,*5C
19+085:10:06:27.316 $INRMC,100627.17,A,5307.090242,S,06724.484171,W,12.5,135.06,260319,,,A*49
19+085:10:06:27.316 $PSXN,20,1,0,0,0*3A
19+085:10:06:27.336 $PSXN,23,-0.67,0.67,135.16,0.10*14
19+085:10:06:28.262 $INZDA,100628.19,26,03,2019,,*7E
19+085:10:06:28.317 $INGGA,100628.17,5307.092697,S,06724.480098,W,1,12,0.7,-4.87,M,13.38,M,,*5B
19+085:10:06:28.317 $INRMC,100628.17,A,5307.092697,S,06724.480098,W,12.5,135.06,260319,,,A*4A
19+085:10:06:28.317 $PSXN,20,1,0,0,0*3A
19+085:10:06:28.336 $PSXN,23,-0.55,0.60,135.11,0.05*11
19+085:10:06:29.262 $INZDA,100629.19,26,03,2019,,*7F
19+085:10:06:29.316 $INGGA,100629.17,5307.095155,S,06724.476037,W,1,12,0.7,-4.78,M,13.38,M,,*58
19+085:10:06:29.316 $INRMC,100629.17,A,5307.095155,S,06724.476037,W,12.5,135.34,260319,,,A*48
19+085:10:06:29.316 $PSXN,20,1,0,0,0*3A
19+085:10:06:29.336 $PSXN,23,-0.42,0.63,135.03,-0.05*3A
19+085:10:06:30.263 $INZDA,100630.19,26,03,2019,,*77
19+085:10:06:30.317 $INGGA,100630.17,5307.097628,S,06724.472027,W,1,12,0.7,-4.67,M,13.38,M,,*54
19+085:10:06:30.317 $INRMC,100630.17,A,5307.097628,S,06724.472027,W,12.4,135.98,260319,,,A*4D
19+085:10:06:30.317 $PSXN,20,1,0,0,0*3A
19+085:10:06:30.338 $PSXN,23,-0.33,0.78,134.91,-0.16*3E
19+085:10:06:31.262 $INZDA,100631.19,26,03,2019,,*76
19+085:10:06:31.317 $INGGA,100631.17,5307.100115,S,06724.468050,W,1,12,0.7,-4.60,M,13.38,M,,*5F
19+085:10:06:31.317 $INRMC,100631.17,A,5307.100115,S,06724.468050,W,12.4,136.23,260319,,,A*42
19+085:10:06:31.317 $PSXN,20,1,0,0,0*3A
19+085:10:06:31.337 $PSXN,23,-0.33,0.82,134.93,-0.22*3E
19+085:10:06:32.263 $INZDA,100632.19,26,03,2019,,*75
19+085:10:06:32.317 $INGGA,100632.17,5307.102605,S,06724.464077,W,1,12,0.7,-4.63,M,13.38,M,,*52
19+085:10:06:32.317 $INRMC,100632.17,A,5307.102605,S,06724.464077,W,12.4,136.11,260319,,,A*4D
19+085:10:06:32.317 $PSXN,20,1,0,0,0*3A
19+085:10:06:32.337 $PSXN,23,-0.38,0.75,135.06,-0.18*39
19+085:10:06:33.262 $INZDA,100633.19,26,03,2019,,*74
19+085:10:06:33.316 $INGGA,100633.17,5307.105080,S,06724.460099,W,1,12,0.7,-4.75,M,13.38,M,,*5C
19+085:10:06:33.316 $INRMC,100633.17,A,5307.105080,S,06724.460099,W,12.4,135.83,260319,,,A*4C
19+085:10:06:33.316 $PSXN,20,1,0,0,0*3A
19+085:10:06:33.338 $PSXN,23,-0.37,0.70,135.22,-0.05*39
19+085:10:06:34.263 $INZDA,100634.19,26,03,2019,,*73
19+085:10:06:34.317 $INGGA,100634.17,5307.107545,S,06724.456112,W,1,12,0.7,-4.90,M,13.38,M,,*59
19+085:10:06:34.317 $INRMC,100634.17,A,5307.107545,S,06724.456112,W,12.4,135.56,260319,,,A*4A
19+085:10:06:34.317 $PSXN,20,1,0,0,0*3A
19+085:10:06:34.336 $PSXN,23,-0.31,0.74,135.33,0.09*1A
19+085:10:06:35.262 $INZDA,100635.19,26,03,2019,,*72
19+085:10:06:35.316 $INGGA,100635.17,5307.109988,S,06724.452102,W,1,12,0.7,-4.99,M,13.38,M,,*57
19+085:10:06:35.316 $INRMC,100635.17,A,5307.109988,S,06724.452102,W,12.4,135.27,260319,,,A*4B
19+085:10:06:35.316 $PSXN,20,1,0,0,0*3A
19+085:10:06:35.336 $PSXN,23,-0.31,0.76,135.41,0.19*1C
19+085:10:06:36.262 $INZDA,100636.19,26,03,2019,,*71
19+085:10:06:36.317 $INGGA,100636.17,5307.112423,S,06724.448075,W,1,12,0.7,-5.00,M,13.38,M,,*59
19+085:10:06:36.317 $INRMC,100636.17,A,5307.112423,S,06724.448075,W,12.4,135.06,260319,,,A*47
19+085:10:06:36.317 $PSXN,20,1,0,0,0*3A
19+085:10:06:36.336 $PSXN,23,-0.35,0.68,135.47,0.20*1B
19+085:10:06:37.262 $INZDA,100637.19,26,03,2019,,*70
19+085:10:06:37.315 $INGGA,100637.17,5307.114858,S,06724.444048,W,1,12,0.7,-4.92,M,13.38,M,,*56
19+085:10:06:37.315 $INRMC,100637.17,A,5307.114858,S,06724.444048,W,12.4,135.20,260319,,,A*46
19+085:10:06:37.316 $PSXN,20,1,0,0,0*3A
19+085:10:06:37.336 $PSXN,23,-0.40,0.57,135.42,0.12*11
19+085:10:06:38.263 $INZDA,100638.19,26,03,2019,,*7F
19+085:10:06:38.317 $INGGA,100638.17,5307.117300,S,06724.440020,W,1,12,0.7,-4.82,M,13.38,M,,*57
19+085:10:06:38.317 $INRMC,100638.17,A,5307.117300,S,06724.440020,W,12.4,135.33,260319,,,A*44
19+085:10:06:38.317 $PSXN,20,1,0,0,0*3A
19+085:10:06:38.337 $PSXN,23,-0.43,0.49,135.22,0.02*1A
19+085:10:06:39.262 $INZDA,100639.19,26,03,2019,,*7E
19+085:10:06:39.318 $INGGA,100639.17,5307.119763,S,06724.435996,W,1,12,0.7,-4.78,M,13.38,M,,*5A
19+085:10:06:39.318 $INRMC,100639.17,A,5307.119763,S,06724.435996,W,12.5,135.53,260319,,,A*4B
19+085:10:06:39.318 $PSXN,20,1,0,0,0*3A
19+085:10:06:39.338 $PSXN,23,-0.45,0.42,135.04,-0.03*3F
19+085:10:06:40.263 $INZDA,100640.19,26,03,2019,,*70
19+085:10:06:40.317 $INGGA,100640.17,5307.122241,S,06724.431951,W,1,12,0.7,-4.79,M,13.38,M,,*57
19+085:10:06:40.317 $INRMC,100640.17,A,5307.122241,S,06724.431951,W,12.5,135.55,260319,,,A*41
19+085:10:06:40.317 $PSXN,20,1,0,0,0*3A
19+085:10:06:40.338 $PSXN,23,-0.51,0.44,134.97,-0.02*36
19+085:10:06:41.263 $INZDA,100641.19,26,03,2019,,*71
19+085:10:06:41.316 $INGGA,100641.17,5307.124718,S,06724.427898,W,1,12,0.7,-4.81,M,13.38,M,,*5D
19+085:10:06:41.316 $INRMC,100641.17,A,5307.124718,S,06724.427898,W,12.5,135.32,260319,,,A*4D
19+085:10:06:41.316 $PSXN,20,1,0,0,0*3A
19+085:10:06:41.338 $PSXN,23,-0.52,0.66,134.90,-0.00*30
19+085:10:06:42.262 $INZDA,100642.19,26,03,2019,,*72
19+085:10:06:42.317 $INGGA,100642.17,5307.127178,S,06724.423839,W,1,12,0.7,-4.78,M,13.38,M,,*54
19+085:10:06:42.317 $INRMC,100642.17,A,5307.127178,S,06724.423839,W,12.5,135.15,260319,,,A*47
19+085:10:06:42.317 $PSXN,20,1,0,0,0*3A
19+085:10:06:42.339 $PSXN,23,-0.43,0.90,134.80,-0.04*3C
19+085:10:06:43.262 $INZDA,100643.19,26,03,2019,,*73
19+085:10:06:43.316 $INGGA,100643.17,5307.129634,S,06724.419802,W,1,12,0.7,-4.72,M,13.38,M,,*5F
19+085:10:06:43.316 $INRMC,100643.17,A,5307.129634,S,06724.419802,W,12.4,135.68,260319,,,A*4D
19+085:10:06:43.317 $PSXN,20,1,0,0,0*3A
19+085:10:06:43.337 $PSXN,23,-0.31,0.91,134.81,-0.11*3D
19+085:10:06:44.263 $INZDA,100644.19,26,03,2019,,*74
19+085:10:06:44.318 $INGGA,100644.17,5307.132107,S,06724.415820,W,1,12,0.7,-4.68,M,13.38,M,,*52
19+085:10:06:44.318 $INRMC,100644.17,A,5307.132107,S,06724.415820,W,12.4,136.09,260319,,,A*4F
19+085:10:06:44.318 $PSXN,20,1,0,0,0*3A
19+085:10:06:44.338 $PSXN,23,-0.03,0.72,134.89,-0.14*3C
19+085:10:06:45.263 $INZDA,100645.19,26,03,2019,,*75
19+085:10:06:45.317 $INGGA,100645.17,5307.134579,S,06724.411863,W,1,12,0.7,-4.69,M,13.38,M,,*5A
19+085:10:06:45.317 $INRMC,100645.17,A,5307.134579,S,06724.411863,W,12.4,135.89,260319,,,A*4D
19+085:10:06:45.317 $PSXN,20,1,0,0,0*3A
19+085:10:06:45.337 $PSXN,23,0.34,0.60,134.94,-0.14*1A
19+085:10:06:46.262 $INZDA,100646.19,26,03,2019,,*76
19+085:10:06:46.317 $INGGA,100646.17,5307.137037,S,06724.407875,W,1,12,0.7,-4.72,M,13.38,M,,*5F
19+085:10:06:46.317 $INRMC,100646.17,A,5307.137037,S,06724.407875,W,12.4,135.54,260319,,,A*42
19+085:10:06:46.317 $PSXN,20,1,0,0,0*3A
19+085:10:06:46.338 $PSXN,23,0.66,0.63,134.95,-0.09*13
19+085:10:06:47.263 $INZDA,100647.19,26,03,2019,,*77
19+085:10:06:47.317 $INGGA,100647.17,5307.139484,S,06724.403867,W,1,12,0.7,-4.83,M,13.38,M,,*55
19+085:10:06:47.317 $INRMC,100647.17,A,5307.139484,S,06724.403867,W,12.4,135.23,260319,,,A*46
19+085:10:06:47.317 $PSXN,20,1,0,0,0*3A
19+085:10:06:47.337 $PSXN,23,0.77,0.74,134.97,0.02*31
19+085:10:06:48.263 $INZDA,100648.19,26,03,2019,,*78
19+085:10:06:48.317 $INGGA,100648.17,5307.141907,S,06724.399831,W,1,12,0.7,-4.96,M,13.38,M,,*50
19+085:10:06:48.318 $INRMC,100648.17,A,5307.141907,S,06724.399831,W,12.3,134.77,260319,,,A*40
19+085:10:06:48.318 $PSXN,20,1,0,0,0*3A
19+085:10:06:48.337 $PSXN,23,0.60,0.85,135.00,0.16*33
19+085:10:06:49.263 $INZDA,100649.19,26,03,2019,,*79
19+085:10:06:49.318 $INGGA,100649.17,5307.144308,S,06724.395798,W,1,12,0.7,-5.02,M,13.38,M,,*5D
19+085:10:06:49.318 $INRMC,100649.17,A,5307.144308,S,06724.395798,W,12.3,134.71,260319,,,A*47
19+085:10:06:49.318 $PSXN,20,1,0,0,0*3A
19+085:10:06:49.338 $PSXN,23,0.18,0.90,135.04,0.22*3B
19+085:10:06:50.264 $INZDA,100650.19,26,03,2019,,*71
19+085:10:06:50.317 $INGGA,100650.17,5307.146704,S,06724.391790,W,1,12,0.7,-4.97,M,13.38,M,,*5E
19+085:10:06:50.317 $INRMC,100650.17,A,5307.146704,S,06724.391790,W,12.2,135.11,260319,,,A*4F
19+085:10:06:50.317 $PSXN,20,1,0,0,0*3A
19+085:10:06:50.337 $PSXN,23,-0.35,0.78,135.18,0.18*1B
19+085:10:06:51.262 $INZDA,100651.19,26,03,2019,,*70
19+085:10:06:51.317 $INGGA,100651.17,5307.149126,S,06724.387832,W,1,12,0.7,-4.88,M,13.38,M,,*58
19+085:10:06:51.317 $INRMC,100651.17,A,5307.149126,S,06724.387832,W,12.2,135.63,260319,,,A*42
19+085:10:06:51.317 $PSXN,20,1,0,0,0*3A
19+085:10:06:51.338 $PSXN,23,-0.78,0.57,135.36,0.08*12
19+085:10:06:52.263 $INZDA,100652.19,26,03,2019,,*73
19+085:10:06:52.316 $INGGA,100652.17,5307.151549,S,06724.383877,W,1,12,0.7,-4.77,M,13.38,M,,*5A
19+085:10:06:52.316 $INRMC,100652.17,A,5307.151549,S,06724.383877,W,12.3,135.52,260319,,,A*43
19+085:10:06:52.317 $PSXN,20,1,0,0,0*3A
19+085:10:06:52.337 $PSXN,23,-1.07,0.49,135.42,-0.03*31
19+085:10:06:53.262 $INZDA,100653.19,26,03,2019,,*72
19+085:10:06:53.316 $INGGA,100653.17,5307.153979,S,06724.379911,W,1,12,0.7,-4.69,M,13.38,M,,*5D
19+085:10:06:53.316 $INRMC,100653.17,A,5307.153979,S,06724.379911,W,12.3,135.69,260319,,,A*43
19+085:10:06:53.316 $PSXN,20,1,0,0,0*3A
19+085:10:06:53.337 $PSXN,23,-1.22,0.56,135.42,-0.12*38
19+085:10:06:54.262 $INZDA,100654.19,26,03,2019,,*75
19+085:10:06:54.317 $INGGA,100654.17,5307.156439,S,06724.375957,W,1,12,0.7,-4.67,M,13.38,M,,*56
19+085:10:06:54.317 $INRMC,100654.17,A,5307.156439,S,06724.375957,W,12.4,136.05,260319,,,A*48
19+085:10:06:54.317 $PSXN,20,1,0,0,0*3A
19+085:10:06:54.339 $PSXN,23,-1.26,0.59,135.36,-0.13*31
19+085:10:06:55.264 $INZDA,100655.19,26,03,2019,,*74
19+085:10:06:55.317 $INGGA,100655.17,5307.158907,S,06724.371979,W,1,12,0.7,-4.73,M,13.38,M,,*54
19+085:10:06:55.317 $INRMC,100655.17,A,5307.158907,S,06724.371979,W,12.4,135.68,260319,,,A*47
19+085:10:06:55.317 $PSXN,20,1,0,0,0*3A
19+085:10:06:55.338 $PSXN,23,-1.20,0.58,135.19,-0.09*30
19+085:10:06:56.263 $INZDA,100656.19,26,03,2019,,*77
19+085:10:06:56.317 $INGGA,100656.17,5307.161375,S,06724.367960,W,1,12,0.7,-4.78,M,13.38,M,,*56
19+085:10:06:56.317 $INRMC,100656.17,A,5307.161375,S,06724.367960,W,12.5,135.50,260319,,,A*44
19+085:10:06:56.317 $PSXN,20,1,0,0,0*3A
19+085:10:06:56.338 $PSXN,23,-1.07,0.54,134.93,-0.03*30
19+085:10:06:57.262 $INZDA,100657.19,26,03,2019,,*76
19+085:10:06:57.316 $INGGA,100657.17,5307.163862,S,06724.363917,W,1,12,0.7,-4.84,M,13.38,M,,*5F
19+085:10:06:57.316 $INRMC,100657.17,A,5307.163862,S,06724.363917,W,12.6,135.77,260319,,,A*48
19+085:10:06:57.316 $PSXN,20,1,0,0,0*3A
19+085:10:06:57.337 $PSXN,23,-0.89,0.48,134.74,0.03*1E
19+085:10:06:58.262 $INZDA,100658.19,26,03,2019,,*79
19+085:10:06:58.316 $INGGA,100658.17,5307.166361,S,06724.359877,W,1,12,0.7,-4.87,M,13.38,M,,*50
19+085:10:06:58.316 $INRMC,100658.17,A,5307.166361,S,06724.359877,W,12.6,135.67,260319,,,A*45
19+085:10:06:58.316 $PSXN,20,1,0,0,0*3A
19+085:10:06:58.337 $PSXN,23,-0.62,0.52,134.61,0.06*11
19+085:10:06:59.262 $INZDA,100659.19,26,03,2019,,*78
19+085:10:06:59.317 $INGGA,100659.17,5307.168854,S,06724.355816,W,1,12,0.7,-4.85,M,13.38,M,,*5B
19+085:10:06:59.317 $INRMC,100659.17,A,5307.168854,S,06724.355816,W,12.6,135.56,260319,,,A*4E
19+085:10:06:59.317 $PSXN,20,1,0,0,0*3A
19+085:10:06:59.338 $PSXN,23,-0.32,0.71,134.65,0.05*12
19+085:10:07:00.264 $INZDA,100700.19,26,03,2019,,*75
19+085:10:07:00.317 $INGGA,100700.17,5307.171348,S,06724.351768,W,1,12,0.7,-4.82,M,13.38,M,,*5D
19+085:10:07:00.317 $INRMC,100700.17,A,5307.171348,S,06724.351768,W,12.5,135.75,260319,,,A*4D
19+085:10:07:00.317 $PSXN,20,1,0,0,0*3A
19+085:10:07:00.338 $PSXN,23,-0.01,0.89,134.96,0.02*1E
19+085:10:07:01.263 $INZDA,100701.19,26,03,2019,,*74
19+085:10:07:01.317 $INGGA,100701.17,5307.173836,S,06724.347748,W,1,12,0.7,-4.81,M,13.38,M,,*5A
19+085:10:07:01.317 $INRMC,100701.17,A,5307.173836,S,06724.347748,W,12.4,135.75,260319,,,A*48
19+085:10:07:01.317 $PSXN,20,1,0,0,0*3A
19+085:10:07:01.337 $PSXN,23,0.36,1.02,135.39,0.02*31
19+085:10:07:02.263 $INZDA,100702.19,26,03,2019,,*77
19+085:10:07:02.319 $INGGA,100702.17,5307.176292,S,06724.343771,W,1,12,0.7,-4.80,M,13.38,M,,*57
19+085:10:07:02.319 $INRMC,100702.17,A,5307.176292,S,06724.343771,W,12.3,135.72,260319,,,A*44
19+085:10:07:02.319 $PSXN,20,1,0,0,0*3A
19+085:10:07:02.338 $PSXN,23,0.70,1.07,135.71,0.02*3A
19+085:10:07:03.263 $INZDA,100703.19,26,03,2019,,*76
19+085:10:07:03.318 $INGGA,100703.17,5307.178731,S,06724.339823,W,1,12,0.7,-4.79,M,13.38,M,,*57
19+085:10:07:03.318 $INRMC,100703.17,A,5307.178731,S,06724.339823,W,12.2,135.90,260319,,,A*4F
19+085:10:07:03.318 $PSXN,20,1,0,0,0*3A
19+085:10:07:03.337 $PSXN,23,0.90,0.88,135.93,0.01*3D
19+085:10:07:04.263 $INZDA,100704.19,26,03,2019,,*71
19+085:10:07:04.318 $INGGA,100704.17,5307.181159,S,06724.335914,W,1,12,0.7,-4.78,M,13.38,M,,*56
19+085:10:07:04.318 $INRMC,100704.17,A,5307.181159,S,06724.335914,W,12.2,136.18,260319,,,A*4C
19+085:10:07:04.318 $PSXN,20,1,0,0,0*3A
19+085:10:07:04.338 $PSXN,23,0.85,0.54,136.10,0.02*33
19+085:10:07:05.263 $INZDA,100705.19,26,03,2019,,*70
19+085:10:07:05.317 $INGGA,100705.17,5307.183607,S,06724.332024,W,1,12,0.7,-4.79,M,13.38,M,,*55
19+085:10:07:05.317 $INRMC,100705.17,A,5307.183607,S,06724.332024,W,12.2,136.37,260319,,,A*43
19+085:10:07:05.317 $PSXN,20,1,0,0,0*3A
19+085:10:07:05.337 $PSXN,23,0.54,0.30,136.18,0.02*35
19+085:10:07:06.263 $INZDA,100706.19,26,03,2019,,*73
19+085:10:07:06.317 $INGGA,100706.17,5307.186069,S,06724.328099,W,1,12,0.7,-4.78,M,13.38,M,,*51
19+085:10:07:06.317 $INRMC,100706.17,A,5307.186069,S,06724.328099,W,12.3,136.19,260319,,,A*4B
19+085:10:07:06.317 $PSXN,20,1,0,0,0*3A
19+085:10:07:06.337 $PSXN,23,0.02,0.26,136.09,0.01*32
19+085:10:07:07.264 $INZDA,100707.19,26,03,2019,,*72
19+085:10:07:07.319 $INGGA,100707.17,5307.188542,S,06724.324145,W,1,12,0.7,-4.75,M,13.38,M,,*53
19+085:10:07:07.319 $INRMC,100707.17,A,5307.188542,S,06724.324145,W,12.4,136.17,260319,,,A*4D
19+085:10:07:07.319 $PSXN,20,1,0,0,0*3A
19+085:10:07:07.340 $PSXN,23,-0.66,0.41,135.85,-0.02*35
19+085:10:07:08.263 $INZDA,100708.19,26,03,2019,,*7D
19+085:10:07:08.317 $INGGA,100708.17,5307.191039,S,06724.320175,W,1,12,0.7,-4.72,M,13.38,M,,*5D
19+085:10:07:08.317 $INRMC,100708.17,A,5307.191039,S,06724.320175,W,12.5,136.26,260319,,,A*47
19+085:10:07:08.317 $PSXN,20,1,0,0,0*3A
19+085:10:07:08.338 $PSXN,23,-1.37,0.65,135.55,-0.06*3F
19+085:10:07:09.263 $INZDA,100709.19,26,03,2019,,*7C
19+085:10:07:09.317 $INGGA,100709.17,5307.193539,S,06724.316210,W,1,12,0.7,-4.69,M,13.38,M,,*54
19+085:10:07:09.317 $INRMC,100709.17,A,5307.193539,S,06724.316210,W,12.4,136.41,260319,,,A*44
19+085:10:07:09.317 $PSXN,20,1,0,0,0*3A
19+085:10:07:09.338 $PSXN,23,-1.96,0.88,135.27,-0.08*3C
19+085:10:07:10.263 $INZDA,100710.19,26,03,2019,,*74
19+085:10:07:10.317 $INGGA,100710.17,5307.196037,S,06724.312257,W,1,12,0.7,-4.70,M,13.38,M,,*5D
19+085:10:07:10.317 $INRMC,100710.17,A,5307.196037,S,06724.312257,W,12.4,136.48,260319,,,A*4C
19+085:10:07:10.317 $PSXN,20,1,0,0,0*3A
19+085:10:07:10.339 $PSXN,23,-2.29,0.96,135.19,-0.08*39
19+085:10:07:11.264 $INZDA,100711.19,26,03,2019,,*75
19+085:10:07:11.318 $INGGA,100711.17,5307.198529,S,06724.308322,W,1,12,0.7,-4.73,M,13.38,M,,*53
19+085:10:07:11.318 $INRMC,100711.17,A,5307.198529,S,06724.308322,W,12.3,136.37,260319,,,A*4E
19+085:10:07:11.318 $PSXN,20,1,0,0,0*3A
19+085:10:07:11.339 $PSXN,23,-2.23,0.84,135.23,-0.04*35
19+085:10:07:12.264 $INZDA,100712.19,26,03,2019,,*76
19+085:10:07:12.319 $INGGA,100712.17,5307.201002,S,06724.304391,W,1,12,0.7,-4.78,M,13.38,M,,*50
19+085:10:07:12.319 $INRMC,100712.17,A,5307.201002,S,06724.304391,W,12.3,136.22,260319,,,A*42
19+085:10:07:12.319 $PSXN,20,1,0,0,0*3A
19+085:10:07:12.338 $PSXN,23,-1.74,0.67,135.33,0.02*13
19+085:10:07:13.265 $INZDA,100713.19,26,03,2019,,*77
19+085:10:07:13.318 $INGGA,100713.17,5307.203477,S,06724.300460,W,1,12,0.7,-4.82,M,13.38,M,,*5D
19+085:10:07:13.318 $INRMC,100713.17,A,5307.203477,S,06724.300460,W,12.3,136.20,260319,,,A*48
19+085:10:07:13.318 $PSXN,20,1,0,0,0*3A
19+085:10:07:13.338 $PSXN,23,-0.96,0.51,135.44,0.06*1F
19+085:10:07:14.263 $INZDA,100714.19,26,03,2019,,*70
19+085:10:07:14.318 $INGGA,100714.17,5307.205946,S,06724.296510,W,1,12,0.7,-4.83,M,13.38,M,,*5A
19+085:10:07:14.318 $INRMC,100714.17,A,5307.205946,S,06724.296510,W,12.3,136.04,260319,,,A*48
19+085:10:07:14.318 $PSXN,20,1,0,0,0*3A
19+085:10:07:14.339 $PSXN,23,-0.05,0.50,135.55,0.08*1A
19+085:10:07:15.263 $INZDA,100715.19,26,03,2019,,*71
19+085:10:07:15.317 $INGGA,100715.17,5307.208412,S,06724.292558,W,1,12,0.7,-4.81,M,13.38,M,,*50
19+085:10:07:15.317 $INRMC,100715.17,A,5307.208412,S,06724.292558,W,12.4,135.92,260319,,,A*4B
19+085:10:07:15.317 $PSXN,20,1,0,0,0*3A
19+085:10:07:15.338 $PSXN,23,0.86,0.67,135.62,0.07*33
19+085:10:07:16.263 $INZDA,100716.19,26,03,2019,,*72
19+085:10:07:16.339 $INGGA,100716.17,5307.210877,S,06724.288588,W,1,12,0.7,-4.77,M,13.38,M,,*5A
19+085:10:07:16.339 $INRMC,100716.17,A,5307.210877,S,06724.288588,W,12.4,135.74,260319,,,A*40
19+085:10:07:16.339 $PSXN,20,1,0,0,0*3A
19+085:10:07:16.339 $PSXN,23,1.64,0.82,135.54,0.03*34
19+085:10:07:17.263 $INZDA,100717.19,26,03,2019,,*73
19+085:10:07:17.318 $INGGA,100717.17,5307.213336,S,06724.284591,W,1,12,0.7,-4.74,M,13.38,M,,*51
19+085:10:07:17.318 $INRMC,100717.17,A,5307.213336,S,06724.284591,W,12.4,135.65,260319,,,A*48
19+085:10:07:17.318 $PSXN,20,1,0,0,0*3A
19+085:10:07:17.318 $PSXN,23,2.09,0.69,135.40,0.01*3E
19+085:10:07:18.264 $INZDA,100718.19,26,03,2019,,*7C
19+085:10:07:18.340 $INGGA,100718.17,5307.215807,S,06724.280585,W,1,12,0.7,-4.75,M,13.38,M,,*51
19+085:10:07:18.340 $INRMC,100718.17,A,5307.215807,S,06724.280585,W,12.5,135.93,260319,,,A*41
19+085:10:07:18.340 $PSXN,20,1,0,0,0*3A
19+085:10:07:18.340 $PSXN,23,2.11,0.42,135.20,0.02*3B
19+085:10:07:19.264 $INZDA,100719.19,26,03,2019,,*7D
19+085:10:07:19.318 $INGGA,100719.17,5307.218293,S,06724.276592,W,1,12,0.7,-4.75,M,13.38,M,,*55
19+085:10:07:19.318 $INRMC,100719.17,A,5307.218293,S,06724.276592,W,12.5,136.15,260319,,,A*48
19+085:10:07:19.318 $PSXN,20,1,0,0,0*3A
19+085:10:07:19.338 $PSXN,23,1.71,0.33,135.07,0.02*3D
19+085:10:07:20.264 $INZDA,100720.19,26,03,2019,,*77
19+085:10:07:20.318 $INGGA,100720.17,5307.220797,S,06724.272597,W,1,12,0.7,-4.68,M,13.38,M,,*58
19+085:10:07:20.318 $INRMC,100720.17,A,5307.220797,S,06724.272597,W,12.5,136.28,260319,,,A*47
19+085:10:07:20.318 $PSXN,20,1,0,0,0*3A
19+085:10:07:20.339 $PSXN,23,0.89,0.52,135.13,-0.05*13
19+085:10:07:21.264 $INZDA,100721.19,26,03,2019,,*76
19+085:10:07:21.319 $INGGA,100721.17,5307.223303,S,06724.268605,W,1,12,0.7,-4.56,M,13.38,M,,*5D
19+085:10:07:21.319 $INRMC,100721.17,A,5307.223303,S,06724.268605,W,12.5,136.28,260319,,,A*4F
19+085:10:07:21.319 $PSXN,20,1,0,0,0*3A
19+085:10:07:21.340 $PSXN,23,-0.14,0.86,135.30,-0.16*30
19+085:10:07:22.263 $INZDA,100722.19,26,03,2019,,*75
19+085:10:07:22.318 $INGGA,100722.17,5307.225808,S,06724.264626,W,1,12,0.7,-4.52,M,13.38,M,,*51
19+085:10:07:22.318 $INRMC,100722.17,A,5307.225808,S,06724.264626,W,12.5,136.26,260319,,,A*49
19+085:10:07:22.318 $PSXN,20,1,0,0,0*3A
19+085:10:07:22.339 $PSXN,23,-1.09,1.05,135.38,-0.21*3B
19+085:10:07:23.264 $INZDA,100723.19,26,03,2019,,*74
19+085:10:07:23.319 $INGGA,100723.17,5307.228293,S,06724.260665,W,1,12,0.7,-4.63,M,13.38,M,,*54
19+085:10:07:23.319 $INRMC,100723.17,A,5307.228293,S,06724.260665,W,12.4,136.22,260319,,,A*4B
19+085:10:07:23.319 $PSXN,20,1,0,0,0*3A
19+085:10:07:23.339 $PSXN,23,-1.81,0.94,135.37,-0.09*37
19+085:10:07:24.264 $INZDA,100724.19,26,03,2019,,*73
19+085:10:07:24.318 $INGGA,100724.17,5307.230760,S,06724.256709,W,1,12,0.7,-4.83,M,13.38,M,,*53
19+085:10:07:24.318 $INRMC,100724.17,A,5307.230760,S,06724.256709,W,12.3,135.85,260319,,,A*4B
19+085:10:07:24.318 $PSXN,20,1,0,0,0*3A
19+085:10:07:24.338 $PSXN,23,-2.26,0.65,135.37,0.11*13
19+085:10:07:25.264 $INZDA,100725.19,26,03,2019,,*72
19+085:10:07:25.318 $INGGA,100725.17,5307.233196,S,06724.252745,W,1,12,0.7,-4.94,M,13.38,M,,*54
19+085:10:07:25.318 $INRMC,100725.17,A,5307.233196,S,06724.252745,W,12.3,135.46,260319,,,A*45
19+085:10:07:25.318 $PSXN,20,1,0,0,0*3A
19+085:10:07:25.339 $PSXN,23,-2.39,0.58,135.35,0.21*12
19+085:10:07:26.264 $INZDA,100726.19,26,03,2019,,*71
19+085:10:07:26.318 $INGGA,100726.17,5307.235618,S,06724.248783,W,1,12,0.7,-4.86,M,13.38,M,,*52
19+085:10:07:26.318 $INRMC,100726.17,A,5307.235618,S,06724.248783,W,12.2,135.56,260319,,,A*40
19+085:10:07:26.318 $PSXN,20,1,0,0,0*3A
19+085:10:07:26.339 $PSXN,23,-2.11,0.75,135.22,0.14*17
19+085:10:07:27.264 $INZDA,100727.19,26,03,2019,,*70
19+085:10:07:27.318 $INGGA,100727.17,5307.238055,S,06724.244839,W,1,12,0.7,-4.72,M,13.38,M,,*58
19+085:10:07:27.318 $INRMC,100727.17,A,5307.238055,S,06724.244839,W,12.3,135.92,260319,,,A*48
19+085:10:07:27.318 $PSXN,20,1,0,0,0*3A
19+085:10:07:27.339 $PSXN,23,-1.45,0.81,135.03,0.01*19
19+085:10:07:28.264 $INZDA,100728.19,26,03,2019,,*7F
19+085:10:07:28.318 $INGGA,100728.17,5307.240524,S,06724.240897,W,1,12,0.7,-4.67,M,13.38,M,,*5F
19+085:10:07:28.318 $INRMC,100728.17,A,5307.240524,S,06724.240897,W,12.4,136.11,260319,,,A*44
19+085:10:07:28.318 $PSXN,20,1,0,0,0*3A
19+085:10:07:28.339 $PSXN,23,-0.57,0.58,134.82,-0.04*3F
19+085:10:07:29.264 $INZDA,100729.19,26,03,2019,,*7E
19+085:10:07:29.318 $INGGA,100729.17,5307.242999,S,06724.236925,W,1,12,0.7,-4.70,M,13.38,M,,*59
19+085:10:07:29.318 $INRMC,100729.17,A,5307.242999,S,06724.236925,W,12.4,135.92,260319,,,A*4C
19+085:10:07:29.318 $PSXN,20,1,0,0,0*3A
19+085:10:07:29.339 $PSXN,23,0.30,0.37,134.65,-0.01*16
19+085:10:07:30.264 $INZDA,100730.19,26,03,2019,,*76
19+085:10:07:30.319 $INGGA,100730.17,5307.245468,S,06724.232932,W,1,12,0.7,-4.72,M,13.38,M,,*55
19+085:10:07:30.319 $INRMC,100730.17,A,5307.245468,S,06724.232932,W,12.4,135.59,260319,,,A*45
19+085:10:07:30.319 $PSXN,20,1,0,0,0*3A
19+085:10:07:30.339 $PSXN,23,1.03,0.47,134.48,0.02*31
19+085:10:07:31.265 $INZDA,100731.19,26,03,2019,,*77
19+085:10:07:31.319 $INGGA,100731.17,5307.247927,S,06724.228929,W,1,12,0.7,-4.69,M,13.38,M,,*5B
19+085:10:07:31.319 $INRMC,100731.17,A,5307.247927,S,06724.228929,W,12.4,135.74,260319,,,A*4E
19+085:10:07:31.319 $PSXN,20,1,0,0,0*3A
19+085:10:07:31.339 $PSXN,23,1.47,0.81,134.37,-0.01*1D
19+085:10:07:32.264 $INZDA,100732.19,26,03,2019,,*74
19+085:10:07:32.319 $INGGA,100732.17,5307.250393,S,06724.224955,W,1,12,0.7,-4.64,M,13.38,M,,*51
19+085:10:07:32.319 $INRMC,100732.17,A,5307.250393,S,06724.224955,W,12.4,136.04,260319,,,A*4D
19+085:10:07:32.319 $PSXN,20,1,0,0,0*3A
19+085:10:07:32.340 $PSXN,23,1.56,1.00,134.43,-0.05*12
19+085:10:07:33.265 $INZDA,100733.19,26,03,2019,,*75
19+085:10:07:33.318 $INGGA,100733.18,5307.252866,S,06724.221001,W,1,12,0.7,-4.64,M,13.38,M,,*51
19+085:10:07:33.318 $INRMC,100733.18,A,5307.252866,S,06724.221001,W,12.4,136.05,260319,,,A*4C
19+085:10:07:33.318 $PSXN,20,1,0,0,0*3A
19+085:10:07:33.339 $PSXN,23,1.29,0.84,134.72,-0.06*16
19+085:10:07:34.265 $INZDA,100734.19,26,03,2019,,*72
19+085:10:07:34.319 $INGGA,100734.18,5307.255327,S,06724.217025,W,1,12,0.7,-4.67,M,13.38,M,,*5F
19+085:10:07:34.319 $INRMC,100734.18,A,5307.255327,S,06724.217025,W,12.4,135.72,260319,,,A*42
19+085:10:07:34.319 $PSXN,20,1,0,0,0*3A
19+085:10:07:34.339 $PSXN,23,0.83,0.57,135.07,-0.02*1E
19+085:10:07:35.265 $INZDA,100735.19,26,03,2019,,*73
19+085:10:07:35.339 $INGGA,100735.18,5307.257782,S,06724.213020,W,1,12,0.7,-4.69,M,13.38,M,,*58
19+085:10:07:35.339 $INRMC,100735.18,A,5307.257782,S,06724.213020,W,12.4,135.47,260319,,,A*4D
19+085:10:07:35.339 $PSXN,20,1,0,0,0*3A
19+085:10:07:35.339 $PSXN,23,0.30,0.45,135.31,0.00*3F
19+085:10:07:36.264 $INZDA,100736.19,26,03,2019,,*70
19+085:10:07:36.319 $INGGA,100736.18,5307.260232,S,06724.209011,W,1,12,0.7,-4.68,M,13.38,M,,*59
19+085:10:07:36.319 $INRMC,100736.18,A,5307.260232,S,06724.209011,W,12.4,135.59,260319,,,A*42
19+085:10:07:36.319 $PSXN,20,1,0,0,0*3A
19+085:10:07:36.339 $PSXN,23,-0.21,0.60,135.29,-0.01*30
19+085:10:07:37.264 $INZDA,100737.19,26,03,2019,,*71
19+085:10:07:37.318 $INGGA,100737.18,5307.262701,S,06724.205014,W,1,12,0.7,-4.65,M,13.38,M,,*5B
19+085:10:07:37.318 $INRMC,100737.18,A,5307.262701,S,06724.205014,W,12.4,135.84,260319,,,A*4D
19+085:10:07:37.318 $PSXN,20,1,0,0,0*3A
19+085:10:07:37.339 $PSXN,23,-0.70,0.73,135.14,-0.03*3A
19+085:10:07:38.265 $INZDA,100738.19,26,03,2019,,*7E
19+085:10:07:38.319 $INGGA,100738.18,5307.265176,S,06724.201018,W,1,12,0.7,-4.66,M,13.38,M,,*5E
19+085:10:07:38.319 $INRMC,100738.18,A,5307.265176,S,06724.201018,W,12.4,135.83,260319,,,A*4C
19+085:10:07:38.319 $PSXN,20,1,0,0,0*3A
19+085:10:07:38.340 $PSXN,23,-1.22,0.66,134.98,-0.03*3D
19+085:10:07:39.266 $INZDA,100739.19,26,03,2019,,*7F
19+085:10:07:39.319 $INGGA,100739.18,5307.267641,S,06724.197008,W,1,12,0.7,-4.68,M,13.38,M,,*5D
19+085:10:07:39.319 $INRMC,100739.18,A,5307.267641,S,06724.197008,W,12.4,135.47,260319,,,A*49
19+085:10:07:39.319 $PSXN,20,1,0,0,0*3A
19+085:10:07:39.339 $PSXN,23,-1.63,0.57,134.74,-0.00*3B
19+085:10:07:40.265 $INZDA,100740.19,26,03,2019,,*71
19+085:10:07:40.319 $INGGA,100740.18,5307.270099,S,06724.192979,W,1,12,0.7,-4.73,M,13.38,M,,*56
19+085:10:07:40.319 $INRMC,100740.18,A,5307.270099,S,06724.192979,W,12.5,135.40,260319,,,A*4E
19+085:10:07:40.319 $PSXN,20,1,0,0,0*3A
19+085:10:07:40.339 $PSXN,23,-1.81,0.57,134.53,0.05*1A
19+085:10:07:41.264 $INZDA,100741.19,26,03,2019,,*70
19+085:10:07:41.318 $INGGA,100741.18,5307.272572,S,06724.188949,W,1,12,0.7,-4.80,M,13.38,M,,*51
19+085:10:07:41.318 $INRMC,100741.18,A,5307.272572,S,06724.188949,W,12.5,135.58,260319,,,A*4C
19+085:10:07:41.318 $PSXN,20,1,0,0,0*3A
19+085:10:07:41.338 $PSXN,23,-1.72,0.60,134.50,0.11*14
19+085:10:07:42.265 $INZDA,100742.19,26,03,2019,,*73
19+085:10:07:42.319 $INGGA,100742.18,5307.275049,S,06724.184918,W,1,12,0.7,-4.85,M,13.38,M,,*55
19+085:10:07:42.319 $INRMC,100742.18,A,5307.275049,S,06724.184918,W,12.5,135.34,260319,,,A*47
19+085:10:07:42.319 $PSXN,20,1,0,0,0*3A
19+085:10:07:42.339 $PSXN,23,-1.28,0.68,134.58,0.15*1F
19+085:10:07:43.265 $INZDA,100743.19,26,03,2019,,*72
19+085:10:07:43.320 $INGGA,100743.18,5307.277509,S,06724.180860,W,1,12,0.7,-4.79,M,13.38,M,,*5E
19+085:10:07:43.320 $INRMC,100743.18,A,5307.277509,S,06724.180860,W,12.5,135.10,260319,,,A*49
19+085:10:07:43.320 $PSXN,20,1,0,0,0*3A
19+085:10:07:43.339 $PSXN,23,-0.54,0.84,134.58,0.09*1A
19+085:10:07:44.264 $INZDA,100744.19,26,03,2019,,*75
19+085:10:07:44.318 $INGGA,100744.18,5307.279961,S,06724.176828,W,1,12,0.7,-4.66,M,13.38,M,,*5E
19+085:10:07:44.318 $INRMC,100744.18,A,5307.279961,S,06724.176828,W,12.4,135.44,260319,,,A*47
19+085:10:07:44.318 $PSXN,20,1,0,0,0*3A
19+085:10:07:44.339 $PSXN,23,0.32,0.98,134.46,-0.03*12
19+085:10:07:45.265 $INZDA,100745.19,26,03,2019,,*74
19+085:10:07:45.319 $INGGA,100745.18,5307.282411,S,06724.172843,W,1,12,0.7,-4.56,M,13.38,M,,*5B
19+085:10:07:45.319 $INRMC,100745.18,A,5307.282411,S,06724.172843,W,12.3,135.58,260319,,,A*4B
19+085:10:07:45.319 $PSXN,20,1,0,0,0*3A
19+085:10:07:45.339 $PSXN,23,1.08,0.99,134.24,-0.13*1E
19+085:10:07:46.265 $INZDA,100746.19,26,03,2019,,*77
19+085:10:07:46.320 $INGGA,100746.18,5307.284861,S,06724.168865,W,1,12,0.7,-4.56,M,13.38,M,,*5A
19+085:10:07:46.320 $INRMC,100746.18,A,5307.284861,S,06724.168865,W,12.3,135.40,260319,,,A*43
19+085:10:07:46.320 $PSXN,20,1,0,0,0*3A
19+085:10:07:46.340 $PSXN,23,1.49,0.74,134.06,-0.13*18
19+085:10:07:47.265 $INZDA,100747.19,26,03,2019,,*76
19+085:10:07:47.319 $INGGA,100747.18,5307.287295,S,06724.164856,W,1,12,0.7,-4.64,M,13.38,M,,*54
19+085:10:07:47.319 $INRMC,100747.18,A,5307.287295,S,06724.164856,W,12.4,135.06,260319,,,A*49
19+085:10:07:47.319 $PSXN,20,1,0,0,0*3A
19+085:10:07:47.339 $PSXN,23,1.46,0.43,133.99,-0.05*15
19+085:10:07:48.265 $INZDA,100748.19,26,03,2019,,*79
19+085:10:07:48.319 $INGGA,100748.18,5307.289717,S,06724.160817,W,1,12,0.7,-4.72,M,13.38,M,,*5C
19+085:10:07:48.319 $INRMC,100748.18,A,5307.289717,S,06724.160817,W,12.4,134.92,260319,,,A*4A
19+085:10:07:48.319 $PSXN,20,1,0,0,0*3A
19+085:10:07:48.338 $PSXN,23,1.10,0.37,133.98,0.04*38
19+085:10:07:49.265 $INZDA,100749.19,26,03,2019,,*78
19+085:10:07:49.319 $INGGA,100749.18,5307.292146,S,06724.156767,W,1,12,0.7,-4.75,M,13.38,M,,*5F
19+085:10:07:49.319 $INRMC,100749.18,A,5307.292146,S,06724.156767,W,12.4,134.79,260319,,,A*4B
19+085:10:07:49.319 $PSXN,20,1,0,0,0*3A
19+085:10:07:49.338 $PSXN,23,0.60,0.55,134.02,0.07*3D
19+085:10:07:50.265 $INZDA,100750.19,26,03,2019,,*70
19+085:10:07:50.320 $INGGA,100750.18,5307.294581,S,06724.152697,W,1,12,0.7,-4.72,M,13.38,M,,*53
19+085:10:07:50.320 $INRMC,100750.18,A,5307.294581,S,06724.152697,W,12.5,134.88,260319,,,A*4F
19+085:10:07:50.320 $PSXN,20,1,0,0,0*3A
19+085:10:07:50.320 $PSXN,23,0.08,0.73,134.04,0.05*33
19+085:10:07:51.265 $INZDA,100751.19,26,03,2019,,*71
19+085:10:07:51.319 $INGGA,100751.18,5307.297020,S,06724.148625,W,1,12,0.7,-4.71,M,13.38,M,,*5E
19+085:10:07:51.319 $INRMC,100751.18,A,5307.297020,S,06724.148625,W,12.5,134.88,260319,,,A*41
19+085:10:07:51.319 $PSXN,20,1,0,0,0*3A
19+085:10:07:51.339 $PSXN,23,-0.37,0.71,134.14,0.04*10
19+085:10:07:52.265 $INZDA,100752.19,26,03,2019,,*72
19+085:10:07:52.320 $INGGA,100752.18,5307.299458,S,06724.144554,W,1,12,0.7,-4.73,M,13.38,M,,*53
19+085:10:07:52.320 $INRMC,100752.18,A,5307.299458,S,06724.144554,W,12.4,134.87,260319,,,A*40
19+085:10:07:52.320 $PSXN,20,1,0,0,0*3A
19+085:10:07:52.339 $PSXN,23,-0.69,0.62,134.29,0.04*17
19+085:10:07:53.264 $INZDA,100753.19,26,03,2019,,*73
19+085:10:07:53.320 $INGGA,100753.18,5307.301889,S,06724.140501,W,1,12,0.7,-4.75,M,13.38,M,,*50
19+085:10:07:53.320 $INRMC,100753.18,A,5307.301889,S,06724.140501,W,12.4,134.89,260319,,,A*4B
19+085:10:07:53.320 $PSXN,20,1,0,0,0*3A
19+085:10:07:53.340 $PSXN,23,-0.81,0.69,134.41,0.04*14
19+085:10:07:54.265 $INZDA,100754.19,26,03,2019,,*74
19+085:10:07:54.319 $INGGA,100754.18,5307.304315,S,06724.136466,W,1,12,0.7,-4.74,M,13.38,M,,*5C
19+085:10:07:54.319 $INRMC,100754.18,A,5307.304315,S,06724.136466,W,12.4,135.01,260319,,,A*47
19+085:10:07:54.319 $PSXN,20,1,0,0,0*3A
19+085:10:07:54.339 $PSXN,23,-0.70,0.85,134.38,0.03*11
19+085:10:07:55.266 $INZDA,100755.19,26,03,2019,,*75
19+085:10:07:55.320 $INGGA,100755.18,5307.306743,S,06724.132454,W,1,12,0.7,-4.72,M,13.38,M,,*5B
19+085:10:07:55.320 $INRMC,100755.18,A,5307.306743,S,06724.132454,W,12.4,135.29,260319,,,A*4C
19+085:10:07:55.320 $PSXN,20,1,0,0,0*3A
19+085:10:07:55.340 $PSXN,23,-0.50,0.80,134.32,0.01*1E
19+085:10:07:56.265 $INZDA,100756.19,26,03,2019,,*76
19+085:10:07:56.320 $INGGA,100756.18,5307.309183,S,06724.128435,W,1,12,0.7,-4.72,M,13.38,M,,*51
19+085:10:07:56.320 $INRMC,100756.18,A,5307.309183,S,06724.128435,W,12.4,135.29,260319,,,A*46
19+085:10:07:56.320 $PSXN,20,1,0,0,0*3A
19+085:10:07:56.339 $PSXN,23,-0.34,0.49,134.25,0.00*1E
19+085:10:07:57.264 $INZDA,100757.19,26,03,2019,,*77
19+085:10:07:57.319 $INGGA,100757.18,5307.311623,S,06724.124397,W,1,12,0.7,-4.70,M,13.38,M,,*55
19+085:10:07:57.319 $INRMC,100757.18,A,5307.311623,S,06724.124397,W,12.4,135.08,260319,,,A*43
19+085:10:07:57.319 $PSXN,20,1,0,0,0*3A
19+085:10:07:57.341 $PSXN,23,-0.27,0.30,134.17,-0.01*3F
19+085:10:07:58.266 $INZDA,100758.19,26,03,2019,,*78
19+085:10:07:58.319 $INGGA,100758.18,5307.314064,S,06724.120338,W,1,12,0.7,-4.65,M,13.38,M,,*5F
19+085:10:07:58.319 $INRMC,100758.18,A,5307.314064,S,06724.120338,W,12.5,135.07,260319,,,A*43
19+085:10:07:58.319 $PSXN,20,1,0,0,0*3A
19+085:10:07:58.339 $PSXN,23,-0.27,0.50,133.99,-0.06*3F
19+085:10:07:59.265 $INZDA,100759.19,26,03,2019,,*79
19+085:10:07:59.319 $INGGA,100759.18,5307.316513,S,06724.116294,W,1,12,0.7,-4.63,M,13.38,M,,*5D
19+085:10:07:59.320 $INRMC,100759.18,A,5307.316513,S,06724.116294,W,12.5,135.26,260319,,,A*44
19+085:10:07:59.320 $PSXN,20,1,0,0,0*3A
19+085:10:07:59.340 $PSXN,23,-0.30,0.85,133.84,-0.09*32
19+085:10:08:00.265 $INZDA,100800.19,26,03,2019,,*7A
19+085:10:08:00.320 $INGGA,100800.18,5307.318960,S,06724.112248,W,1,12,0.7,-4.69,M,13.38,M,,*57
19+085:10:08:00.320 $INRMC,100800.18,A,5307.318960,S,06724.112248,W,12.4,134.95,260319,,,A*4C
19+085:10:08:00.320 $PSXN,20,1,0,0,0*3A
19+085:10:08:00.340 $PSXN,23,-0.32,0.99,133.78,-0.03*34
19+085:10:08:01.265 $INZDA,100801.19,26,03,2019,,*7B
19+085:10:08:01.319 $INGGA,100801.18,5307.321379,S,06724.108173,W,1,12,0.7,-4.79,M,13.38,M,,*5F
19+085:10:08:01.319 $INRMC,100801.18,A,5307.321379,S,06724.108173,W,12.4,134.28,260319,,,A*43
19+085:10:08:01.319 $PSXN,20,1,0,0,0*3A
19+085:10:08:01.339 $PSXN,23,-0.35,0.89,133.81,0.06*1C
19+085:10:08:02.264 $INZDA,100802.19,26,03,2019,,*78
19+085:10:08:02.319 $INGGA,100802.18,5307.323766,S,06724.104086,W,1,12,0.7,-4.86,M,13.38,M,,*53
19+085:10:08:02.320 $INRMC,100802.18,A,5307.323766,S,06724.104086,W,12.3,134.09,260319,,,A*4B
19+085:10:08:02.320 $PSXN,20,1,0,0,0*3A
19+085:10:08:02.339 $PSXN,23,-0.38,0.72,133.76,0.14*1E
19+085:10:08:03.267 $INZDA,100803.19,26,03,2019,,*79
19+085:10:08:03.319 $INGGA,100803.18,5307.326146,S,06724.100022,W,1,12,0.7,-4.87,M,13.38,M,,*58
19+085:10:08:03.319 $INRMC,100803.18,A,5307.326146,S,06724.100022,W,12.3,134.40,260319,,,A*4C
19+085:10:08:03.319 $PSXN,20,1,0,0,0*3A
19+085:10:08:03.340 $PSXN,23,-0.36,0.62,133.66,0.15*11
19+085:10:08:04.265 $INZDA,100804.19,26,03,2019,,*7E
19+085:10:08:04.320 $INGGA,100804.18,5307.328536,S,06724.095973,W,1,12,0.7,-4.79,M,13.38,M,,*53
19+085:10:08:04.320 $INRMC,100804.18,A,5307.328536,S,06724.095973,W,12.3,134.53,260319,,,A*44
19+085:10:08:04.320 $PSXN,20,1,0,0,0*3A
19+085:10:08:04.340 $PSXN,23,-0.34,0.58,133.67,0.08*17
19+085:10:08:05.265 $INZDA,100805.19,26,03,2019,,*7F
19+085:10:08:05.319 $INGGA,100805.18,5307.330928,S,06724.091921,W,1,12,0.7,-4.66,M,13.38,M,,*55
19+085:10:08:05.319 $INRMC,100805.18,A,5307.330928,S,06724.091921,W,12.3,134.42,260319,,,A*4C
19+085:10:08:05.319 $PSXN,20,1,0,0,0*3A
19+085:10:08:05.340 $PSXN,23,-0.25,0.61,133.74,-0.05*3F
19+085:10:08:06.264 $INZDA,100806.19,26,03,2019,,*7C
19+085:10:08:06.318 $INGGA,100806.18,5307.333329,S,06724.087852,W,1,12,0.7,-4.59,M,13.38,M,,*50
19+085:10:08:06.318 $INRMC,100806.18,A,5307.333329,S,06724.087852,W,12.4,134.63,260319,,,A*41
19+085:10:08:06.319 $PSXN,20,1,0,0,0*3A
19+085:10:08:06.339 $PSXN,23,0.01,0.62,133.76,-0.12*13
19+085:10:08:07.265 $INZDA,100807.19,26,03,2019,,*7D
19+085:10:08:07.321 $INGGA,100807.18,5307.335760,S,06724.083796,W,1,12,0.7,-4.63,M,13.38,M,,*54
19+085:10:08:07.321 $INRMC,100807.18,A,5307.335760,S,06724.083796,W,12.4,134.97,260319,,,A*47
19+085:10:08:07.321 $PSXN,20,1,0,0,0*3A
19+085:10:08:07.341 $PSXN,23,0.39,0.58,133.75,-0.08*19
19+085:10:08:08.266 $INZDA,100808.19,26,03,2019,,*72
19+085:10:08:08.319 $INGGA,100808.18,5307.338207,S,06724.079744,W,1,12,0.7,-4.72,M,13.38,M,,*58
19+085:10:08:08.319 $INRMC,100808.18,A,5307.338207,S,06724.079744,W,12.4,135.11,260319,,,A*44
19+085:10:08:08.319 $PSXN,20,1,0,0,0*3A
19+085:10:08:08.339 $PSXN,23,0.69,0.57,133.77,0.00*34
19+085:10:08:09.265 $INZDA,100809.19,26,03,2019,,*73
19+085:10:08:09.320 $INGGA,100809.18,5307.340650,S,06724.075703,W,1,12,0.7,-4.74,M,13.38,M,,*59
19+085:10:08:09.321 $INRMC,100809.18,A,5307.340650,S,06724.075703,W,12.4,135.07,260319,,,A*44
19+085:10:08:09.321 $PSXN,20,1,0,0,0*3A
19+085:10:08:09.340 $PSXN,23,0.73,0.69,133.84,0.03*3D
19+085:10:08:10.266 $INZDA,100810.19,26,03,2019,,*7B
19+085:10:08:10.319 $INGGA,100810.18,5307.343083,S,06724.071651,W,1,12,0.7,-4.70,M,13.38,M,,*5C
19+085:10:08:10.319 $INRMC,100810.18,A,5307.343083,S,06724.071651,W,12.4,134.80,260319,,,A*4B
19+085:10:08:10.319 $PSXN,20,1,0,0,0*3A
19+085:10:08:10.339 $PSXN,23,0.50,0.77,133.91,-0.01*18
19+085:10:08:11.265 $INZDA,100811.19,26,03,2019,,*7A
19+085:10:08:11.319 $INGGA,100811.18,5307.345503,S,06724.067585,W,1,12,0.7,-4.67,M,13.38,M,,*5D
19+085:10:08:11.319 $INRMC,100811.18,A,5307.345503,S,06724.067585,W,12.4,134.60,260319,,,A*42
19+085:10:08:11.319 $PSXN,20,1,0,0,0*3A
19+085:10:08:11.340 $PSXN,23,0.03,0.71,133.97,-0.03*1C
19+085:10:08:12.265 $INZDA,100812.19,26,03,2019,,*79
19+085:10:08:12.320 $INGGA,100812.18,5307.347906,S,06724.063508,W,1,12,0.7,-4.74,M,13.38,M,,*56
19+085:10:08:12.320 $INRMC,100812.18,A,5307.347906,S,06724.063508,W,12.4,134.34,260319,,,A*4A
19+085:10:08:12.320 $PSXN,20,1,0,0,0*3A
19+085:10:08:12.341 $PSXN,23,-0.49,0.59,134.00,0.04*16
19+085:10:08:13.267 $INZDA,100813.19,26,03,2019,,*78
19+085:10:08:13.320 $INGGA,100813.18,5307.350304,S,06724.059407,W,1,12,0.7,-4.86,M,13.38,M,,*53
19+085:10:08:13.320 $INRMC,100813.18,A,5307.350304,S,06724.059407,W,12.4,134.10,260319,,,A*44
19+085:10:08:13.320 $PSXN,20,1,0,0,0*3A
19+085:10:08:13.340 $PSXN,23,-0.92,0.52,134.09,0.15*12
19+085:10:08:14.265 $INZDA,100814.19,26,03,2019,,*7F
19+085:10:08:14.320 $INGGA,100814.18,5307.352708,S,06724.055293,W,1,12,0.7,-4.90,M,13.38,M,,*5E
19+085:10:08:14.320 $INRMC,100814.18,A,5307.352708,S,06724.055293,W,12.4,134.23,260319,,,A*4E
19+085:10:08:14.320 $PSXN,20,1,0,0,0*3A
19+085:10:08:14.340 $PSXN,23,-1.17,0.62,134.15,0.19*1C
19+085:10:08:15.265 $INZDA,100815.19,26,03,2019,,*7E
19+085:10:08:15.319 $INGGA,100815.18,5307.355108,S,06724.051218,W,1,12,0.7,-4.82,M,13.38,M,,*5A
19+085:10:08:15.319 $INRMC,100815.18,A,5307.355108,S,06724.051218,W,12.4,134.60,260319,,,A*4E
19+085:10:08:15.319 $PSXN,20,1,0,0,0*3A
19+085:10:08:15.340 $PSXN,23,-1.14,0.84,134.06,0.11*1D
19+085:10:08:16.266 $INZDA,100816.19,26,03,2019,,*7D
19+085:10:08:16.320 $INGGA,100816.18,5307.357525,S,06724.047184,W,1,12,0.7,-4.67,M,13.38,M,,*5A
19+085:10:08:16.320 $INRMC,100816.18,A,5307.357525,S,06724.047184,W,12.3,135.03,260319,,,A*46
19+085:10:08:16.320 $PSXN,20,1,0,0,0*3A
19+085:10:08:16.341 $PSXN,23,-1.02,0.89,133.95,-0.04*33
19+085:10:08:17.265 $INZDA,100817.19,26,03,2019,,*7C
19+085:10:08:17.320 $INGGA,100817.18,5307.359955,S,06724.043183,W,1,12,0.7,-4.56,M,13.38,M,,*5F
19+085:10:08:17.320 $INRMC,100817.18,A,5307.359955,S,06724.043183,W,12.3,135.38,260319,,,A*49
19+085:10:08:17.320 $PSXN,20,1,0,0,0*3A
19+085:10:08:17.342 $PSXN,23,-0.88,0.69,133.94,-0.16*3C
19+085:10:08:18.267 $INZDA,100818.19,26,03,2019,,*73
19+085:10:08:18.320 $INGGA,100818.18,5307.362389,S,06724.039187,W,1,12,0.7,-4.54,M,13.38,M,,*58
19+085:10:08:18.320 $INRMC,100818.18,A,5307.362389,S,06724.039187,W,12.3,135.31,260319,,,A*45
19+085:10:08:18.320 $PSXN,20,1,0,0,0*3A
19+085:10:08:18.341 $PSXN,23,-0.68,0.47,133.95,-0.17*3E
19+085:10:08:19.265 $INZDA,100819.19,26,03,2019,,*72
19+085:10:08:19.319 $INGGA,100819.18,5307.364814,S,06724.035165,W,1,12,0.7,-4.59,M,13.38,M,,*5D
19+085:10:08:19.319 $INRMC,100819.18,A,5307.364814,S,06724.035165,W,12.4,134.72,260319,,,A*4C
19+085:10:08:19.319 $PSXN,20,1,0,0,0*3A
19+085:10:08:19.341 $PSXN,23,-0.40,0.43,133.95,-0.11*36
19+085:10:08:20.265 $INZDA,100820.19,26,03,2019,,*78
19+085:10:08:20.319 $INGGA,100820.18,5307.367219,S,06724.031106,W,1,12,0.7,-4.66,M,13.38,M,,*5E
19+085:10:08:20.319 $INRMC,100820.18,A,5307.367219,S,06724.031106,W,12.4,134.48,260319,,,A*4A
19+085:10:08:20.319 $PSXN,20,1,0,0,0*3A
19+085:10:08:20.342 $PSXN,23,-0.08,0.58,133.98,-0.03*3E
19+085:10:08:21.266 $INZDA,100821.19,26,03,2019,,*79
19+085:10:08:21.319 $INGGA,100821.18,5307.369632,S,06724.027037,W,1,12,0.7,-4.73,M,13.38,M,,*5C
19+085:10:08:21.319 $INRMC,100821.18,A,5307.369632,S,06724.027037,W,12.4,134.53,260319,,,A*46
19+085:10:08:21.319 $PSXN,20,1,0,0,0*3A
19+085:10:08:21.340 $PSXN,23,0.30,0.72,134.01,0.04*3D
19+085:10:08:22.265 $INZDA,100822.19,26,03,2019,,*7A
19+085:10:08:22.320 $INGGA,100822.18,5307.372043,S,06724.022953,W,1,12,0.7,-4.80,M,13.38,M,,*57
19+085:10:08:22.320 $INRMC,100822.18,A,5307.372043,S,06724.022953,W,12.4,134.24,260319,,,A*41
19+085:10:08:22.320 $PSXN,20,1,0,0,0*3A
19+085:10:08:22.340 $PSXN,23,0.66,0.71,134.00,0.11*38
19+085:10:08:23.266 $INZDA,100823.19,26,03,2019,,*7B
19+085:10:08:23.320 $INGGA,100823.18,5307.374442,S,06724.018850,W,1,12,0.7,-4.81,M,13.38,M,,*5F
19+085:10:08:23.320 $INRMC,100823.18,A,5307.374442,S,06724.018850,W,12.4,134.20,260319,,,A*4C
19+085:10:08:23.320 $PSXN,20,1,0,0,0*3A
19+085:10:08:23.340 $PSXN,23,0.80,0.61,133.99,0.12*35
19+085:10:08:24.266 $INZDA,100824.19,26,03,2019,,*7C
19+085:10:08:24.320 $INGGA,100824.18,5307.376847,S,06724.014768,W,1,12,0.7,-4.77,M,13.38,M,,*52
19+085:10:08:24.320 $INRMC,100824.18,A,5307.376847,S,06724.014768,W,12.4,134.68,260319,,,A*44
19+085:10:08:24.320 $PSXN,20,1,0,0,0*3A
19+085:10:08:24.340 $PSXN,23,0.68,0.60,134.02,0.07*33
19+085:10:08:25.266 $INZDA,100825.19,26,03,2019,,*7D
19+085:10:08:25.321 $INGGA,100825.18,5307.379275,S,06724.010715,W,1,12,0.7,-4.71,M,13.38,M,,*5F
19+085:10:08:25.321 $INRMC,100825.18,A,5307.379275,S,06724.010715,W,12.4,135.04,260319,,,A*44
19+085:10:08:25.321 $PSXN,20,1,0,0,0*3A
19+085:10:08:25.342 $PSXN,23,0.35,0.69,134.12,-0.00*19
19+085:10:08:26.267 $INZDA,100826.19,26,03,2019,,*7E
19+085:10:08:26.320 $INGGA,100826.18,5307.381707,S,06724.006685,W,1,12,0.7,-4.63,M,13.38,M,,*57
19+085:10:08:26.320 $INRMC,100826.18,A,5307.381707,S,06724.006685,W,12.4,135.01,260319,,,A*4A
19+085:10:08:26.320 $PSXN,20,1,0,0,0*3A
19+085:10:08:26.341 $PSXN,23,-0.12,0.87,134.15,-0.08*3E
19+085:10:08:27.265 $INZDA,100827.19,26,03,2019,,*7F
19+085:10:08:27.320 $INGGA,100827.18,5307.384123,S,06724.002664,W,1,12,0.7,-4.61,M,13.38,M,,*5A
19+085:10:08:27.320 $INRMC,100827.18,A,5307.384123,S,06724.002664,W,12.3,134.94,260319,,,A*4F
19+085:10:08:27.320 $PSXN,20,1,0,0,0*3A
19+085:10:08:27.341 $PSXN,23,-0.66,0.93,134.17,-0.12*31
19+085:10:08:28.266 $INZDA,100828.19,26,03,2019,,*70
19+085:10:08:28.320 $INGGA,100828.18,5307.386539,S,06723.998651,W,1,12,0.7,-4.69,M,13.38,M,,*5B
19+085:10:08:28.320 $INRMC,100828.18,A,5307.386539,S,06723.998651,W,12.3,135.00,260319,,,A*4A
19+085:10:08:28.320 $PSXN,20,1,0,0,0*3A
19+085:10:08:28.343 $PSXN,23,-1.14,0.76,134.26,-0.05*3A
19+085:10:08:29.267 $INZDA,100829.19,26,03,2019,,*71
19+085:10:08:29.320 $INGGA,100829.18,5307.388953,S,06723.994632,W,1,12,0.7,-4.80,M,13.38,M,,*5A
19+085:10:08:29.320 $INRMC,100829.18,A,5307.388953,S,06723.994632,W,12.3,134.85,260319,,,A*40
19+085:10:08:29.320 $PSXN,20,1,0,0,0*3A
19+085:10:08:29.341 $PSXN,23,-1.47,0.55,134.39,0.05*1E
19+085:10:08:30.266 $INZDA,100830.19,26,03,2019,,*79
19+085:10:08:30.320 $INGGA,100830.18,5307.391364,S,06723.990598,W,1,12,0.7,-4.85,M,13.38,M,,*56
19+085:10:08:30.320 $INRMC,100830.18,A,5307.391364,S,06723.990598,W,12.4,134.67,260319,,,A*42
19+085:10:08:30.320 $PSXN,20,1,0,0,0*3A
19+085:10:08:30.341 $PSXN,23,-1.52,0.45,134.47,0.10*16
19+085:10:08:31.267 $INZDA,100831.19,26,03,2019,,*78
19+085:10:08:31.320 $INGGA,100831.18,5307.393779,S,06723.986538,W,1,12,0.7,-4.81,M,13.38,M,,*54
19+085:10:08:31.320 $INRMC,100831.18,A,5307.393779,S,06723.986538,W,12.4,134.79,260319,,,A*4B
19+085:10:08:31.320 $PSXN,20,1,0,0,0*3A
19+085:10:08:31.341 $PSXN,23,-1.33,0.47,134.54,0.05*15
19+085:10:08:32.266 $INZDA,100832.19,26,03,2019,,*7B
19+085:10:08:32.320 $INGGA,100832.18,5307.396222,S,06723.982492,W,1,12,0.7,-4.73,M,13.38,M,,*51
19+085:10:08:32.320 $INRMC,100832.18,A,5307.396222,S,06723.982492,W,12.4,135.39,260319,,,A*46
19+085:10:08:32.320 $PSXN,20,1,0,0,0*3A
19+085:10:08:32.341 $PSXN,23,-0.96,0.62,134.59,-0.02*3B
19+085:10:08:33.266 $INZDA,100833.19,26,03,2019,,*7A
19+085:10:08:33.321 $INGGA,100833.18,5307.398687,S,06723.978469,W,1,12,0.7,-4.69,M,13.38,M,,*5F
19+085:10:08:33.321 $INRMC,100833.18,A,5307.398687,S,06723.978469,W,12.4,135.69,260319,,,A*46
19+085:10:08:33.321 $PSXN,20,1,0,0,0*3A
19+085:10:08:33.341 $PSXN,23,-0.49,0.79,134.62,-0.06*3F
19+085:10:08:34.267 $INZDA,100834.19,26,03,2019,,*7D
19+085:10:08:34.320 $INGGA,100834.18,5307.401150,S,06723.974456,W,1,12,0.7,-4.69,M,13.38,M,,*52
19+085:10:08:34.320 $INRMC,100834.18,A,5307.401150,S,06723.974456,W,12.4,135.39,260319,,,A*4E
19+085:10:08:34.320 $PSXN,20,1,0,0,0*3A
19+085:10:08:34.341 $PSXN,23,-0.08,0.86,134.62,-0.04*38
19+085:10:08:35.266 $INZDA,100835.19,26,03,2019,,*7C
19+085:10:08:35.321 $INGGA,100835.18,5307.403592,S,06723.970438,W,1,12,0.7,-4.72,M,13.38,M,,*5D
19+085:10:08:35.321 $INRMC,100835.18,A,5307.403592,S,06723.970438,W,12.4,135.20,260319,,,A*43
19+085:10:08:35.321 $PSXN,20,1,0,0,0*3A
19+085:10:08:35.342 $PSXN,23,0.15,0.80,134.64,-0.01*1C
19+085:10:08:36.267 $INZDA,100836.19,26,03,2019,,*7F
19+085:10:08:36.321 $INGGA,100836.18,5307.406018,S,06723.966421,W,1,12,0.7,-4.74,M,13.38,M,,*55
19+085:10:08:36.321 $INRMC,100836.18,A,5307.406018,S,06723.966421,W,12.3,134.98,260319,,,A*48
19+085:10:08:36.321 $PSXN,20,1,0,0,0*3A
19+085:10:08:36.341 $PSXN,23,0.23,0.72,134.64,0.02*3A
19+085:10:08:37.266 $INZDA,100837.19,26,03,2019,,*7E
19+085:10:08:37.321 $INGGA,100837.18,5307.408418,S,06723.962409,W,1,12,0.7,-4.72,M,13.38,M,,*56
19+085:10:08:37.321 $INRMC,100837.18,A,5307.408418,S,06723.962409,W,12.3,134.63,260319,,,A*49
19+085:10:08:37.321 $PSXN,20,1,0,0,0*3A
19+085:10:08:37.341 $PSXN,23,0.13,0.68,134.61,0.01*34
19+085:10:08:38.267 $INZDA,100838.19,26,03,2019,,*71
19+085:10:08:38.320 $INGGA,100838.18,5307.410807,S,06723.958371,W,1,12,0.7,-4.70,M,13.38,M,,*51
19+085:10:08:38.320 $INRMC,100838.18,A,5307.410807,S,06723.958371,W,12.3,134.59,260319,,,A*45
19+085:10:08:38.320 $PSXN,20,1,0,0,0*3A
19+085:10:08:38.342 $PSXN,23,-0.04,0.62,134.54,-0.01*3E
19+085:10:08:39.266 $INZDA,100839.19,26,03,2019,,*70
19+085:10:08:39.320 $INGGA,100839.18,5307.413214,S,06723.954343,W,1,12,0.7,-4.71,M,13.38,M,,*57
19+085:10:08:39.320 $INRMC,100839.18,A,5307.413214,S,06723.954343,W,12.3,135.01,260319,,,A*4E
19+085:10:08:39.320 $PSXN,20,1,0,0,0*3A
19+085:10:08:39.341 $PSXN,23,-0.14,0.52,134.48,0.00*1D
19+085:10:08:40.266 $INZDA,100840.19,26,03,2019,,*7E
19+085:10:08:40.321 $INGGA,100840.18,5307.415643,S,06723.950323,W,1,12,0.7,-4.73,M,13.38,M,,*59
19+085:10:08:40.321 $INRMC,100840.18,A,5307.415643,S,06723.950323,W,12.4,135.25,260319,,,A*43
19+085:10:08:40.321 $PSXN,20,1,0,0,0*3A
19+085:10:08:40.341 $PSXN,23,-0.15,0.50,134.45,0.02*11
19+085:10:08:41.267 $INZDA,100841.19,26,03,2019,,*7F
19+085:10:08:41.320 $INGGA,100841.18,5307.418087,S,06723.946302,W,1,12,0.7,-4.70,M,13.38,M,,*5C
19+085:10:08:41.320 $INRMC,100841.18,A,5307.418087,S,06723.946302,W,12.4,135.38,260319,,,A*49
19+085:10:08:41.320 $PSXN,20,1,0,0,0*3A
19+085:10:08:41.341 $PSXN,23,-0.07,0.63,134.41,-0.00*39
19+085:10:08:42.266 $INZDA,100842.19,26,03,2019,,*7C
19+085:10:08:42.321 $INGGA,100842.18,5307.420538,S,06723.942295,W,1,12,0.7,-4.66,M,13.38,M,,*59
19+085:10:08:42.321 $INRMC,100842.18,A,5307.420538,S,06723.942295,W,12.4,135.62,260319,,,A*44
19+085:10:08:42.321 $PSXN,20,1,0,0,0*3A
19+085:10:08:42.341 $PSXN,23,0.09,0.87,134.43,-0.04*16
19+085:10:08:43.267 $INZDA,100843.19,26,03,2019,,*7D
19+085:10:08:43.321 $INGGA,100843.18,5307.423001,S,06723.938317,W,1,12,0.7,-4.68,M,13.38,M,,*5C
19+085:10:08:43.321 $INRMC,100843.18,A,5307.423001,S,06723.938317,W,12.4,135.83,260319,,,A*40
19+085:10:08:43.321 $PSXN,20,1,0,0,0*3A
19+085:10:08:43.342 $PSXN,23,0.20,0.97,134.57,-0.02*1F
19+085:10:08:44.266 $INZDA,100844.19,26,03,2019,,*7A
19+085:10:08:44.320 $INGGA,100844.18,5307.425467,S,06723.934328,W,1,12,0.7,-4.78,M,13.38,M,,*58
19+085:10:08:44.320 $INRMC,100844.18,A,5307.425467,S,06723.934328,W,12.4,135.58,260319,,,A*43
19+085:10:08:44.320 $PSXN,20,1,0,0,0*3A
19+085:10:08:44.340 $PSXN,23,0.16,0.81,134.88,0.07*37
19+085:10:08:45.266 $INZDA,100845.19,26,03,2019,,*7B
19+085:10:08:45.320 $INGGA,100845.18,5307.427903,S,06723.930308,W,1,12,0.7,-4.86,M,13.38,M,,*53
19+085:10:08:45.320 $INRMC,100845.18,A,5307.427903,S,06723.930308,W,12.4,134.83,260319,,,A*4E
19+085:10:08:45.321 $PSXN,20,1,0,0,0*3A
19+085:10:08:45.341 $PSXN,23,0.02,0.55,135.16,0.14*3F
19+085:10:08:46.267 $INZDA,100846.19,26,03,2019,,*78
19+085:10:08:46.321 $INGGA,100846.18,5307.430311,S,06723.926237,W,1,12,0.7,-4.85,M,13.38,M,,*56
19+085:10:08:46.321 $INRMC,100846.18,A,5307.430311,S,06723.926237,W,12.4,134.43,260319,,,A*44
19+085:10:08:46.321 $PSXN,20,1,0,0,0*3A
19+085:10:08:46.341 $PSXN,23,-0.16,0.41,135.33,0.13*12
19+085:10:08:47.267 $INZDA,100847.19,26,03,2019,,*79
19+085:10:08:47.321 $INGGA,100847.18,5307.432719,S,06723.922169,W,1,12,0.7,-4.77,M,13.38,M,,*58
19+085:10:08:47.321 $INRMC,100847.18,A,5307.432719,S,06723.922169,W,12.4,134.83,260319,,,A*4B
19+085:10:08:47.321 $PSXN,20,1,0,0,0*3A
19+085:10:08:47.342 $PSXN,23,-0.23,0.51,135.27,0.05*17
19+085:10:08:48.267 $INZDA,100848.19,26,03,2019,,*76
19+085:10:08:48.321 $INGGA,100848.18,5307.435160,S,06723.918139,W,1,12,0.7,-4.70,M,13.38,M,,*53
19+085:10:08:48.321 $INRMC,100848.18,A,5307.435160,S,06723.918139,W,12.4,135.54,260319,,,A*4C
19+085:10:08:48.321 $PSXN,20,1,0,0,0*3A
19+085:10:08:48.342 $PSXN,23,-0.18,0.62,135.03,-0.02*33
19+085:10:08:49.267 $INZDA,100849.19,26,03,2019,,*77
19+085:10:08:49.321 $INGGA,100849.18,5307.437631,S,06723.914136,W,1,12,0.7,-4.70,M,13.38,M,,*50
19+085:10:08:49.321 $INRMC,100849.18,A,5307.437631,S,06723.914136,W,12.5,135.87,260319,,,A*40
19+085:10:08:49.321 $PSXN,20,1,0,0,0*3A
19+085:10:08:49.342 $PSXN,23,-0.18,0.58,134.86,-0.03*37
19+085:10:08:50.267 $INZDA,100850.19,26,03,2019,,*7F
19+085:10:08:50.321 $INGGA,100850.18,5307.440110,S,06723.910135,W,1,12,0.7,-4.72,M,13.38,M,,*59
19+085:10:08:50.321 $INRMC,100850.18,A,5307.440110,S,06723.910135,W,12.5,135.72,260319,,,A*41
19+085:10:08:50.321 $PSXN,20,1,0,0,0*3A
19+085:10:08:50.342 $PSXN,23,-0.38,0.50,134.70,-0.03*34
19+085:10:08:51.267 $INZDA,100851.19,26,03,2019,,*7E
19+085:10:08:51.321 $INGGA,100851.18,5307.442583,S,06723.906109,W,1,12,0.7,-4.73,M,13.38,M,,*5D
19+085:10:08:51.321 $INRMC,100851.18,A,5307.442583,S,06723.906109,W,12.5,135.49,260319,,,A*4C
19+085:10:08:51.321 $PSXN,20,1,0,0,0*3A
19+085:10:08:51.341 $PSXN,23,-0.75,0.55,134.53,-0.03*39
19+085:10:08:52.267 $INZDA,100852.19,26,03,2019,,*7D
