2018-12-06T00:00:00.0549Z $GPGST,235959.69,0.50,0.225,0.183,2,0.225,0.183,0.465*77
2018-12-06T00:00:00.1132Z $GPGBS,235959.69,-0.17,0.01,-0.08,3,0.00,-0.30,0.62*77
2018-12-06T00:00:00.1326Z $GPHDT,92.05,T*3B
2018-12-06T00:00:00.1549Z $PSXN,20,0,0,0,0*3B
2018-12-06T00:00:00.1910Z $PSXN,23,0.16,0.41,92.05,-0.00*29
2018-12-06T00:00:00.7246Z $GPZDA,000000.69,06,12,2018,,*67
2018-12-06T00:00:00.8138Z $GPGGA,000000.69,4812.030845,N,12307.411216,W,2,08,1.1,-1.44,M,-18.40,M,1.2,0001*59
2018-12-06T00:00:00.8691Z $GPGLL,4812.030845,N,12307.411216,W,000000.69,A,D*72
2018-12-06T00:00:00.9136Z $GPVTG,94.34,T,78.47,M,8.7,N,16.1,K,D*19
2018-12-06T00:00:00.9942Z $GPRMC,000000.69,A,4812.030845,N,12307.411216,W,8.7,94.34,061218,15.9,E,D*1A
2018-12-06T00:00:01.0552Z $GPGST,000000.69,0.50,0.222,0.181,2,0.222,0.181,0.460*73
2018-12-06T00:00:01.1136Z $GPGBS,000000.69,-0.17,0.01,-0.08,3,0.00,-0.30,0.62*76
2018-12-06T00:00:01.1329Z $GPHDT,92.02,T*3C
2018-12-06T00:00:01.1551Z $PSXN,20,0,0,0,0*3B
2018-12-06T00:00:01.1912Z $PSXN,23,0.22,0.38,92.02,-0.01*26
2018-12-06T00:00:01.7249Z $GPZDA,000001.69,06,12,2018,,*66
2018-12-06T00:00:01.8140Z $GPGGA,000001.69,4812.030665,N,12307.407617,W,2,08,1.1,-1.42,M,-18.40,M,1.0,0001*52
2018-12-06T00:00:01.8696Z $GPGLL,4812.030665,N,12307.407617,W,000001.69,A,D*7D
2018-12-06T00:00:01.9139Z $GPVTG,94.10,T,78.24,M,8.7,N,16.1,K,D*1A
2018-12-06T00:00:01.9947Z $GPRMC,000001.69,A,4812.030665,N,12307.407617,W,8.7,94.10,061218,15.9,E,D*13
2018-12-06T00:00:02.0558Z $GPGST,000001.69,0.50,0.224,0.182,2,0.224,0.182,0.463*71
2018-12-06T00:00:02.1139Z $GPGBS,000001.69,-0.19,0.01,-0.09,3,0.00,-0.33,0.62*7B
2018-12-06T00:00:02.1333Z $GPHDT,92.01,T*3F
2018-12-06T00:00:02.1556Z $PSXN,20,0,0,0,0*3B
2018-12-06T00:00:02.1917Z $PSXN,23,0.29,0.37,92.01,-0.01*21
2018-12-06T00:00:02.7253Z $GPZDA,000002.69,06,12,2018,,*65
2018-12-06T00:00:02.8130Z $GPGGA,000002.69,4812.030490,N,12307.404016,W,2,08,1.1,-1.42,M,-18.40,M,1.4,0001*59
2018-12-06T00:00:02.8699Z $GPGLL,4812.030490,N,12307.404016,W,000002.69,A,D*72
2018-12-06T00:00:02.9129Z $GPVTG,94.04,T,78.17,M,8.7,N,16.1,K,D*1F
2018-12-06T00:00:02.9950Z $GPRMC,000002.69,A,4812.030490,N,12307.404016,W,8.7,94.04,061218,15.9,E,D*19
2018-12-06T00:00:03.0549Z $GPGST,000002.69,0.50,0.222,0.181,2,0.222,0.181,0.459*7B
2018-12-06T00:00:03.1133Z $GPGBS,000002.69,-0.18,0.01,-0.09,3,0.00,-0.31,0.62*7B
2018-12-06T00:00:03.1326Z $GPHDT,92.01,T*3F
2018-12-06T00:00:03.1548Z $PSXN,20,0,0,0,0*3B
2018-12-06T00:00:03.1910Z $PSXN,23,0.32,0.39,92.01,-0.00*24
2018-12-06T00:00:03.7246Z $GPZDA,000003.69,06,12,2018,,*64
2018-12-06T00:00:03.8130Z $GPGGA,000003.69,4812.030316,N,12307.400419,W,2,08,1.1,-1.41,M,-18.40,M,1.2,0001*5B
2018-12-06T00:00:03.8699Z $GPGLL,4812.030316,N,12307.400419,W,000003.69,A,D*75
2018-12-06T00:00:03.9129Z $GPVTG,94.06,T,78.19,M,8.7,N,16.1,K,D*13
2018-12-06T00:00:03.9950Z $GPRMC,000003.69,A,4812.030316,N,12307.400419,W,8.7,94.06,061218,15.9,E,D*1C
2018-12-06T00:00:04.0546Z $GPGST,000003.69,0.50,0.224,0.182,1,0.224,0.182,0.463*70
2018-12-06T00:00:04.1132Z $GPGBS,000003.69,-0.19,0.01,-0.09,3,0.00,-0.33,0.62*79
2018-12-06T00:00:04.1327Z $GPHDT,92.00,T*3E
2018-12-06T00:00:04.1552Z $PSXN,20,0,0,0,0*3B
2018-12-06T00:00:04.1913Z $PSXN,23,0.34,0.39,92.00,-0.00*23
2018-12-06T00:00:04.7250Z $GPZDA,000004.69,06,12,2018,,*63
2018-12-06T00:00:04.8141Z $GPGGA,000004.69,4812.030143,N,12307.396822,W,2,08,1.1,-1.41,M,-18.40,M,1.0,0001*50
2018-12-06T00:00:04.8694Z $GPGLL,4812.030143,N,12307.396822,W,000004.69,A,D*7C
2018-12-06T00:00:04.9140Z $GPVTG,94.00,T,78.13,M,8.7,N,16.0,K,D*1E
2018-12-06T00:00:04.9945Z $GPRMC,000004.69,A,4812.030143,N,12307.396822,W,8.7,94.00,061218,15.9,E,D*13
2018-12-06T00:00:05.0557Z $GPGST,000004.69,0.50,0.225,0.183,1,0.225,0.183,0.465*71
2018-12-06T00:00:05.1140Z $GPGBS,000004.69,-0.16,0.01,-0.08,3,0.00,-0.28,0.62*7A
2018-12-06T00:00:05.1332Z $GPHDT,92.01,T*3F
2018-12-06T00:00:05.1556Z $PSXN,20,0,0,0,0*3B
2018-12-06T00:00:05.1903Z $PSXN,23,0.33,0.41,92.01,0.00*07
2018-12-06T00:00:05.7254Z $GPZDA,000005.69,06,12,2018,,*62
2018-12-06T00:00:05.8131Z $GPGGA,000005.69,4812.029970,N,12307.393229,W,2,08,1.1,-1.42,M,-18.40,M,1.4,0001*52
2018-12-06T00:00:05.8698Z $GPGLL,4812.029970,N,12307.393229,W,000005.69,A,D*79
2018-12-06T00:00:05.9130Z $GPVTG,94.01,T,78.14,M,8.7,N,16.0,K,D*18
2018-12-06T00:00:05.9949Z $GPRMC,000005.69,A,4812.029970,N,12307.393229,W,8.7,94.01,061218,15.9,E,D*17
2018-12-06T00:00:06.0546Z $GPGST,000005.69,0.50,0.223,0.181,1,0.222,0.181,0.460*74
2018-12-06T00:00:06.1133Z $GPGBS,000005.69,-0.16,0.01,-0.08,3,0.00,-0.28,0.62*7B
2018-12-06T00:00:06.1326Z $GPHDT,92.04,T*3A
2018-12-06T00:00:06.1547Z $PSXN,20,0,0,0,0*3B
2018-12-06T00:00:06.1909Z $PSXN,23,0.30,0.42,92.04,0.01*03
2018-12-06T00:00:06.7244Z $GPZDA,000006.69,06,12,2018,,*61
2018-12-06T00:00:06.8136Z $GPGGA,000006.69,4812.029795,N,12307.389641,W,2,08,1.1,-1.41,M,-18.40,M,1.2,0001*50
2018-12-06T00:00:06.8702Z $GPGLL,4812.029795,N,12307.389641,W,000006.69,A,D*7E
2018-12-06T00:00:06.9132Z $GPVTG,94.01,T,78.15,M,8.6,N,16.0,K,D*18
2018-12-06T00:00:06.9953Z $GPRMC,000006.69,A,4812.029795,N,12307.389641,W,8.6,94.01,061218,15.9,E,D*11
2018-12-06T00:00:07.0553Z $GPGST,000006.69,0.50,0.224,0.182,1,0.224,0.182,0.463*75
2018-12-06T00:00:07.1123Z $GPGBS,000006.69,0.20,0.14,0.34,26,0.00,-0.37,0.83*40
2018-12-06T00:00:07.1316Z $GPHDT,92.05,T*3B
2018-12-06T00:00:07.1537Z $PSXN,20,0,0,0,0*3B
2018-12-06T00:00:07.1899Z $PSXN,23,0.27,0.41,92.05,0.00*06
2018-12-06T00:00:07.7246Z $GPZDA,000007.69,06,12,2018,,*60
2018-12-06T00:00:07.8138Z $GPGGA,000007.69,4812.029622,N,12307.386057,W,2,08,1.1,-1.41,M,-18.40,M,1.0,0001*50
2018-12-06T00:00:07.8692Z $GPGLL,4812.029622,N,12307.386057,W,000007.69,A,D*7C
2018-12-06T00:00:07.9135Z $GPVTG,93.94,T,78.07,M,8.6,N,16.0,K,D*10
2018-12-06T00:00:07.9943Z $GPRMC,000007.69,A,4812.029622,N,12307.386057,W,8.6,93.94,061218,15.9,E,D*18
2018-12-06T00:00:08.0554Z $GPGST,000007.69,0.50,0.222,0.181,1,0.222,0.181,0.459*7D
2018-12-06T00:00:08.1122Z $GPGBS,000007.69,0.20,0.14,0.34,26,0.00,-0.38,0.83*4E
2018-12-06T00:00:08.1316Z $GPHDT,92.06,T*38
2018-12-06T00:00:08.1537Z $PSXN,20,0,0,0,0*3B
2018-12-06T00:00:08.1899Z $PSXN,23,0.26,0.39,92.06,0.00*0B
2018-12-06T00:00:08.7246Z $GPZDA,000008.69,06,12,2018,,*6F
2018-12-06T00:00:08.8137Z $GPGGA,000008.69,4812.029457,N,12307.382474,W,2,08,1.1,-1.42,M,-18.40,M,1.4,0001*59
2018-12-06T00:00:08.8692Z $GPGLL,4812.029457,N,12307.382474,W,000008.69,A,D*72
2018-12-06T00:00:08.9135Z $GPVTG,93.98,T,78.12,M,8.6,N,16.0,K,D*18
2018-12-06T00:00:08.9943Z $GPRMC,000008.69,A,4812.029457,N,12307.382474,W,8.6,93.98,061218,15.9,E,D*1A
2018-12-06T00:00:09.0552Z $GPGST,000008.69,0.50,0.224,0.182,1,0.224,0.182,0.463*7B
2018-12-06T00:00:09.1126Z $GPGBS,000008.69,0.22,0.15,0.36,26,0.00,-0.41,0.83*4E
2018-12-06T00:00:09.1318Z $GPHDT,92.09,T*37
2018-12-06T00:00:09.1543Z $PSXN,20,0,0,0,0*3B
2018-12-06T00:00:09.1888Z $PSXN,23,0.24,0.39,92.09,0.01*07
2018-12-06T00:00:09.7249Z $GPZDA,000009.69,06,12,2018,,*6E
2018-12-06T00:00:09.8140Z $GPGGA,000009.69,4812.029292,N,12307.378892,W,2,08,1.1,-1.41,M,-18.40,M,1.2,0001*53
2018-12-06T00:00:09.8695Z $GPGLL,4812.029292,N,12307.378892,W,000009.69,A,D*7D
2018-12-06T00:00:09.9138Z $GPVTG,93.94,T,78.07,M,8.6,N,16.0,K,D*10
2018-12-06T00:00:09.9946Z $GPRMC,000009.69,A,4812.029292,N,12307.378892,W,8.6,93.94,061218,15.9,E,D*19
2018-12-06T00:00:10.0557Z $GPGST,000009.69,0.50,0.225,0.183,1,0.225,0.183,0.465*7C
2018-12-06T00:00:10.1126Z $GPGBS,000009.69,0.22,0.15,0.37,26,0.00,-0.41,0.83*4E
2018-12-06T00:00:10.1319Z $GPHDT,92.13,T*3C
2018-12-06T00:00:10.1540Z $PSXN,20,0,0,0,0*3B
2018-12-06T00:00:10.1891Z $PSXN,23,0.23,0.40,92.13,0.00*04
2018-12-06T00:00:10.7249Z $GPZDA,000010.69,06,12,2018,,*66
2018-12-06T00:00:10.8140Z $GPGGA,000010.69,4812.029129,N,12307.375319,W,2,08,1.1,-1.39,M,-18.40,M,1.0,0001*50
2018-12-06T00:00:10.8695Z $GPGLL,4812.029129,N,12307.375319,W,000010.69,A,D*73
2018-12-06T00:00:10.9139Z $GPVTG,93.82,T,77.96,M,8.6,N,16.0,K,D*10
2018-12-06T00:00:10.9946Z $GPRMC,000010.69,A,4812.029129,N,12307.375319,W,8.6,93.82,061218,15.9,E,D*10
2018-12-06T00:00:11.0558Z $GPGST,000010.69,0.50,0.223,0.181,1,0.223,0.181,0.460*71
2018-12-06T00:00:11.1126Z $GPGBS,000010.69,0.24,0.16,0.41,26,0.00,-0.45,0.83*46
2018-12-06T00:00:11.1319Z $GPHDT,92.18,T*37
2018-12-06T00:00:11.1540Z $PSXN,20,0,0,0,0*3B
2018-12-06T00:00:11.1906Z $PSXN,23,0.21,0.39,92.18,-0.00*2E
2018-12-06T00:00:11.7252Z $GPZDA,000011.69,06,12,2018,,*67
2018-12-06T00:00:11.8130Z $GPGGA,000011.69,4812.028962,N,12307.371741,W,2,08,1.1,-1.38,M,-18.40,M,1.4,0001*5F
2018-12-06T00:00:11.8699Z $GPGLL,4812.028962,N,12307.371741,W,000011.69,A,D*79
2018-12-06T00:00:11.9132Z $GPVTG,93.95,T,78.08,M,8.6,N,16.0,K,D*1E
2018-12-06T00:00:11.9953Z $GPRMC,000011.69,A,4812.028962,N,12307.371741,W,8.6,93.95,061218,15.9,E,D*1C
2018-12-06T00:00:12.0551Z $GPGST,000011.69,0.50,0.224,0.182,1,0.224,0.182,0.463*73
2018-12-06T00:00:12.1119Z $GPGBS,000011.69,0.22,0.15,0.37,26,0.00,-0.42,0.83*44
2018-12-06T00:00:12.1327Z $GPHDT,92.22,T*3E
2018-12-06T00:00:12.1534Z $PSXN,20,0,0,0,0*3B
2018-12-06T00:00:12.1909Z $PSXN,23,0.19,0.37,92.22,-0.01*23
2018-12-06T00:00:12.7246Z $GPZDA,000012.69,06,12,2018,,*64
2018-12-06T00:00:12.8139Z $GPGGA,000012.69,4812.028796,N,12307.368164,W,2,08,1.1,-1.38,M,-18.40,M,1.2,0001*56
2018-12-06T00:00:12.8691Z $GPGLL,4812.028796,N,12307.368164,W,000012.69,A,D*76
2018-12-06T00:00:12.9135Z $GPVTG,93.90,T,78.03,M,8.6,N,16.0,K,D*10
2018-12-06T00:00:12.9942Z $GPRMC,000012.69,A,4812.028796,N,12307.368164,W,8.6,93.90,061218,15.9,E,D*16
2018-12-06T00:00:13.0552Z $GPGST,000012.69,0.50,0.222,0.181,1,0.222,0.181,0.459*79
2018-12-06T00:00:13.1122Z $GPGBS,000012.69,0.26,0.17,0.43,26,0.00,-0.48,0.83*48
2018-12-06T00:00:13.1315Z $GPHDT,92.27,T*3B
2018-12-06T00:00:13.1538Z $PSXN,20,0,0,0,0*3B
2018-12-06T00:00:13.1900Z $PSXN,23,0.15,0.36,92.27,-0.00*2A
2018-12-06T00:00:13.7250Z $GPZDA,000013.69,06,12,2018,,*65
2018-12-06T00:00:13.8141Z $GPGGA,000013.69,4812.028631,N,12307.364584,W,2,08,1.1,-1.37,M,-18.40,M,1.0,0001*50
2018-12-06T00:00:13.8694Z $GPGLL,4812.028631,N,12307.364584,W,000013.69,A,D*7D
2018-12-06T00:00:13.9140Z $GPVTG,93.87,T,78.00,M,8.6,N,16.0,K,D*15
2018-12-06T00:00:13.9945Z $GPRMC,000013.69,A,4812.028631,N,12307.364584,W,8.6,93.87,061218,15.9,E,D*1B
2018-12-06T00:00:14.0556Z $GPGST,000013.69,0.50,0.224,0.182,1,0.224,0.182,0.463*71
2018-12-06T00:00:14.1126Z $GPGBS,000013.69,0.26,0.17,0.43,26,0.00,-0.48,0.83*49
2018-12-06T00:00:14.1319Z $GPHDT,92.32,T*3F
2018-12-06T00:00:14.1541Z $PSXN,20,0,0,0,0*3B
2018-12-06T00:00:14.1891Z $PSXN,23,0.09,0.36,92.32,0.01*0F
2018-12-06T00:00:14.7253Z $GPZDA,000014.69,06,12,2018,,*62
2018-12-06T00:00:14.8132Z $GPGGA,000014.69,4812.028465,N,12307.361011,W,2,08,1.1,-1.36,M,-18.40,M,1.4,0001*5D
2018-12-06T00:00:14.8698Z $GPGLL,4812.028465,N,12307.361011,W,000014.69,A,D*75
2018-12-06T00:00:14.9130Z $GPVTG,94.10,T,78.24,M,8.6,N,16.0,K,D*1A
2018-12-06T00:00:14.9953Z $GPRMC,000014.69,A,4812.028465,N,12307.361011,W,8.6,94.10,061218,15.9,E,D*1A
2018-12-06T00:00:15.0550Z $GPGST,000014.69,0.50,0.225,0.183,1,0.225,0.183,0.465*70
2018-12-06T00:00:15.1118Z $GPGBS,000014.69,0.29,0.20,0.49,26,0.00,-0.54,0.83*42
2018-12-06T00:00:15.1326Z $GPHDT,92.37,T*3A
2018-12-06T00:00:15.1535Z $PSXN,20,0,0,0,0*3B
2018-12-06T00:00:15.1896Z $PSXN,23,0.05,0.38,92.37,0.02*0B
2018-12-06T00:00:15.7243Z $GPZDA,000015.69,06,12,2018,,*63
2018-12-06T00:00:15.8135Z $GPGGA,000015.69,4812.028290,N,12307.357443,W,2,08,1.1,-1.35,M,-18.40,M,1.2,0001*53
2018-12-06T00:00:15.8702Z $GPGLL,4812.028290,N,12307.357443,W,000015.69,A,D*7E
2018-12-06T00:00:15.9133Z $GPVTG,94.15,T,78.28,M,8.6,N,16.0,K,D*13
2018-12-06T00:00:15.9955Z $GPRMC,000015.69,A,4812.028290,N,12307.357443,W,8.6,94.15,061218,15.9,E,D*14
2018-12-06T00:00:16.0549Z $GPGST,000015.69,0.50,0.223,0.181,1,0.223,0.181,0.460*74
2018-12-06T00:00:16.1120Z $GPGBS,000015.69,0.28,0.19,0.47,26,0.00,-0.53,0.83*41
2018-12-06T00:00:16.1326Z $GPHDT,92.43,T*39
2018-12-06T00:00:16.1535Z $PSXN,20,0,0,0,0*3B
2018-12-06T00:00:16.1898Z $PSXN,23,0.02,0.41,92.43,0.01*02
2018-12-06T00:00:16.7244Z $GPZDA,000016.69,06,12,2018,,*60
2018-12-06T00:00:16.8136Z $GPGGA,000016.69,4812.028115,N,12307.353876,W,2,08,1.1,-1.34,M,-18.40,M,1.0,0001*53
2018-12-06T00:00:16.8702Z $GPGLL,4812.028115,N,12307.353876,W,000016.69,A,D*7D
2018-12-06T00:00:16.9133Z $GPVTG,94.21,T,78.34,M,8.6,N,15.9,K,D*13
2018-12-06T00:00:16.9953Z $GPRMC,000016.69,A,4812.028115,N,12307.353876,W,8.6,94.21,061218,15.9,E,D*10
2018-12-06T00:00:17.0549Z $GPGST,000016.69,0.50,0.224,0.182,1,0.224,0.183,0.463*75
2018-12-06T00:00:17.1119Z $GPGBS,000016.69,0.29,0.19,0.48,26,0.00,-0.53,0.83*4C
2018-12-06T00:00:17.1325Z $GPHDT,92.49,T*33
2018-12-06T00:00:17.1534Z $PSXN,20,0,0,0,0*3B
2018-12-06T00:00:17.1896Z $PSXN,23,0.02,0.41,92.49,0.01*08
2018-12-06T00:00:17.7244Z $GPZDA,000017.69,06,12,2018,,*61
2018-12-06T00:00:17.8136Z $GPGGA,000017.69,4812.027941,N,12307.350309,W,2,08,1.1,-1.34,M,-18.40,M,1.4,0001*50
2018-12-06T00:00:17.8703Z $GPGLL,4812.027941,N,12307.350309,W,000017.69,A,D*7A
2018-12-06T00:00:17.9133Z $GPVTG,94.13,T,78.26,M,8.6,N,15.9,K,D*11
2018-12-06T00:00:17.9952Z $GPRMC,000017.69,A,4812.027941,N,12307.350309,W,8.6,94.13,061218,15.9,E,D*16
2018-12-06T00:00:18.0549Z $GPGST,000017.69,0.50,0.222,0.181,1,0.222,0.181,0.459*7C
2018-12-06T00:00:18.1119Z $GPGBS,000017.69,0.29,0.20,0.49,26,0.00,-0.55,0.83*40
2018-12-06T00:00:18.1325Z $GPHDT,92.52,T*39
2018-12-06T00:00:18.1535Z $PSXN,20,0,0,0,0*3B
2018-12-06T00:00:18.1896Z $PSXN,23,0.05,0.38,92.52,0.00*0A
2018-12-06T00:00:18.7243Z $GPZDA,000018.69,06,12,2018,,*6E
2018-12-06T00:00:18.8136Z $GPGGA,000018.69,4812.027768,N,12307.346748,W,2,08,1.1,-1.34,M,-18.40,M,1.2,0001*5A
2018-12-06T00:00:18.8702Z $GPGLL,4812.027768,N,12307.346748,W,000018.69,A,D*76
2018-12-06T00:00:18.9132Z $GPVTG,94.13,T,78.27,M,8.6,N,15.9,K,D*10
2018-12-06T00:00:18.9953Z $GPRMC,000018.69,A,4812.027768,N,12307.346748,W,8.6,94.13,061218,15.9,E,D*1A
2018-12-06T00:00:19.0549Z $GPGST,000018.69,0.50,0.224,0.182,1,0.224,0.182,0.463*7A
2018-12-06T00:00:19.1119Z $GPGBS,000018.69,0.29,0.20,0.49,26,0.00,-0.54,0.83*4E
2018-12-06T00:00:19.1327Z $GPHDT,92.58,T*33
2018-12-06T00:00:19.1535Z $PSXN,20,0,0,0,0*3B
2018-12-06T00:00:19.1896Z $PSXN,23,0.09,0.39,92.58,0.00*0D
2018-12-06T00:00:19.7243Z $GPZDA,000019.69,06,12,2018,,*6F
2018-12-06T00:00:19.8135Z $GPGGA,000019.69,4812.027592,N,12307.343187,W,2,08,1.1,-1.32,M,-18.40,M,1.0,0001*58
2018-12-06T00:00:19.8702Z $GPGLL,4812.027592,N,12307.343187,W,000019.69,A,D*70
2018-12-06T00:00:19.9132Z $GPVTG,94.26,T,78.40,M,8.6,N,15.9,K,D*17
2018-12-06T00:00:19.9953Z $GPRMC,000019.69,A,4812.027592,N,12307.343187,W,8.6,94.26,061218,15.9,E,D*1A
2018-12-06T00:00:20.0549Z $GPGST,000019.69,0.50,0.225,0.183,1,0.225,0.183,0.465*7D
2018-12-06T00:00:20.1119Z $GPGBS,000019.69,0.29,0.19,0.48,26,0.00,-0.54,0.83*44
2018-12-06T00:00:20.1326Z $GPHDT,92.63,T*3B
2018-12-06T00:00:20.1534Z $PSXN,20,0,0,0,0*3B
2018-12-06T00:00:20.1909Z $PSXN,23,0.13,0.40,92.63,-0.00*2D
2018-12-06T00:00:20.7246Z $GPZDA,000020.69,06,12,2018,,*65
2018-12-06T00:00:20.8139Z $GPGGA,000020.69,4812.027412,N,12307.339627,W,2,08,1.1,-1.30,M,-18.40,M,1.4,0001*5D
2018-12-06T00:00:20.8692Z $GPGLL,4812.027412,N,12307.339627,W,000020.69,A,D*73
2018-12-06T00:00:20.9136Z $GPVTG,94.35,T,78.49,M,8.6,N,15.9,K,D*1C
2018-12-06T00:00:20.9943Z $GPRMC,000020.69,A,4812.027412,N,12307.339627,W,8.6,94.35,061218,15.9,E,D*1B
2018-12-06T00:00:21.0552Z $GPGST,000020.69,0.50,0.223,0.181,1,0.223,0.181,0.460*72
2018-12-06T00:00:21.1122Z $GPGBS,000020.69,0.29,0.19,0.48,26,0.00,-0.53,0.83*49
2018-12-06T00:00:21.1317Z $GPHDT,92.67,T*3F
2018-12-06T00:00:21.1538Z $PSXN,20,0,0,0,0*3B
2018-12-06T00:00:21.1899Z $PSXN,23,0.15,0.38,92.67,-0.01*21
2018-12-06T00:00:21.7249Z $GPZDA,000021.69,06,12,2018,,*64
2018-12-06T00:00:21.8141Z $GPGGA,000021.69,4812.027232,N,12307.336064,W,2,08,1.1,-1.29,M,-18.40,M,1.2,0001*58
2018-12-06T00:00:21.8694Z $GPGLL,4812.027232,N,12307.336064,W,000021.69,A,D*78
2018-12-06T00:00:21.9139Z $GPVTG,94.31,T,78.44,M,8.6,N,15.9,K,D*15
2018-12-06T00:00:21.9945Z $GPRMC,000021.69,A,4812.027232,N,12307.336064,W,8.6,94.31,061218,15.9,E,D*14
2018-12-06T00:00:22.0557Z $GPGST,000021.69,0.50,0.224,0.183,1,0.224,0.183,0.463*70
2018-12-06T00:00:22.1126Z $GPGBS,000021.69,0.29,0.20,0.49,26,0.00,-0.54,0.83*44
2018-12-06T00:00:22.1319Z $GPHDT,92.71,T*38
2018-12-06T00:00:22.1541Z $PSXN,20,0,0,0,0*3B
2018-12-06T00:00:22.1903Z $PSXN,23,0.14,0.37,92.71,-0.01*28
2018-12-06T00:00:22.7253Z $GPZDA,000022.69,06,12,2018,,*67
2018-12-06T00:00:22.8130Z $GPGGA,000022.69,4812.027046,N,12307.332498,W,2,08,1.1,-1.27,M,-18.40,M,1.0,0001*55
2018-12-06T00:00:22.8698Z $GPGLL,4812.027046,N,12307.332498,W,000022.69,A,D*79
2018-12-06T00:00:22.9129Z $GPVTG,94.45,T,78.59,M,8.6,N,15.9,K,D*1A
2018-12-06T00:00:22.9949Z $GPRMC,000022.69,A,4812.027046,N,12307.332498,W,8.6,94.45,061218,15.9,E,D*16
2018-12-06T00:00:23.0545Z $GPGST,000022.69,0.50,0.222,0.181,1,0.222,0.181,0.459*7A
2018-12-06T00:00:23.1130Z $GPGBS,000022.69,0.31,0.21,0.52,26,0.00,-0.58,0.83*49
2018-12-06T00:00:23.1322Z $GPHDT,92.75,T*3C
2018-12-06T00:00:23.1545Z $PSXN,20,0,0,0,0*3B
2018-12-06T00:00:23.1906Z $PSXN,23,0.14,0.37,92.75,-0.01*2C
2018-12-06T00:00:23.7243Z $GPZDA,000023.69,06,12,2018,,*66
2018-12-06T00:00:23.8135Z $GPGGA,000023.69,4812.026860,N,12307.328937,W,2,08,1.1,-1.25,M,-18.40,M,1.4,0001*5C
2018-12-06T00:00:23.8702Z $GPGLL,4812.026860,N,12307.328937,W,000023.69,A,D*76
2018-12-06T00:00:23.9132Z $GPVTG,94.52,T,78.66,M,8.6,N,15.9,K,D*10
2018-12-06T00:00:23.9953Z $GPRMC,000023.69,A,4812.026860,N,12307.328937,W,8.6,94.52,061218,15.9,E,D*1F
2018-12-06T00:00:24.0550Z $GPGST,000023.69,0.50,0.224,0.183,1,0.224,0.183,0.463*72
2018-12-06T00:00:24.1120Z $GPGBS,000023.69,0.31,0.20,0.51,26,0.00,-0.57,0.83*45
2018-12-06T00:00:24.1315Z $GPHDT,92.79,T*30
2018-12-06T00:00:24.1539Z $PSXN,20,0,0,0,0*3B
2018-12-06T00:00:24.1899Z $PSXN,23,0.10,0.37,92.79,0.00*08
2018-12-06T00:00:24.7247Z $GPZDA,000024.69,06,12,2018,,*61
2018-12-06T00:00:24.8140Z $GPGGA,000024.69,4812.026673,N,12307.325375,W,2,08,1.1,-1.25,M,-18.40,M,1.2,0001*50
2018-12-06T00:00:24.8695Z $GPGLL,4812.026673,N,12307.325375,W,000024.69,A,D*7C
2018-12-06T00:00:24.9138Z $GPVTG,94.59,T,78.73,M,8.6,N,15.9,K,D*1F
2018-12-06T00:00:24.9946Z $GPRMC,000024.69,A,4812.026673,N,12307.325375,W,8.6,94.59,061218,15.9,E,D*1E
2018-12-06T00:00:25.0557Z $GPGST,000024.69,0.50,0.225,0.183,1,0.225,0.183,0.465*73
2018-12-06T00:00:25.1125Z $GPGBS,000024.69,0.30,0.20,0.50,26,0.00,-0.56,0.83*43
2018-12-06T00:00:25.1320Z $GPHDT,92.82,T*34
2018-12-06T00:00:25.1541Z $PSXN,20,0,0,0,0*3B
2018-12-06T00:00:25.1892Z $PSXN,23,0.05,0.38,92.82,0.01*06
2018-12-06T00:00:25.7249Z $GPZDA,000025.69,06,12,2018,,*60
2018-12-06T00:00:25.8141Z $GPGGA,000025.69,4812.026479,N,12307.321816,W,2,08,1.1,-1.24,M,-18.40,M,1.0,0001*50
2018-12-06T00:00:25.8695Z $GPGLL,4812.026479,N,12307.321816,W,000025.69,A,D*7F
2018-12-06T00:00:25.9139Z $GPVTG,94.68,T,78.81,M,8.6,N,15.9,K,D*10
2018-12-06T00:00:25.9946Z $GPRMC,000025.69,A,4812.026479,N,12307.321816,W,8.6,94.68,061218,15.9,E,D*1F
2018-12-06T00:00:26.0557Z $GPGST,000025.69,0.50,0.223,0.181,1,0.223,0.181,0.460*77
2018-12-06T00:00:26.1125Z $GPGBS,000025.69,0.30,0.20,0.50,26,0.00,-0.55,0.83*41
2018-12-06T00:00:26.1319Z $GPHDT,92.85,T*33
2018-12-06T00:00:26.1541Z $PSXN,20,0,0,0,0*3B
2018-12-06T00:00:26.1893Z $PSXN,23,0.02,0.40,92.85,0.01*09
2018-12-06T00:00:26.7243Z $GPZDA,000026.69,06,12,2018,,*63
2018-12-06T00:00:26.8135Z $GPGGA,000026.69,4812.026283,N,12307.318261,W,2,08,1.1,-1.25,M,-18.40,M,1.4,0001*55
2018-12-06T00:00:26.8703Z $GPGLL,4812.026283,N,12307.318261,W,000026.69,A,D*7F
2018-12-06T00:00:26.9132Z $GPVTG,94.70,T,78.83,M,8.6,N,15.9,K,D*1B
2018-12-06T00:00:26.9953Z $GPRMC,000026.69,A,4812.026283,N,12307.318261,W,8.6,94.70,061218,15.9,E,D*16
2018-12-06T00:00:27.0548Z $GPGST,000026.69,0.50,0.225,0.183,1,0.225,0.183,0.463*77
2018-12-06T00:00:27.1118Z $GPGBS,000026.69,0.31,0.21,0.52,26,0.00,-0.58,0.83*4D
2018-12-06T00:00:27.1326Z $GPHDT,92.87,T*31
2018-12-06T00:00:27.1535Z $PSXN,20,0,0,0,0*3B
2018-12-06T00:00:27.1909Z $PSXN,23,-0.02,0.40,92.87,0.01*26
2018-12-06T00:00:27.7246Z $GPZDA,000027.69,06,12,2018,,*62
2018-12-06T00:00:27.8139Z $GPGGA,000027.69,4812.026089,N,12307.314709,W,2,08,1.1,-1.27,M,-18.40,M,1.2,0001*5F
2018-12-06T00:00:27.8692Z $GPGLL,4812.026089,N,12307.314709,W,000027.69,A,D*71
2018-12-06T00:00:27.9136Z $GPVTG,94.79,T,78.93,M,8.6,N,15.9,K,D*13
2018-12-06T00:00:27.9943Z $GPRMC,000027.69,A,4812.026089,N,12307.314709,W,8.6,94.79,061218,15.9,E,D*11
2018-12-06T00:00:28.0552Z $GPGST,000027.69,0.50,0.223,0.181,1,0.223,0.181,0.459*7F
2018-12-06T00:00:28.1122Z $GPGBS,000027.69,0.31,0.21,0.52,26,0.00,-0.58,0.83*4C
2018-12-06T00:00:28.1315Z $GPHDT,92.86,T*30
2018-12-06T00:00:28.1538Z $PSXN,20,0,0,0,0*3B
2018-12-06T00:00:28.1899Z $PSXN,23,-0.03,0.38,92.86,0.02*2A
2018-12-06T00:00:28.7249Z $GPZDA,000028.69,06,12,2018,,*6D
2018-12-06T00:00:28.8141Z $GPGGA,000028.69,4812.025893,N,12307.311161,W,2,08,1.1,-1.25,M,-18.40,M,1.0,0001*5D
2018-12-06T00:00:28.8695Z $GPGLL,4812.025893,N,12307.311161,W,000028.69,A,D*73
2018-12-06T00:00:28.9139Z $GPVTG,94.82,T,78.96,M,8.6,N,15.9,K,D*12
2018-12-06T00:00:28.9946Z $GPRMC,000028.69,A,4812.025893,N,12307.311161,W,8.6,94.82,061218,15.9,E,D*17
2018-12-06T00:00:29.0557Z $GPGST,000028.69,0.50,0.224,0.183,1,0.224,0.183,0.463*79
2018-12-06T00:00:29.1126Z $GPGBS,000028.69,0.30,0.20,0.50,26,0.00,-0.56,0.83*4F
2018-12-06T00:00:29.1318Z $GPHDT,92.88,T*3E
2018-12-06T00:00:29.1541Z $PSXN,20,0,0,0,0*3B
2018-12-06T00:00:29.1903Z $PSXN,23,-0.01,0.38,92.88,0.02*26
2018-12-06T00:00:29.7253Z $GPZDA,000029.69,06,12,2018,,*6C
2018-12-06T00:00:29.8130Z $GPGGA,000029.69,4812.025696,N,12307.307610,W,2,08,1.1,-1.25,M,-18.40,M,1.4,0001*55
2018-12-06T00:00:29.8698Z $GPGLL,4812.025696,N,12307.307610,W,000029.69,A,D*7F
2018-12-06T00:00:29.9129Z $GPVTG,94.91,T,79.05,M,8.6,N,15.9,K,D*1B
2018-12-06T00:00:29.9949Z $GPRMC,000029.69,A,4812.025696,N,12307.307610,W,8.6,94.91,061218,15.9,E,D*19
2018-12-06T00:00:30.0546Z $GPGST,000029.69,0.50,0.225,0.183,1,0.225,0.183,0.465*7E
2018-12-06T00:00:30.1129Z $GPGBS,000029.69,0.31,0.20,0.51,26,0.00,-0.57,0.83*4F
2018-12-06T00:00:30.1322Z $GPHDT,92.89,T*3F
2018-12-06T00:00:30.1545Z $PSXN,20,0,0,0,0*3B
2018-12-06T00:00:30.1892Z $PSXN,23,0.01,0.39,92.89,0.01*08
2018-12-06T00:00:30.7253Z $GPZDA,000030.69,06,12,2018,,*64
2018-12-06T00:00:30.8130Z $GPGGA,000030.69,4812.025493,N,12307.304060,W,2,08,1.1,-1.25,M,-18.40,M,1.2,0001*5E
2018-12-06T00:00:30.8698Z $GPGLL,4812.025493,N,12307.304060,W,000030.69,A,D*72
2018-12-06T00:00:30.9129Z $GPVTG,94.88,T,79.02,M,8.6,N,15.9,K,D*14
2018-12-06T00:00:30.9949Z $GPRMC,000030.69,A,4812.025493,N,12307.304060,W,8.6,94.88,061218,15.9,E,D*1C
2018-12-06T00:00:31.0546Z $GPGST,000030.69,0.50,0.223,0.181,1,0.223,0.181,0.460*73
2018-12-06T00:00:31.1129Z $GPGBS,000030.69,0.31,0.21,0.52,26,0.00,-0.58,0.83*4A
2018-12-06T00:00:31.1322Z $GPHDT,92.88,T*3E
2018-12-06T00:00:31.1544Z $PSXN,20,0,0,0,0*3B
2018-12-06T00:00:31.1907Z $PSXN,23,0.07,0.36,92.88,-0.00*2C
2018-12-06T00:00:31.7243Z $GPZDA,000031.69,06,12,2018,,*65
2018-12-06T00:00:31.8135Z $GPGGA,000031.69,4812.025291,N,12307.300509,W,2,08,1.1,-1.27,M,-18.40,M,1.0,0001*55
2018-12-06T00:00:31.8702Z $GPGLL,4812.025291,N,12307.300509,W,000031.69,A,D*79
2018-12-06T00:00:31.9132Z $GPVTG,94.85,T,78.98,M,8.6,N,15.9,K,D*1B
2018-12-06T00:00:31.9953Z $GPRMC,000031.69,A,4812.025291,N,12307.300509,W,8.6,94.85,061218,15.9,E,D*1A
2018-12-06T00:00:32.0550Z $GPGST,000031.69,0.50,0.225,0.183,1,0.225,0.183,0.463*71
2018-12-06T00:00:32.1119Z $GPGBS,000031.69,0.29,0.19,0.48,26,0.00,-0.54,0.83*4E
2018-12-06T00:00:32.1325Z $GPHDT,92.89,T*3F
2018-12-06T00:00:32.1536Z $PSXN,20,0,0,0,0*3B
2018-12-06T00:00:32.1910Z $PSXN,23,0.14,0.37,92.89,-0.00*2E
2018-12-06T00:00:32.7246Z $GPZDA,000032.69,06,12,2018,,*66
2018-12-06T00:00:32.8139Z $GPGGA,000032.69,4812.025086,N,12307.296952,W,2,08,1.1,-1.30,M,-18.40,M,1.4,0001*5C
2018-12-06T00:00:32.8691Z $GPGLL,4812.025086,N,12307.296952,W,000032.69,A,D*72
2018-12-06T00:00:32.9136Z $GPVTG,95.09,T,79.22,M,8.6,N,15.9,K,D*1E
2018-12-06T00:00:32.9942Z $GPRMC,000032.69,A,4812.025086,N,12307.296952,W,8.6,95.09,061218,15.9,E,D*14
2018-12-06T00:00:33.0553Z $GPGST,000032.69,0.50,0.223,0.181,1,0.223,0.181,0.459*7B
2018-12-06T00:00:33.1123Z $GPGBS,000032.69,0.29,0.19,0.48,26,0.00,-0.54,0.83*4D
2018-12-06T00:00:33.1315Z $GPHDT,92.92,T*35
2018-12-06T00:00:33.1538Z $PSXN,20,0,0,0,0*3B
2018-12-06T00:00:33.1900Z $PSXN,23,0.19,0.40,92.92,-0.00*29
2018-12-06T00:00:33.7251Z $GPZDA,000033.69,06,12,2018,,*67
2018-12-06T00:00:33.8143Z $GPGGA,000033.69,4812.024875,N,12307.293395,W,2,08,1.1,-1.32,M,-18.40,M,1.2,0001*58
2018-12-06T00:00:33.8694Z $GPGLL,4812.024875,N,12307.293395,W,000033.69,A,D*72
2018-12-06T00:00:33.9139Z $GPVTG,95.04,T,79.17,M,8.6,N,15.9,K,D*15
2018-12-06T00:00:33.9946Z $GPRMC,000033.69,A,4812.024875,N,12307.293395,W,8.6,95.04,061218,15.9,E,D*19
2018-12-06T00:00:34.0557Z $GPGST,000033.69,0.50,0.225,0.183,1,0.225,0.183,0.463*73
2018-12-06T00:00:34.1125Z $GPGBS,000033.69,0.29,0.19,0.47,26,0.00,-0.53,0.83*44
2018-12-06T00:00:34.1319Z $GPHDT,92.92,T*35
2018-12-06T00:00:34.1542Z $PSXN,20,0,0,0,0*3B
2018-12-06T00:00:34.1890Z $PSXN,23,0.22,0.39,92.92,0.00*02
2018-12-06T00:00:34.7250Z $GPZDA,000034.69,06,12,2018,,*60
2018-12-06T00:00:34.8141Z $GPGGA,000034.69,4812.024666,N,12307.289834,W,2,08,1.1,-1.36,M,-18.40,M,1.0,0001*5E
2018-12-06T00:00:34.8694Z $GPGLL,4812.024666,N,12307.289834,W,000034.69,A,D*72
2018-12-06T00:00:34.9139Z $GPVTG,94.96,T,79.09,M,8.6,N,15.9,K,D*10
2018-12-06T00:00:34.9945Z $GPRMC,000034.69,A,4812.024666,N,12307.289834,W,8.6,94.96,061218,15.9,E,D*13
2018-12-06T00:00:35.0557Z $GPGST,000034.69,0.50,0.225,0.183,1,0.225,0.183,0.465*72
2018-12-06T00:00:35.1125Z $GPGBS,000034.69,0.31,0.20,0.51,26,0.00,-0.57,0.83*43
2018-12-06T00:00:35.1319Z $GPHDT,92.93,T*34
2018-12-06T00:00:35.1542Z $PSXN,20,0,0,0,0*3B
2018-12-06T00:00:35.1892Z $PSXN,23,0.21,0.38,92.93,0.01*00
2018-12-06T00:00:35.7254Z $GPZDA,000035.69,06,12,2018,,*61
2018-12-06T00:00:35.8130Z $GPGGA,000035.69,4812.024458,N,12307.286276,W,2,08,1.1,-1.40,M,-18.40,M,1.4,0001*56
2018-12-06T00:00:35.8698Z $GPGLL,4812.024458,N,12307.286276,W,000035.69,A,D*7F
2018-12-06T00:00:35.9129Z $GPVTG,95.15,T,79.28,M,8.6,N,15.9,K,D*19
2018-12-06T00:00:35.9949Z $GPRMC,000035.69,A,4812.024458,N,12307.286276,W,8.6,95.15,061218,15.9,E,D*14
2018-12-06T00:00:36.0549Z $GPGST,000035.69,0.50,0.223,0.181,1,0.223,0.181,0.460*76
2018-12-06T00:00:36.1118Z $GPGBS,000035.69,0.31,0.20,0.51,26,0.00,-0.57,0.83*42
2018-12-06T00:00:36.1326Z $GPHDT,92.96,T*31
2018-12-06T00:00:36.1534Z $PSXN,20,0,0,0,0*3B
2018-12-06T00:00:36.1895Z $PSXN,23,0.16,0.39,92.96,0.01*00
2018-12-06T00:00:36.7244Z $GPZDA,000036.69,06,12,2018,,*62
2018-12-06T00:00:36.8135Z $GPGGA,000036.69,4812.024243,N,12307.282723,W,2,08,1.1,-1.43,M,-18.40,M,1.2,0001*5D
2018-12-06T00:00:36.8701Z $GPGLL,4812.024243,N,12307.282723,W,000036.69,A,D*71
2018-12-06T00:00:36.9131Z $GPVTG,95.16,T,79.29,M,8.6,N,15.9,K,D*1B
2018-12-06T00:00:36.9953Z $GPRMC,000036.69,A,4812.024243,N,12307.282723,W,8.6,95.16,061218,15.9,E,D*19
2018-12-06T00:00:37.0549Z $GPGST,000036.69,0.50,0.225,0.183,1,0.225,0.183,0.463*76
2018-12-06T00:00:37.1118Z $GPGBS,000036.69,0.30,0.20,0.50,26,0.00,-0.55,0.83*43
2018-12-06T00:00:37.1326Z $GPHDT,92.96,T*31
2018-12-06T00:00:37.1535Z $PSXN,20,0,0,0,0*3B
2018-12-06T00:00:37.1896Z $PSXN,23,0.09,0.39,92.96,0.01*0E
2018-12-06T00:00:37.7244Z $GPZDA,000037.69,06,12,2018,,*63
2018-12-06T00:00:37.8136Z $GPGGA,000037.69,4812.024030,N,12307.279169,W,2,08,1.1,-1.45,M,-18.40,M,1.0,0001*52
2018-12-06T00:00:37.8701Z $GPGLL,4812.024030,N,12307.279169,W,000037.69,A,D*7A
2018-12-06T00:00:37.9132Z $GPVTG,95.11,T,79.24,M,8.6,N,15.9,K,D*11
2018-12-06T00:00:37.9952Z $GPRMC,000037.69,A,4812.024030,N,12307.279169,W,8.6,95.11,061218,15.9,E,D*15
2018-12-06T00:00:38.0549Z $GPGST,000037.69,0.50,0.223,0.181,1,0.223,0.181,0.459*7E
2018-12-06T00:00:38.1119Z $GPGBS,000037.69,0.30,0.20,0.49,26,0.00,-0.55,0.83*4A
2018-12-06T00:00:38.1326Z $GPHDT,92.96,T*31
2018-12-06T00:00:38.1535Z $PSXN,20,0,0,0,0*3B
2018-12-06T00:00:38.1896Z $PSXN,23,0.02,0.38,92.96,0.01*04
2018-12-06T00:00:38.7243Z $GPZDA,000038.69,06,12,2018,,*6C
2018-12-06T00:00:38.8136Z $GPGGA,000038.69,4812.023817,N,12307.275623,W,2,08,1.1,-1.48,M,-18.40,M,1.4,0001*5B
2018-12-06T00:00:38.8702Z $GPGLL,4812.023817,N,12307.275623,W,000038.69,A,D*7A
2018-12-06T00:00:38.9132Z $GPVTG,95.23,T,79.36,M,8.6,N,15.9,K,D*13
2018-12-06T00:00:38.9953Z $GPRMC,000038.69,A,4812.023817,N,12307.275623,W,8.6,95.23,061218,15.9,E,D*14
2018-12-06T00:00:39.0551Z $GPGST,000038.69,0.50,0.225,0.183,1,0.225,0.183,0.463*78
2018-12-06T00:00:39.1119Z $GPGBS,000038.69,0.28,0.18,0.46,26,0.00,-0.51,0.83*4C
2018-12-06T00:00:39.1316Z $GPHDT,92.96,T*31
2018-12-06T00:00:39.1540Z $PSXN,20,0,0,0,0*3B
2018-12-06T00:00:39.1902Z $PSXN,23,-0.03,0.38,92.96,0.01*28
2018-12-06T00:00:39.7254Z $GPZDA,000039.69,06,12,2018,,*6D
2018-12-06T00:00:39.8130Z $GPGGA,000039.69,4812.023601,N,12307.272085,W,2,08,1.1,-1.50,M,-18.40,M,1.2,0001*51
2018-12-06T00:00:39.8699Z $GPGLL,4812.023601,N,12307.272085,W,000039.69,A,D*7F
2018-12-06T00:00:39.9130Z $GPVTG,95.36,T,79.49,M,8.6,N,15.9,K,D*1F
2018-12-06T00:00:39.9950Z $GPRMC,000039.69,A,4812.023601,N,12307.272085,W,8.6,95.36,061218,15.9,E,D*15
2018-12-06T00:00:40.0547Z $GPGST,000039.69,0.50,0.225,0.183,1,0.225,0.183,0.465*7F
2018-12-06T00:00:40.1119Z $GPGBS,000039.69,0.27,0.18,0.44,26,0.00,-0.49,0.83*49
2018-12-06T00:00:40.1327Z $GPHDT,92.95,T*32
2018-12-06T00:00:40.1538Z $PSXN,20,0,0,0,0*3B
2018-12-06T00:00:40.1900Z $PSXN,23,-0.05,0.37,92.95,0.00*23
2018-12-06T00:00:40.7249Z $GPZDA,000040.69,06,12,2018,,*63
2018-12-06T00:00:40.8141Z $GPGGA,000040.69,4812.023386,N,12307.268538,W,2,08,1.1,-1.49,M,-18.40,M,1.0,0001*57
2018-12-06T00:00:40.8695Z $GPGLL,4812.023386,N,12307.268538,W,000040.69,A,D*73
2018-12-06T00:00:40.9140Z $GPVTG,95.22,T,79.35,M,8.6,N,15.9,K,D*11
2018-12-06T00:00:40.9946Z $GPRMC,000040.69,A,4812.023386,N,12307.268538,W,8.6,95.22,061218,15.9,E,D*1C
2018-12-06T00:00:41.0557Z $GPGST,000040.69,0.50,0.223,0.181,1,0.223,0.181,0.460*74
2018-12-06T00:00:41.1125Z $GPGBS,000040.69,0.26,0.17,0.44,26,0.00,-0.49,0.83*49
2018-12-06T00:00:41.1319Z $GPHDT,92.95,T*32
2018-12-06T00:00:41.1542Z $PSXN,20,0,0,0,0*3B
2018-12-06T00:00:41.1903Z $PSXN,23,-0.02,0.37,92.95,0.00*24
2018-12-06T00:00:41.7253Z $GPZDA,000041.69,06,12,2018,,*62
2018-12-06T00:00:41.8133Z $GPGGA,000041.69,4812.023170,N,12307.264987,W,2,08,1.1,-1.49,M,-18.40,M,1.4,0001*5D
2018-12-06T00:00:41.8702Z $GPGLL,4812.023170,N,12307.264987,W,000041.69,A,D*7D
2018-12-06T00:00:41.9132Z $GPVTG,95.31,T,79.44,M,8.6,N,15.9,K,D*15
2018-12-06T00:00:41.9953Z $GPRMC,000041.69,A,4812.023170,N,12307.264987,W,8.6,95.31,061218,15.9,E,D*10
2018-12-06T00:00:42.0549Z $GPGST,000041.69,0.50,0.225,0.183,1,0.225,0.183,0.463*76
2018-12-06T00:00:42.1119Z $GPGBS,000041.69,0.25,0.17,0.42,26,0.00,-0.47,0.83*43
2018-12-06T00:00:42.1326Z $GPHDT,92.94,T*33
2018-12-06T00:00:42.1534Z $PSXN,20,0,0,0,0*3B
2018-12-06T00:00:42.1897Z $PSXN,23,0.04,0.38,92.94,0.00*01
2018-12-06T00:00:42.7243Z $GPZDA,000042.69,06,12,2018,,*61
2018-12-06T00:00:42.8135Z $GPGGA,000042.69,4812.022951,N,12307.261434,W,2,08,1.1,-1.50,M,-18.40,M,1.2,0001*5A
2018-12-06T00:00:42.8702Z $GPGLL,4812.022951,N,12307.261434,W,000042.69,A,D*74
2018-12-06T00:00:42.9132Z $GPVTG,95.43,T,79.56,M,8.6,N,15.9,K,D*13
2018-12-06T00:00:42.9953Z $GPRMC,000042.69,A,4812.022951,N,12307.261434,W,8.6,95.43,061218,15.9,E,D*1C
2018-12-06T00:00:43.0548Z $GPGST,000042.69,0.50,0.223,0.181,1,0.223,0.181,0.459*7C
2018-12-06T00:00:43.1118Z $GPGBS,000042.69,0.25,0.17,0.41,26,0.00,-0.46,0.83*42
2018-12-06T00:00:43.1326Z $GPHDT,92.93,T*34
2018-12-06T00:00:43.1534Z $PSXN,20,0,0,0,0*3B
2018-12-06T00:00:43.1897Z $PSXN,23,0.11,0.37,92.93,0.00*0D
2018-12-06T00:00:43.7244Z $GPZDA,000043.69,06,12,2018,,*60
2018-12-06T00:00:43.8136Z $GPGGA,000043.69,4812.022731,N,12307.257883,W,2,08,1.1,-1.49,M,-18.40,M,1.0,0001*5C
2018-12-06T00:00:43.8702Z $GPGLL,4812.022731,N,12307.257883,W,000043.69,A,D*78
2018-12-06T00:00:43.9132Z $GPVTG,95.35,T,79.48,M,8.6,N,15.9,K,D*1D
2018-12-06T00:00:43.9953Z $GPRMC,000043.69,A,4812.022731,N,12307.257883,W,8.6,95.35,061218,15.9,E,D*11
2018-12-06T00:00:44.0550Z $GPGST,000043.69,0.50,0.225,0.183,1,0.225,0.183,0.463*74
2018-12-06T00:00:44.1118Z $GPGBS,000043.69,0.26,0.17,0.43,26,0.00,-0.48,0.83*4C
2018-12-06T00:00:44.1326Z $GPHDT,92.93,T*34
2018-12-06T00:00:44.1535Z $PSXN,20,0,0,0,0*3B
2018-12-06T00:00:44.1895Z $PSXN,23,0.20,0.38,92.93,0.00*00
2018-12-06T00:00:44.7244Z $GPZDA,000044.69,06,12,2018,,*67
2018-12-06T00:00:44.8136Z $GPGGA,000044.69,4812.022515,N,12307.254326,W,2,08,1.1,-1.50,M,-18.40,M,1.4,0001*54
2018-12-06T00:00:44.8703Z $GPGLL,4812.022515,N,12307.254326,W,000044.69,A,D*7C
2018-12-06T00:00:44.9133Z $GPVTG,95.40,T,79.53,M,8.6,N,15.9,K,D*15
2018-12-06T00:00:44.9953Z $GPRMC,000044.69,A,4812.022515,N,12307.254326,W,8.6,95.40,061218,15.9,E,D*17
2018-12-06T00:00:45.0549Z $GPGST,000044.69,0.50,0.225,0.183,1,0.225,0.183,0.464*74
2018-12-06T00:00:45.1134Z $GPGBS,000044.69,-0.20,0.01,-0.09,3,0.00,-0.34,0.62*77
2018-12-06T00:00:45.1326Z $GPHDT,92.94,T*33
2018-12-06T00:00:45.1548Z $PSXN,20,0,0,0,0*3B
2018-12-06T00:00:45.1910Z $PSXN,23,0.27,0.38,92.94,-0.00*2D
2018-12-06T00:00:45.7246Z $GPZDA,000045.69,06,12,2018,,*66
2018-12-06T00:00:45.8139Z $GPGGA,000045.69,4812.022293,N,12307.250770,W,2,08,1.1,-1.50,M,-18.40,M,1.2,0001*59
2018-12-06T00:00:45.8691Z $GPGLL,4812.022293,N,12307.250770,W,000045.69,A,D*77
2018-12-06T00:00:45.9136Z $GPVTG,95.52,T,79.65,M,8.6,N,15.9,K,D*13
2018-12-06T00:00:45.9943Z $GPRMC,000045.69,A,4812.022293,N,12307.250770,W,8.6,95.52,061218,15.9,E,D*1F
2018-12-06T00:00:46.0553Z $GPGST,000045.69,0.50,0.223,0.181,1,0.223,0.181,0.460*71
2018-12-06T00:00:46.1136Z $GPGBS,000045.69,-0.21,0.01,-0.09,3,0.00,-0.36,0.62*75
2018-12-06T00:00:46.1329Z $GPHDT,92.93,T*34
2018-12-06T00:00:46.1552Z $PSXN,20,0,0,0,0*3B
2018-12-06T00:00:46.1914Z $PSXN,23,0.29,0.38,92.93,-0.00*24
2018-12-06T00:00:46.7253Z $GPZDA,000046.69,06,12,2018,,*65
2018-12-06T00:00:46.8129Z $GPGGA,000046.69,4812.022068,N,12307.247212,W,2,08,1.1,-1.50,M,-18.40,M,1.0,0001*59
2018-12-06T00:00:46.8699Z $GPGLL,4812.022068,N,12307.247212,W,000046.69,A,D*75
2018-12-06T00:00:46.9128Z $GPVTG,95.44,T,79.57,M,8.6,N,15.9,K,D*15
2018-12-06T00:00:46.9948Z $GPRMC,000046.69,A,4812.022068,N,12307.247212,W,8.6,95.44,061218,15.9,E,D*1A
2018-12-06T00:00:47.0546Z $GPGST,000046.69,0.50,0.225,0.183,1,0.225,0.183,0.463*71
2018-12-06T00:00:47.1129Z $GPGBS,000046.69,-0.22,0.01,-0.10,3,0.00,-0.37,0.62*7C
2018-12-06T00:00:47.1337Z $GPHDT,92.92,T*35
2018-12-06T00:00:47.1545Z $PSXN,20,0,0,0,0*3B
2018-12-06T00:00:47.1920Z $PSXN,23,0.28,0.39,92.92,-0.00*25
2018-12-06T00:00:47.7242Z $GPZDA,000047.69,06,12,2018,,*64
2018-12-06T00:00:47.8136Z $GPGGA,000047.69,4812.021842,N,12307.243656,W,2,08,1.1,-1.51,M,-18.40,M,1.4,0001*5E
2018-12-06T00:00:47.8702Z $GPGLL,4812.021842,N,12307.243656,W,000047.69,A,D*77
2018-12-06T00:00:47.9132Z $GPVTG,95.61,T,79.75,M,8.6,N,15.9,K,D*12
2018-12-06T00:00:47.9953Z $GPRMC,000047.69,A,4812.021842,N,12307.243656,W,8.6,95.61,061218,15.9,E,D*1F
2018-12-06T00:00:48.0549Z $GPGST,000047.69,0.50,0.223,0.181,1,0.223,0.181,0.459*79
2018-12-06T00:00:48.1132Z $GPGBS,000047.69,-0.23,0.01,-0.11,3,0.00,-0.40,0.62*7D
2018-12-06T00:00:48.1327Z $GPHDT,92.90,T*37
2018-12-06T00:00:48.1548Z $PSXN,20,0,0,0,0*3B
2018-12-06T00:00:48.1910Z $PSXN,23,0.24,0.40,92.90,0.00*08
2018-12-06T00:00:48.7247Z $GPZDA,000048.69,06,12,2018,,*6B
2018-12-06T00:00:48.8139Z $GPGGA,000048.69,4812.021617,N,12307.240102,W,2,08,1.1,-1.53,M,-18.40,M,1.2,0001*5E
2018-12-06T00:00:48.8692Z $GPGLL,4812.021617,N,12307.240102,W,000048.69,A,D*73
2018-12-06T00:00:48.9136Z $GPVTG,95.58,T,79.72,M,8.6,N,15.9,K,D*1F
2018-12-06T00:00:48.9943Z $GPRMC,000048.69,A,4812.021617,N,12307.240102,W,8.6,95.58,061218,15.9,E,D*11
2018-12-06T00:00:49.0552Z $GPGST,000048.69,0.50,0.225,0.183,1,0.225,0.183,0.463*7F
2018-12-06T00:00:49.1137Z $GPGBS,000048.69,-0.23,0.01,-0.10,3,0.00,-0.40,0.62*73
2018-12-06T00:00:49.1329Z $GPHDT,92.86,T*30
2018-12-06T00:00:49.1551Z $PSXN,20,0,0,0,0*3B
2018-12-06T00:00:49.1913Z $PSXN,23,0.16,0.39,92.86,-0.00*2D
2018-12-06T00:00:49.7250Z $GPZDA,000049.69,06,12,2018,,*6A
2018-12-06T00:00:49.8141Z $GPGGA,000049.69,4812.021389,N,12307.236549,W,2,08,1.1,-1.54,M,-18.40,M,1.0,0001*52
2018-12-06T00:00:49.8694Z $GPGLL,4812.021389,N,12307.236549,W,000049.69,A,D*7A
2018-12-06T00:00:49.9139Z $GPVTG,95.53,T,79.67,M,8.6,N,15.9,K,D*10
2018-12-06T00:00:49.9945Z $GPRMC,000049.69,A,4812.021389,N,12307.236549,W,8.6,95.53,061218,15.9,E,D*13
2018-12-06T00:00:50.0557Z $GPGST,000049.69,0.50,0.225,0.183,1,0.225,0.183,0.464*79
2018-12-06T00:00:50.1140Z $GPGBS,000049.69,-0.23,0.01,-0.10,3,0.00,-0.39,0.62*7C
2018-12-06T00:00:50.1332Z $GPHDT,92.82,T*34
2018-12-06T00:00:50.1556Z $PSXN,20,0,0,0,0*3B
2018-12-06T00:00:50.1903Z $PSXN,23,0.09,0.38,92.82,0.00*0B
2018-12-06T00:00:50.7254Z $GPZDA,000050.69,06,12,2018,,*62
2018-12-06T00:00:50.8131Z $GPGGA,000050.69,4812.021160,N,12307.232998,W,2,08,1.1,-1.55,M,-18.40,M,1.4,0001*5E
2018-12-06T00:00:50.8702Z $GPGLL,4812.021160,N,12307.232998,W,000050.69,A,D*73
2018-12-06T00:00:50.9130Z $GPVTG,95.62,T,79.76,M,8.6,N,15.9,K,D*12
2018-12-06T00:00:50.9950Z $GPRMC,000050.69,A,4812.021160,N,12307.232998,W,8.6,95.62,061218,15.9,E,D*18
2018-12-06T00:00:51.0546Z $GPGST,000050.69,0.50,0.223,0.181,1,0.223,0.181,0.459*7F
2018-12-06T00:00:51.1130Z $GPGBS,000050.69,-0.24,0.01,-0.11,3,0.00,-0.41,0.62*7D
2018-12-06T00:00:51.1336Z $GPHDT,92.78,T*31
2018-12-06T00:00:51.1545Z $PSXN,20,0,0,0,0*3B
2018-12-06T00:00:51.1907Z $PSXN,23,0.04,0.38,92.78,0.01*02
2018-12-06T00:00:51.7244Z $GPZDA,000051.69,06,12,2018,,*63
2018-12-06T00:00:51.8136Z $GPGGA,000051.69,4812.020926,N,12307.229453,W,2,08,1.1,-1.57,M,-18.40,M,1.2,0001*50
2018-12-06T00:00:51.8702Z $GPGLL,4812.020926,N,12307.229453,W,000051.69,A,D*79
2018-12-06T00:00:51.9133Z $GPVTG,95.59,T,79.73,M,8.6,N,15.9,K,D*1F
2018-12-06T00:00:51.9953Z $GPRMC,000051.69,A,4812.020926,N,12307.229453,W,8.6,95.59,061218,15.9,E,D*1A
2018-12-06T00:00:52.0550Z $GPGST,000051.69,0.50,0.225,0.183,1,0.225,0.183,0.463*77
2018-12-06T00:00:52.1133Z $GPGBS,000051.69,-0.23,0.01,-0.11,3,0.00,-0.41,0.62*7B
2018-12-06T00:00:52.1326Z $GPHDT,92.72,T*3B
2018-12-06T00:00:52.1549Z $PSXN,20,0,0,0,0*3B
2018-12-06T00:00:52.1909Z $PSXN,23,0.02,0.37,92.72,0.01*01
2018-12-06T00:00:52.7243Z $GPZDA,000052.69,06,12,2018,,*60
2018-12-06T00:00:52.8136Z $GPGGA,000052.69,4812.020697,N,12307.225904,W,2,08,1.1,-1.57,M,-18.40,M,1.0,0001*57
2018-12-06T00:00:52.8702Z $GPGLL,4812.020697,N,12307.225904,W,000052.69,A,D*7C
2018-12-06T00:00:52.9133Z $GPVTG,95.47,T,79.61,M,8.6,N,15.9,K,D*13
2018-12-06T00:00:52.9953Z $GPRMC,000052.69,A,4812.020697,N,12307.225904,W,8.6,95.47,061218,15.9,E,D*10
2018-12-06T00:00:53.0550Z $GPGST,000052.69,0.50,0.223,0.181,1,0.223,0.181,0.459*7D
2018-12-06T00:00:53.1118Z $GPGBS,000052.69,0.27,0.18,0.46,26,0.00,-0.51,0.83*4F
2018-12-06T00:00:53.1326Z $GPHDT,92.67,T*3F
2018-12-06T00:00:53.1535Z $PSXN,20,0,0,0,0*3B
2018-12-06T00:00:53.1895Z $PSXN,23,0.04,0.38,92.67,0.02*0F
2018-12-06T00:00:53.7244Z $GPZDA,000053.69,06,12,2018,,*61
2018-12-06T00:00:53.8136Z $GPGGA,000053.69,4812.020469,N,12307.222352,W,2,08,1.1,-1.57,M,-18.40,M,1.4,0001*5F
2018-12-06T00:00:53.8703Z $GPGLL,4812.020469,N,12307.222352,W,000053.69,A,D*70
2018-12-06T00:00:53.9133Z $GPVTG,95.58,T,79.71,M,8.6,N,15.9,K,D*1C
2018-12-06T00:00:53.9954Z $GPRMC,000053.69,A,4812.020469,N,12307.222352,W,8.6,95.58,061218,15.9,E,D*12
2018-12-06T00:00:54.0549Z $GPGST,000053.69,0.50,0.225,0.183,0,0.225,0.183,0.463*74
2018-12-06T00:00:54.1133Z $GPGBS,000053.69,-0.23,0.01,-0.10,3,0.00,-0.40,0.62*79
2018-12-06T00:00:54.1325Z $GPHDT,92.64,T*3C
2018-12-06T00:00:54.1548Z $PSXN,20,0,0,0,0*3B
2018-12-06T00:00:54.1910Z $PSXN,23,0.09,0.39,92.64,0.02*00
2018-12-06T00:00:54.7247Z $GPZDA,000054.69,06,12,2018,,*66
2018-12-06T00:00:54.8138Z $GPGGA,000054.69,4812.020234,N,12307.218799,W,2,08,1.1,-1.55,M,-18.40,M,1.2,0001*58
2018-12-06T00:00:54.8691Z $GPGLL,4812.020234,N,12307.218799,W,000054.69,A,D*73
2018-12-06T00:00:54.9136Z $GPVTG,95.58,T,79.71,M,8.6,N,15.9,K,D*1C
2018-12-06T00:00:54.9942Z $GPRMC,000054.69,A,4812.020234,N,12307.218799,W,8.6,95.58,061218,15.9,E,D*11
2018-12-06T00:00:55.0553Z $GPGST,000054.69,0.50,0.226,0.183,0,0.226,0.183,0.464*74
2018-12-06T00:00:55.1136Z $GPGBS,000054.69,-0.23,0.01,-0.10,3,0.00,-0.40,0.62*7E
2018-12-06T00:00:55.1329Z $GPHDT,92.59,T*32
2018-12-06T00:00:55.1552Z $PSXN,20,0,0,0,0*3B
2018-12-06T00:00:55.1900Z $PSXN,23,0.16,0.38,92.59,0.01*02
2018-12-06T00:00:55.7250Z $GPZDA,000055.69,06,12,2018,,*67
2018-12-06T00:00:55.8141Z $GPGGA,000055.69,4812.019999,N,12307.215248,W,2,08,1.1,-1.54,M,-18.40,M,1.0,0001*58
2018-12-06T00:00:55.8695Z $GPGLL,4812.019999,N,12307.215248,W,000055.69,A,D*70
2018-12-06T00:00:55.9139Z $GPVTG,95.41,T,79.54,M,8.6,N,15.9,K,D*13
2018-12-06T00:00:55.9946Z $GPRMC,000055.69,A,4812.019999,N,12307.215248,W,8.6,95.41,061218,15.9,E,D*1A
2018-12-06T00:00:56.0557Z $GPGST,000055.69,0.50,0.223,0.181,0,0.223,0.181,0.459*7B
2018-12-06T00:00:56.1125Z $GPGBS,000055.69,0.30,0.19,0.49,26,0.00,-0.55,0.83*44
2018-12-06T00:00:56.1321Z $GPHDT,92.54,T*3F
2018-12-06T00:00:56.1541Z $PSXN,20,0,0,0,0*3B
2018-12-06T00:00:56.1902Z $PSXN,23,0.24,0.37,92.54,-0.00*2D
2018-12-06T00:00:56.7253Z $GPZDA,000056.69,06,12,2018,,*64
2018-12-06T00:00:56.8132Z $GPGGA,000056.69,4812.019773,N,12307.211695,W,2,08,1.1,-1.55,M,-18.40,M,1.4,0001*54
2018-12-06T00:00:56.8698Z $GPGLL,4812.019773,N,12307.211695,W,000056.69,A,D*79
2018-12-06T00:00:56.9129Z $GPVTG,95.36,T,79.50,M,8.6,N,15.9,K,D*17
2018-12-06T00:00:56.9949Z $GPRMC,000056.69,A,4812.019773,N,12307.211695,W,8.6,95.36,061218,15.9,E,D*13
2018-12-06T00:00:57.0547Z $GPGST,000056.69,0.50,0.225,0.183,0,0.225,0.183,0.463*71
2018-12-06T00:00:57.1129Z $GPGBS,000056.69,0.31,0.20,0.51,26,0.00,-0.57,0.83*47
2018-12-06T00:00:57.1322Z $GPHDT,92.50,T*3B
2018-12-06T00:00:57.1545Z $PSXN,20,0,0,0,0*3B
2018-12-06T00:00:57.1909Z $PSXN,23,0.31,0.38,92.50,-0.00*22
2018-12-06T00:00:57.7246Z $GPZDA,000057.69,06,12,2018,,*65
2018-12-06T00:00:57.8139Z $GPGGA,000057.69,4812.019547,N,12307.208138,W,2,08,1.1,-1.55,M,-18.40,M,1.2,0001*5E
2018-12-06T00:00:57.8692Z $GPGLL,4812.019547,N,12307.208138,W,000057.69,A,D*75
2018-12-06T00:00:57.9135Z $GPVTG,95.42,T,79.55,M,8.6,N,15.9,K,D*11
2018-12-06T00:00:57.9943Z $GPRMC,000057.69,A,4812.019547,N,12307.208138,W,8.6,95.42,061218,15.9,E,D*1C
2018-12-06T00:00:58.0552Z $GPGST,000057.69,0.50,0.223,0.181,0,0.223,0.181,0.459*79
2018-12-06T00:00:58.1122Z $GPGBS,000057.69,0.30,0.19,0.49,26,0.00,-0.55,0.83*46
2018-12-06T00:00:58.1317Z $GPHDT,92.46,T*3C
2018-12-06T00:00:58.1538Z $PSXN,20,0,0,0,0*3B
2018-12-06T00:00:58.1899Z $PSXN,23,0.34,0.39,92.46,-0.00*21
2018-12-06T00:00:58.7249Z $GPZDA,000058.69,06,12,2018,,*6A
2018-12-06T00:00:58.8141Z $GPGGA,000058.69,4812.019318,N,12307.204579,W,2,08,1.1,-1.56,M,-18.40,M,1.0,0001*51
2018-12-06T00:00:58.8695Z $GPGLL,4812.019318,N,12307.204579,W,000058.69,A,D*7B
2018-12-06T00:00:58.9139Z $GPVTG,95.36,T,79.49,M,8.6,N,15.9,K,D*1F
2018-12-06T00:00:58.9945Z $GPRMC,000058.69,A,4812.019318,N,12307.204579,W,8.6,95.36,061218,15.9,E,D*11
2018-12-06T00:00:59.0558Z $GPGST,000058.69,0.50,0.225,0.183,0,0.225,0.183,0.463*7F
2018-12-06T00:00:59.1125Z $GPGBS,000058.69,0.33,0.22,0.54,26,0.00,-0.61,0.83*49
2018-12-06T00:00:59.1319Z $GPHDT,92.40,T*3A
2018-12-06T00:00:59.1541Z $PSXN,20,0,0,0,0*3B
2018-12-06T00:00:59.1903Z $PSXN,23,0.35,0.39,92.40,-0.01*27
2018-12-06T00:00:59.7253Z $GPZDA,000059.69,06,12,2018,,*6B
2018-12-06T00:00:59.8132Z $GPGGA,000059.69,4812.019091,N,12307.201023,W,2,08,1.1,-1.54,M,-18.40,M,1.4,0001*5B
2018-12-06T00:00:59.8698Z $GPGLL,4812.019091,N,12307.201023,W,000059.69,A,D*77
2018-12-06T00:00:59.9132Z $GPVTG,95.39,T,79.52,M,8.6,N,15.9,K,D*1A
2018-12-06T00:00:59.9952Z $GPRMC,000059.69,A,4812.019091,N,12307.201023,W,8.6,95.39,061218,15.9,E,D*12
2018-12-06T00:01:00.0550Z $GPGST,000059.69,0.50,0.226,0.183,0,0.226,0.183,0.464*79
2018-12-06T00:01:00.1119Z $GPGBS,000059.69,0.33,0.22,0.55,26,0.00,-0.62,0.83*4A
2018-12-06T00:01:00.1326Z $GPHDT,92.35,T*38
2018-12-06T00:01:00.1534Z $PSXN,20,0,0,0,0*3B
2018-12-06T00:01:00.1909Z $PSXN,23,0.37,0.39,92.35,-0.01*27
2018-12-06T00:01:00.7243Z $GPZDA,000100.69,06,12,2018,,*66
2018-12-06T00:01:00.8135Z $GPGGA,000100.69,4812.018862,N,12307.197469,W,2,08,1.1,-1.53,M,-18.40,M,1.2,0001*54
2018-12-06T00:01:00.8702Z $GPGLL,4812.018862,N,12307.197469,W,000100.69,A,D*79
2018-12-06T00:01:00.9132Z $GPVTG,95.43,T,79.56,M,8.6,N,15.9,K,D*13
2018-12-06T00:01:00.9953Z $GPRMC,000100.69,A,4812.018862,N,12307.197469,W,8.6,95.43,061218,15.9,E,D*11
2018-12-06T00:01:01.0550Z $GPGST,000100.69,0.50,0.223,0.181,0,0.223,0.181,0.459*7A
2018-12-06T00:01:01.1120Z $GPGBS,000100.69,0.35,0.23,0.57,26,0.00,-0.64,0.83*44
2018-12-06T00:01:01.1325Z $GPHDT,92.29,T*35
2018-12-06T00:01:01.1534Z $PSXN,20,0,0,0,0*3B
2018-12-06T00:01:01.1910Z $PSXN,23,0.38,0.38,92.29,-0.02*27
2018-12-06T00:01:01.7246Z $GPZDA,000101.69,06,12,2018,,*67
2018-12-06T00:01:01.8137Z $GPGGA,000101.69,4812.018636,N,12307.193912,W,2,08,1.1,-1.53,M,-18.40,M,1.0,0001*5D
2018-12-06T00:01:01.8692Z $GPGLL,4812.018636,N,12307.193912,W,000101.69,A,D*72
2018-12-06T00:01:01.9136Z $GPVTG,95.22,T,79.36,M,8.6,N,15.9,K,D*12
2018-12-06T00:01:01.9943Z $GPRMC,000101.69,A,4812.018636,N,12307.193912,W,8.6,95.22,061218,15.9,E,D*1D
2018-12-06T00:01:02.0553Z $GPGST,000101.69,0.50,0.225,0.183,0,0.225,0.183,0.463*72
2018-12-06T00:01:02.1122Z $GPGBS,000101.69,0.36,0.23,0.59,26,0.00,-0.66,0.83*4A
2018-12-06T00:01:02.1315Z $GPHDT,92.24,T*38
2018-12-06T00:01:02.1538Z $PSXN,20,0,0,0,0*3B
2018-12-06T00:01:02.1901Z $PSXN,23,0.37,0.38,92.24,-0.02*25
2018-12-06T00:01:02.7254Z $GPZDA,000102.69,06,12,2018,,*64
2018-12-06T00:01:02.8142Z $GPGGA,000102.69,4812.018415,N,12307.190355,W,2,08,1.1,-1.54,M,-18.40,M,1.4,0001*54
2018-12-06T00:01:02.8695Z $GPGLL,4812.018415,N,12307.190355,W,000102.69,A,D*78
2018-12-06T00:01:02.9139Z $GPVTG,95.23,T,79.37,M,8.6,N,15.9,K,D*12
2018-12-06T00:01:02.9946Z $GPRMC,000102.69,A,4812.018415,N,12307.190355,W,8.6,95.23,061218,15.9,E,D*16
2018-12-06T00:01:03.0557Z $GPGST,000102.69,0.50,0.223,0.181,0,0.223,0.181,0.459*78
2018-12-06T00:01:03.1125Z $GPGBS,000102.69,0.34,0.23,0.57,26,0.00,-0.64,0.83*47
2018-12-06T00:01:03.1319Z $GPHDT,92.21,T*3D
2018-12-06T00:01:03.1542Z $PSXN,20,0,0,0,0*3B
2018-12-06T00:01:03.1903Z $PSXN,23,0.37,0.39,92.21,-0.01*22
2018-12-06T00:01:03.7250Z $GPZDA,000103.69,06,12,2018,,*65
2018-12-06T00:01:03.8140Z $GPGGA,000103.69,4812.018198,N,12307.186804,W,2,08,1.1,-1.55,M,-18.40,M,1.2,0001*5A
2018-12-06T00:01:03.8695Z $GPGLL,4812.018198,N,12307.186804,W,000103.69,A,D*71
2018-12-06T00:01:03.9139Z $GPVTG,95.21,T,79.35,M,8.6,N,15.9,K,D*12
2018-12-06T00:01:03.9946Z $GPRMC,000103.69,A,4812.018198,N,12307.186804,W,8.6,95.21,061218,15.9,E,D*1D
2018-12-06T00:01:04.0557Z $GPGST,000103.69,0.50,0.225,0.183,0,0.225,0.183,0.463*70
2018-12-06T00:01:04.1125Z $GPGBS,000103.69,0.35,0.23,0.58,26,0.00,-0.64,0.83*48
2018-12-06T00:01:04.1319Z $GPHDT,92.19,T*36
2018-12-06T00:01:04.1542Z $PSXN,20,0,0,0,0*3B
2018-12-06T00:01:04.1906Z $PSXN,23,0.36,0.42,92.19,-0.01*24
2018-12-06T00:01:04.7254Z $GPZDA,000104.69,06,12,2018,,*62
2018-12-06T00:01:04.8130Z $GPGGA,000104.69,4812.017986,N,12307.183258,W,2,08,1.1,-1.54,M,-18.40,M,1.0,0001*50
2018-12-06T00:01:04.8698Z $GPGLL,4812.017986,N,12307.183258,W,000104.69,A,D*78
2018-12-06T00:01:04.9129Z $GPVTG,95.03,T,79.17,M,8.6,N,15.9,K,D*12
2018-12-06T00:01:04.9949Z $GPRMC,000104.69,A,4812.017986,N,12307.183258,W,8.6,95.03,061218,15.9,E,D*14
2018-12-06T00:01:05.0546Z $GPGST,000104.69,0.50,0.226,0.183,0,0.226,0.183,0.464*70
2018-12-06T00:01:05.1128Z $GPGBS,000104.69,0.35,0.23,0.58,26,0.00,-0.65,0.83*4E
2018-12-06T00:01:05.1323Z $GPHDT,92.19,T*36
2018-12-06T00:01:05.1545Z $PSXN,20,0,0,0,0*3B
2018-12-06T00:01:05.1906Z $PSXN,23,0.32,0.41,92.19,-0.01*23
2018-12-06T00:01:05.7244Z $GPZDA,000105.69,06,12,2018,,*63
2018-12-06T00:01:05.8137Z $GPGGA,000105.69,4812.017785,N,12307.179709,W,2,08,1.1,-1.55,M,-18.40,M,1.4,0001*5D
2018-12-06T00:01:05.8701Z $GPGLL,4812.017785,N,12307.179709,W,000105.69,A,D*70
2018-12-06T00:01:05.9133Z $GPVTG,94.99,T,79.13,M,8.6,N,15.9,K,D*14
2018-12-06T00:01:05.9953Z $GPRMC,000105.69,A,4812.017785,N,12307.179709,W,8.6,94.99,061218,15.9,E,D*1E
2018-12-06T00:01:06.0549Z $GPGST,000105.69,0.50,0.223,0.181,0,0.223,0.181,0.459*7F
2018-12-06T00:01:06.1118Z $GPGBS,000105.69,0.36,0.24,0.60,26,0.00,-0.67,0.83*42
2018-12-06T00:01:06.1326Z $GPHDT,92.20,T*3C
2018-12-06T00:01:06.1535Z $PSXN,20,0,0,0,0*3B
2018-12-06T00:01:06.1909Z $PSXN,23,0.29,0.39,92.20,-0.00*2D
2018-12-06T00:01:06.7246Z $GPZDA,000106.69,06,12,2018,,*60
2018-12-06T00:01:06.8138Z $GPGGA,000106.69,4812.017578,N,12307.176162,W,2,08,1.1,-1.54,M,-18.40,M,1.2,0001*5D
2018-12-06T00:01:06.8691Z $GPGLL,4812.017578,N,12307.176162,W,000106.69,A,D*77
2018-12-06T00:01:06.9135Z $GPVTG,95.07,T,79.20,M,8.6,N,15.9,K,D*12
2018-12-06T00:01:06.9942Z $GPRMC,000106.69,A,4812.017578,N,12307.176162,W,8.6,95.07,061218,15.9,E,D*1F
2018-12-06T00:01:07.0552Z $GPGST,000106.69,0.50,0.225,0.183,0,0.225,0.183,0.463*75
2018-12-06T00:01:07.1122Z $GPGBS,000106.69,0.37,0.24,0.61,26,0.00,-0.68,0.83*4E
2018-12-06T00:01:07.1317Z $GPHDT,92.22,T*3E
2018-12-06T00:01:07.1538Z $PSXN,20,0,0,0,0*3B
2018-12-06T00:01:07.1899Z $PSXN,23,0.25,0.39,92.22,0.00*0E
2018-12-06T00:01:07.7250Z $GPZDA,000107.69,06,12,2018,,*61
2018-12-06T00:01:07.8140Z $GPGGA,000107.69,4812.017371,N,12307.172614,W,2,08,1.1,-1.53,M,-18.40,M,1.0,0001*54
2018-12-06T00:01:07.8695Z $GPGLL,4812.017371,N,12307.172614,W,000107.69,A,D*7B
2018-12-06T00:01:07.9139Z $GPVTG,95.14,T,79.27,M,8.6,N,15.9,K,D*17
2018-12-06T00:01:07.9946Z $GPRMC,000107.69,A,4812.017371,N,12307.172614,W,8.6,95.14,061218,15.9,E,D*11
2018-12-06T00:01:08.0558Z $GPGST,000107.69,0.50,0.223,0.181,0,0.223,0.181,0.459*7D
2018-12-06T00:01:08.1125Z $GPGBS,000107.69,0.38,0.25,0.64,26,0.00,-0.71,0.83*4C
2018-12-06T00:01:08.1322Z $GPHDT,92.23,T*3F
2018-12-06T00:01:08.1544Z $PSXN,20,0,0,0,0*3B
2018-12-06T00:01:08.1894Z $PSXN,23,0.20,0.38,92.23,0.00*0B
2018-12-06T00:01:08.7253Z $GPZDA,000108.69,06,12,2018,,*6E
2018-12-06T00:01:08.8130Z $GPGGA,000108.69,4812.017168,N,12307.169066,W,2,08,1.1,-1.51,M,-18.40,M,1.4,0001*5E
2018-12-06T00:01:08.8699Z $GPGLL,4812.017168,N,12307.169066,W,000108.69,A,D*77
2018-12-06T00:01:08.9129Z $GPVTG,94.95,T,79.08,M,8.6,N,15.9,K,D*12
2018-12-06T00:01:08.9949Z $GPRMC,000108.69,A,4812.017168,N,12307.169066,W,8.6,94.95,061218,15.9,E,D*15
2018-12-06T00:01:09.0545Z $GPGST,000108.69,0.50,0.225,0.183,0,0.225,0.183,0.463*7B
2018-12-06T00:01:09.1129Z $GPGBS,000108.69,0.40,0.26,0.66,26,0.00,-0.74,0.83*48
2018-12-06T00:01:09.1322Z $GPHDT,92.25,T*39
2018-12-06T00:01:09.1544Z $PSXN,20,0,0,0,0*3B
2018-12-06T00:01:09.1906Z $PSXN,23,0.17,0.36,92.25,-0.00*2A
2018-12-06T00:01:09.7243Z $GPZDA,000109.69,06,12,2018,,*6F
2018-12-06T00:01:09.8135Z $GPGGA,000109.69,4812.016965,N,12307.165509,W,2,08,1.1,-1.50,M,-18.40,M,1.2,0001*5C
2018-12-06T00:01:09.8702Z $GPGLL,4812.016965,N,12307.165509,W,000109.69,A,D*72
2018-12-06T00:01:09.9132Z $GPVTG,94.90,T,79.04,M,8.6,N,15.9,K,D*1B
2018-12-06T00:01:09.9953Z $GPRMC,000109.69,A,4812.016965,N,12307.165509,W,8.6,94.90,061218,15.9,E,D*15
2018-12-06T00:01:10.0550Z $GPGST,000109.69,0.50,0.226,0.183,0,0.226,0.183,0.464*7D
2018-12-06T00:01:10.1119Z $GPGBS,000109.69,0.41,0.27,0.68,26,0.00,-0.75,0.83*46
2018-12-06T00:01:10.1325Z $GPHDT,92.28,T*34
2018-12-06T00:01:10.1534Z $PSXN,20,0,0,0,0*3B
2018-12-06T00:01:10.1910Z $PSXN,23,0.14,0.38,92.28,-0.00*2A
2018-12-06T00:01:10.7242Z $GPZDA,000110.69,06,12,2018,,*67
2018-12-06T00:01:10.8135Z $GPGGA,000110.69,4812.016753,N,12307.161957,W,2,08,1.1,-1.49,M,-18.40,M,1.0,0001*56
2018-12-06T00:01:10.8702Z $GPGLL,4812.016753,N,12307.161957,W,000110.69,A,D*72
2018-12-06T00:01:10.9132Z $GPVTG,95.12,T,79.26,M,8.6,N,15.9,K,D*10
2018-12-06T00:01:10.9953Z $GPRMC,000110.69,A,4812.016753,N,12307.161957,W,8.6,95.12,061218,15.9,E,D*1E
2018-12-06T00:01:11.0549Z $GPGST,000110.69,0.50,0.223,0.181,0,0.223,0.181,0.459*7B
2018-12-06T00:01:11.1118Z $GPGBS,000110.69,0.41,0.27,0.68,26,0.00,-0.76,0.83*4D
2018-12-06T00:01:11.1326Z $GPHDT,92.30,T*3D
2018-12-06T00:01:11.1534Z $PSXN,20,0,0,0,0*3B
2018-12-06T00:01:11.1910Z $PSXN,23,0.12,0.38,92.30,-0.01*24
2018-12-06T00:01:11.7243Z $GPZDA,000111.69,06,12,2018,,*66
2018-12-06T00:01:11.8135Z $GPGGA,000111.69,4812.016541,N,12307.158406,W,2,08,1.1,-1.47,M,-18.40,M,1.4,0001*5F
2018-12-06T00:01:11.8702Z $GPGLL,4812.016541,N,12307.158406,W,000111.69,A,D*71
2018-12-06T00:01:11.9132Z $GPVTG,94.96,T,79.10,M,8.6,N,15.9,K,D*18
2018-12-06T00:01:11.9953Z $GPRMC,000111.69,A,4812.016541,N,12307.158406,W,8.6,94.96,061218,15.9,E,D*10
2018-12-06T00:01:12.0550Z $GPGST,000111.69,0.50,0.225,0.183,0,0.225,0.183,0.463*73
2018-12-06T00:01:12.1118Z $GPGBS,000111.69,0.41,0.27,0.69,26,0.00,-0.76,0.83*4D
2018-12-06T00:01:12.1326Z $GPHDT,92.32,T*3F
2018-12-06T00:01:12.1535Z $PSXN,20,0,0,0,0*3B
2018-12-06T00:01:12.1909Z $PSXN,23,0.10,0.37,92.32,-0.01*2B
2018-12-06T00:01:12.7244Z $GPZDA,000112.69,06,12,2018,,*65
2018-12-06T00:01:12.8135Z $GPGGA,000112.69,4812.016334,N,12307.154849,W,2,08,1.1,-1.45,M,-18.40,M,1.2,0001*57
2018-12-06T00:01:12.8702Z $GPGLL,4812.016334,N,12307.154849,W,000112.69,A,D*7D
2018-12-06T00:01:12.9132Z $GPVTG,95.01,T,79.15,M,8.6,N,15.9,K,D*12
2018-12-06T00:01:12.9953Z $GPRMC,000112.69,A,4812.016334,N,12307.154849,W,8.6,95.01,061218,15.9,E,D*13
2018-12-06T00:01:13.0549Z $GPGST,000112.69,0.50,0.223,0.181,0,0.223,0.181,0.459*79
2018-12-06T00:01:13.1118Z $GPGBS,000112.69,0.42,0.27,0.69,26,0.00,-0.77,0.83*4C
2018-12-06T00:01:13.1326Z $GPHDT,92.36,T*3B
2018-12-06T00:01:13.1535Z $PSXN,20,0,0,0,0*3B
2018-12-06T00:01:13.1909Z $PSXN,23,0.11,0.38,92.36,-0.01*21
2018-12-06T00:01:13.7244Z $GPZDA,000113.69,06,12,2018,,*64
2018-12-06T00:01:13.8136Z $GPGGA,000113.69,4812.016126,N,12307.151302,W,2,08,1.1,-1.44,M,-18.40,M,1.0,0001*55
2018-12-06T00:01:13.8701Z $GPGLL,4812.016126,N,12307.151302,W,000113.69,A,D*7C
2018-12-06T00:01:13.9133Z $GPVTG,95.17,T,79.31,M,8.6,N,15.9,K,D*13
2018-12-06T00:01:13.9953Z $GPRMC,000113.69,A,4812.016126,N,12307.151302,W,8.6,95.17,061218,15.9,E,D*15
2018-12-06T00:01:14.0549Z $GPGST,000113.69,0.50,0.225,0.183,0,0.225,0.183,0.463*71
2018-12-06T00:01:14.1118Z $GPGBS,000113.69,0.41,0.27,0.69,26,0.00,-0.77,0.83*4E
2018-12-06T00:01:14.1326Z $GPHDT,92.43,T*39
2018-12-06T00:01:14.1535Z $PSXN,20,0,0,0,0*3B
2018-12-06T00:01:14.1909Z $PSXN,23,0.10,0.40,92.43,-0.01*2D
2018-12-06T00:01:14.7243Z $GPZDA,000114.69,06,12,2018,,*63
2018-12-06T00:01:14.8136Z $GPGGA,000114.69,4812.015914,N,12307.147751,W,2,08,1.1,-1.43,M,-18.40,M,1.4,0001*5E
2018-12-06T00:01:14.8702Z $GPGLL,4812.015914,N,12307.147751,W,000114.69,A,D*74
2018-12-06T00:01:14.9132Z $GPVTG,95.17,T,79.30,M,8.6,N,15.9,K,D*12
2018-12-06T00:01:14.9952Z $GPRMC,000114.69,A,4812.015914,N,12307.147751,W,8.6,95.17,061218,15.9,E,D*1D
2018-12-06T00:01:15.0549Z $GPGST,000114.69,0.50,0.226,0.183,0,0.226,0.183,0.464*71
2018-12-06T00:01:15.1119Z $GPGBS,000114.69,0.41,0.27,0.69,26,0.00,-0.77,0.83*49
2018-12-06T00:01:15.1326Z $GPHDT,92.48,T*32
2018-12-06T00:01:15.1535Z $PSXN,20,0,0,0,0*3B
2018-12-06T00:01:15.1910Z $PSXN,23,0.11,0.38,92.48,-0.01*28
2018-12-06T00:01:15.7247Z $GPZDA,000115.69,06,12,2018,,*62
2018-12-06T00:01:15.8139Z $GPGGA,000115.69,4812.015702,N,12307.144206,W,2,08,1.1,-1.43,M,-18.40,M,1.2,0001*54
2018-12-06T00:01:15.8691Z $GPGLL,4812.015702,N,12307.144206,W,000115.69,A,D*78
2018-12-06T00:01:15.9137Z $GPVTG,95.05,T,79.19,M,8.6,N,15.9,K,D*1A
2018-12-06T00:01:15.9947Z $GPRMC,000115.69,A,4812.015702,N,12307.144206,W,8.6,95.05,061218,15.9,E,D*12
2018-12-06T00:01:16.0546Z $GPGST,000115.69,0.50,0.223,0.181,0,0.223,0.181,0.459*7E
2018-12-06T00:01:16.1129Z $GPGBS,000115.69,0.42,0.27,0.70,26,0.00,-0.78,0.83*4C
2018-12-06T00:01:16.1323Z $GPHDT,92.55,T*3E
2018-12-06T00:01:16.1546Z $PSXN,20,0,0,0,0*3B
2018-12-06T00:01:16.1907Z $PSXN,23,0.13,0.37,92.55,-0.01*29
2018-12-06T00:01:16.7242Z $GPZDA,000116.69,06,12,2018,,*61
2018-12-06T00:01:16.8135Z $GPGGA,000116.69,4812.015487,N,12307.140661,W,2,08,1.1,-1.43,M,-18.40,M,1.0,0001*5A
2018-12-06T00:01:16.8702Z $GPGLL,4812.015487,N,12307.140661,W,000116.69,A,D*74
2018-12-06T00:01:16.9132Z $GPVTG,95.40,T,79.53,M,8.6,N,15.9,K,D*15
2018-12-06T00:01:16.9952Z $GPRMC,000116.69,A,4812.015487,N,12307.140661,W,8.6,95.40,061218,15.9,E,D*1F
2018-12-06T00:01:17.0549Z $GPGST,000116.69,0.50,0.225,0.183,0,0.225,0.183,0.463*74
2018-12-06T00:01:17.1119Z $GPGBS,000116.69,0.43,0.28,0.72,26,0.00,-0.80,0.83*44
2018-12-06T00:01:17.1327Z $GPHDT,92.62,T*3A
2018-12-06T00:01:17.1534Z $PSXN,20,0,0,0,0*3B
2018-12-06T00:01:17.1911Z $PSXN,23,0.13,0.38,92.62,-0.00*23
2018-12-06T00:01:17.7246Z $GPZDA,000117.69,06,12,2018,,*60
2018-12-06T00:01:17.8139Z $GPGGA,000117.69,4812.015263,N,12307.137112,W,2,08,1.1,-1.42,M,-18.40,M,1.4,0001*51
2018-12-06T00:01:17.8691Z $GPGLL,4812.015263,N,12307.137112,W,000117.69,A,D*7A
2018-12-06T00:01:17.9136Z $GPVTG,95.38,T,79.52,M,8.6,N,15.9,K,D*1B
2018-12-06T00:01:17.9942Z $GPRMC,000117.69,A,4812.015263,N,12307.137112,W,8.6,95.38,061218,15.9,E,D*1E
2018-12-06T00:01:18.0552Z $GPGST,000117.69,0.50,0.223,0.181,0,0.223,0.181,0.459*7C
2018-12-06T00:01:18.1122Z $GPGBS,000117.69,0.44,0.29,0.73,26,0.00,-0.81,0.83*43
2018-12-06T00:01:18.1315Z $GPHDT,92.67,T*3F
2018-12-06T00:01:18.1538Z $PSXN,20,0,0,0,0*3B
2018-12-06T00:01:18.1900Z $PSXN,23,0.11,0.38,92.67,-0.01*25
2018-12-06T00:01:18.7250Z $GPZDA,000118.69,06,12,2018,,*6F
2018-12-06T00:01:18.8141Z $GPGGA,000118.69,4812.015037,N,12307.133559,W,2,08,1.1,-1.41,M,-18.40,M,1.2,0001*57
2018-12-06T00:01:18.8694Z $GPGLL,4812.015037,N,12307.133559,W,000118.69,A,D*79
2018-12-06T00:01:18.9140Z $GPVTG,95.49,T,79.62,M,8.6,N,15.9,K,D*1E
2018-12-06T00:01:18.9945Z $GPRMC,000118.69,A,4812.015037,N,12307.133559,W,8.6,95.49,061218,15.9,E,D*1B
2018-12-06T00:01:19.0557Z $GPGST,000118.69,0.50,0.225,0.183,0,0.225,0.183,0.463*7A
2018-12-06T00:01:19.1125Z $GPGBS,000118.69,0.43,0.28,0.72,26,0.00,-0.80,0.83*4A
2018-12-06T00:01:19.1319Z $GPHDT,92.72,T*3B
2018-12-06T00:01:19.1541Z $PSXN,20,0,0,0,0*3B
2018-12-06T00:01:19.1903Z $PSXN,23,0.09,0.37,92.72,-0.01*27
2018-12-06T00:01:19.7253Z $GPZDA,000119.69,06,12,2018,,*6E
2018-12-06T00:01:19.8133Z $GPGGA,000119.69,4812.014808,N,12307.130010,W,2,08,1.1,-1.42,M,-18.40,M,1.0,0001*59
2018-12-06T00:01:19.8698Z $GPGLL,4812.014808,N,12307.130010,W,000119.69,A,D*76
2018-12-06T00:01:19.9129Z $GPVTG,95.66,T,79.79,M,8.6,N,15.9,K,D*19
2018-12-06T00:01:19.9949Z $GPRMC,000119.69,A,4812.014808,N,12307.130010,W,8.6,95.66,061218,15.9,E,D*19
2018-12-06T00:01:20.0574Z $GPGST,000119.69,0.50,0.226,0.184,180,0.226,0.184,0.464*75
2018-12-06T00:01:20.1143Z $GPGBS,000119.69,0.41,0.27,0.68,26,0.00,-0.75,0.83*47
2018-12-06T00:01:20.1336Z $GPHDT,92.77,T*3E
2018-12-06T00:01:20.1559Z $PSXN,20,0,0,0,0*3B
2018-12-06T00:01:20.1921Z $PSXN,23,0.06,0.37,92.77,-0.02*2E
2018-12-06T00:01:20.7243Z $GPZDA,000120.69,06,12,2018,,*64
2018-12-06T00:01:20.8136Z $GPGGA,000120.69,4812.014569,N,12307.126462,W,2,08,1.1,-1.42,M,-18.40,M,1.4,0001*5B
2018-12-06T00:01:20.8702Z $GPGLL,4812.014569,N,12307.126462,W,000120.69,A,D*70
2018-12-06T00:01:20.9133Z $GPVTG,95.73,T,79.86,M,8.6,N,15.9,K,D*1D
2018-12-06T00:01:20.9953Z $GPRMC,000120.69,A,4812.014569,N,12307.126462,W,8.6,95.73,061218,15.9,E,D*1B
2018-12-06T00:01:21.0577Z $GPGST,000120.69,0.50,0.224,0.181,180,0.224,0.181,0.459*71
2018-12-06T00:01:21.1146Z $GPGBS,000120.69,0.42,0.27,0.69,26,0.00,-0.77,0.83*4D
2018-12-06T00:01:21.1343Z $GPHDT,92.81,T*37
2018-12-06T00:01:21.1566Z $PSXN,20,0,0,0,0*3B
2018-12-06T00:01:21.1926Z $PSXN,23,0.03,0.37,92.81,-0.02*22
2018-12-06T00:01:21.7249Z $GPZDA,000121.69,06,12,2018,,*65
2018-12-06T00:01:21.8140Z $GPGGA,000121.69,4812.014333,N,12307.122905,W,2,08,1.1,-1.43,M,-18.40,M,1.2,0001*5C
2018-12-06T00:01:21.8695Z $GPGLL,4812.014333,N,12307.122905,W,000121.69,A,D*70
2018-12-06T00:01:21.9139Z $GPVTG,95.78,T,79.91,M,8.6,N,15.9,K,D*10
2018-12-06T00:01:21.9946Z $GPRMC,000121.69,A,4812.014333,N,12307.122905,W,8.6,95.78,061218,15.9,E,D*10
